[{"statNm":"입장휴게소(서울방향)","statId":"ME000223","addr":"충청남도 천안시 서북구 입장면 연곡길 407","location":"null","lat":"36.9428836","lng":"127.1941661","zcode":"44","zscode":"44130"},{"statNm":"천안휴게소(부산방향)","statId":"ME000224","addr":"충청남도 천안시 동남구 수신면 성남로 793-40 ","location":"null","lat":"36.7304441","lng":"127.2629759","zcode":"44","zscode":"44130"},{"statNm":"정안휴게소(천안방향)","statId":"ME000225","addr":"충청남도 공주시 정안면 장원장자울길 73-47 ","location":"null","lat":"36.5685878","lng":"127.1144045","zcode":"44","zscode":"44150"},{"statNm":"이인휴게소(천안방향)","statId":"ME000226","addr":"충청남도 공주시 이인면 이인리","location":"null","lat":"36.3520509","lng":"127.0692232","zcode":"44","zscode":"44150"},{"statNm":"탄천휴게소(논산방향)","statId":"ME000227","addr":"충청남도 공주시 탄천면 장선리 151-6","location":"null","lat":"36.3200333","lng":"127.0705915","zcode":"44","zscode":"44150"},{"statNm":"정안휴게소(순천방향)","statId":"ME000228","addr":"충청남도 공주시 정안면 석송리 ","location":"null","lat":"36.5717709","lng":"127.1127178","zcode":"44","zscode":"44150"},{"statNm":"아트센터 고마","statId":"ME000229","addr":"충청남도 공주시 웅진동 354-6","location":"null","lat":"36.466735","lng":"127.109715","zcode":"44","zscode":"44150"},{"statNm":"둔포면사무소","statId":"ME000232","addr":"충청남도 아산시 둔포면 둔포리 461-11","location":"null","lat":"36.92976","lng":"127.037976","zcode":"44","zscode":"44200"},{"statNm":"지곡면 공영주차장","statId":"ME000234","addr":"충청남도 서산시 지곡면 화천리 1301-17","location":"null","lat":"36.86375","lng":"126.434241","zcode":"44","zscode":"44210"},{"statNm":"벌곡휴게소(대전방향)","statId":"ME000235","addr":"충청남도 논산시 벌곡면 양산리","location":"null","lat":"36.210813","lng":"127.2704991","zcode":"44","zscode":"44230"},{"statNm":"엄사상점가 공영주차장","statId":"ME000236","addr":"충청남도 계룡시 엄사면 엄사리 181-3","location":"null","lat":"36.289045","lng":"127.242876","zcode":"44","zscode":"44250"},{"statNm":"인삼랜드휴게소(하남방향)","statId":"ME000240","addr":"충청남도 금산군 군북면 대암길 34-30 ","location":"null","lat":"36.1551665","lng":"127.4962759","zcode":"44","zscode":"44710"},{"statNm":"인삼랜드휴게소(통영방향)","statId":"ME000241","addr":"충청남도 금산군 군북면 어필각로 300 ","location":"null","lat":"36.1537077","lng":"127.4951731","zcode":"44","zscode":"44710"},{"statNm":"금산군청","statId":"ME000242","addr":"충청남도 금산군 금산읍 군청길 13","location":"null","lat":"36.108708","lng":"127.486678","zcode":"44","zscode":"44710"},{"statNm":"부여백제휴게소(공주방향)","statId":"ME000243","addr":"충청남도 부여군 내산면 서천공주고속도로 26","location":"null","lat":"36.2590649","lng":"126.8002163","zcode":"44","zscode":"44760"},{"statNm":"부여백제휴게소(서천방향)","statId":"ME000244","addr":"충청남도 부여군 내산면 서천공주고속도로 25 ","location":"null","lat":"36.2571854","lng":"126.7959141","zcode":"44","zscode":"44760"},{"statNm":"동부여석성휴게소","statId":"ME000245","addr":"충청남도 부여군 석성면 대백제로 3050","location":"null","lat":"36.252312","lng":"126.980859","zcode":"44","zscode":"44760"},{"statNm":"서면사무소","statId":"ME000246","addr":"충청남도 서천군 서면 서인로 761","location":"null","lat":"36.15276","lng":"126.549804","zcode":"44","zscode":"44770"},{"statNm":"청양읍사무소 앞 공영주차장","statId":"ME000247","addr":"충청남도 청양군 청양읍 칠갑산로6길 28","location":"null","lat":"36.448522","lng":"126.801788","zcode":"44","zscode":"44790"},{"statNm":"정산면사무소","statId":"ME000248","addr":"충청남도 청양군 정산면 칠갑산로 1857","location":"null","lat":"36.414679","lng":"126.944913","zcode":"44","zscode":"44790"},{"statNm":"홍주종합경기장","statId":"ME000251","addr":"충청남도 홍성군 홍성읍 소향리 397-118","location":"null","lat":"36.606382","lng":"126.64192","zcode":"44","zscode":"44800"},{"statNm":"광천생활체육공원","statId":"ME000252","addr":"충청남도 홍성군 광천읍 홍남로 764-42","location":"null","lat":"36.508184","lng":"126.635298","zcode":"44","zscode":"44800"},{"statNm":"예산복합문화복지센터","statId":"ME000253","addr":"충청남도 예산군 예산읍 석양리 213-2","location":"null","lat":"36.6999594","lng":"126.8407188","zcode":"44","zscode":"44810"},{"statNm":"남면사무소","statId":"ME000255","addr":"충청남도 태안군 남면 달산리 1179","location":"null","lat":"36.671559","lng":"126.298053","zcode":"44","zscode":"44825"},{"statNm":"태안상설시장 공영주차장","statId":"ME000256","addr":"충청남도 태안군 태안읍 동백로 251","location":"null","lat":"36.751056","lng":"126.2987644","zcode":"44","zscode":"44825"},{"statNm":"논산시청 앞 공영주차장","statId":"ME174116","addr":"충청남도 논산시 내동 825","location":"null","lat":"36.1860835","lng":"127.0993556","zcode":"44","zscode":"44230"},{"statNm":"국립생태원 정문 주차장","statId":"ME174117","addr":"충청남도 서천군 마서면 송내리 758","location":"null","lat":"36.027168","lng":"126.7215749","zcode":"44","zscode":"44770"},{"statNm":"입장휴게소(서울방향)","statId":"ME178010","addr":"충청남도 천안시 서북구 입장면 연곡길 407","location":"null","lat":"36.9427836","lng":"127.1943661","zcode":"44","zscode":"44130"},{"statNm":"천안휴게소(서울방향)","statId":"ME178011","addr":"충청남도 천안시 동남구 쉼1길 42 (삼룡동)173-1","location":"null","lat":"36.7882107","lng":"127.1735101","zcode":"44","zscode":"44130"},{"statNm":"대천휴게소(목포방향)","statId":"ME178027","addr":"충청남도 보령시 주교면 서해안고속도로 199 (주교리)","location":"null","lat":"36.3729958","lng":"126.5563709","zcode":"44","zscode":"44180"},{"statNm":"대천휴게소(시흥방향)","statId":"ME178028","addr":"충청남도 보령시 주교면 서해안고속도로 200 (주교리)","location":"null","lat":"36.3737327","lng":"126.557557","zcode":"44","zscode":"44180"},{"statNm":"서산휴게소(시흥방향)","statId":"ME178029","addr":"충청남도 서산시 해미면 서해안고속도로 242 (삼송리)","location":"null","lat":"36.7338867","lng":"126.5670967","zcode":"44","zscode":"44210"},{"statNm":"서천휴게소(목포방향)","statId":"ME178030","addr":"충청남도 서천군 비인면 서해안고속도로 169 (성산리)","location":"null","lat":"36.1292781","lng":"126.6269803","zcode":"44","zscode":"44770"},{"statNm":"서천휴게소(시흥방향)","statId":"ME178031","addr":"충청남도 서천군 비인면 서해안고속도로 168 (성산리)","location":"null","lat":"36.1320831","lng":"126.6275272","zcode":"44","zscode":"44770"},{"statNm":"홍성휴게소(목포방향)","statId":"ME178032","addr":"충청남도 홍성군 은하면 서해안고속도로 221 (금국리)","location":"null","lat":"36.5520256","lng":"126.579626","zcode":"44","zscode":"44800"},{"statNm":"홍성휴게소(시흥방향)","statId":"ME178033","addr":"충청남도 홍성군 은하면 서해안고속도로 220 (금국리)","location":"null","lat":"36.5538232","lng":"126.5818528","zcode":"44","zscode":"44800"},{"statNm":"벌곡휴게소(논산방향)","statId":"ME178042","addr":"충청남도 논산시 벌곡면 호남고속도로 2465-10 (신양리)","location":"null","lat":"36.2175076","lng":"127.2740754","zcode":"44","zscode":"44230"},{"statNm":"인삼랜드휴게소(통영방향)","statId":"ME178054","addr":"충청남도 금산군 군북면 어필각로 300 (외부리)","location":"null","lat":"36.1536077","lng":"127.4953731","zcode":"44","zscode":"44710"},{"statNm":"인삼랜드휴게소(하남방향)","statId":"ME178055","addr":"충청남도 금산군 군북면 대암길 34-30 (외부리)","location":"null","lat":"36.1550665","lng":"127.4964759","zcode":"44","zscode":"44710"},{"statNm":"공주휴게소(당진방향)","statId":"ME178105","addr":"충청남도 공주시 의당면 당진영덕고속도로 71 (청룡리)","location":"null","lat":"36.4985499","lng":"127.1668661","zcode":"44","zscode":"44150"},{"statNm":"공주휴게소(대전방향)","statId":"ME178106","addr":"충청남도 공주시 의당면 당진영덕고속도로 72 (송선동)","location":"null","lat":"36.4967019","lng":"127.1662711","zcode":"44","zscode":"44150"},{"statNm":"예산휴게소(당진방향)","statId":"ME178107","addr":"충청남도 예산군 신양면 당진영덕고속도로 33 (서계양리)","location":"null","lat":"36.6193815","lng":"126.8465667","zcode":"44","zscode":"44810"},{"statNm":"예산휴게소(대전방향)","statId":"ME178108","addr":"충청남도 예산군 신양면 당진영덕고속도로 34 (서계양리)","location":"null","lat":"36.6229771","lng":"126.8402835","zcode":"44","zscode":"44810"},{"statNm":"부여백제휴게소(공주방향)","statId":"ME178126","addr":"충청남도 부여군 내산면 서천공주고속도로 26 (율암리)","location":"null","lat":"36.2589649","lng":"126.8004163","zcode":"44","zscode":"44760"},{"statNm":"부여백제휴게소(서천방향)","statId":"ME178127","addr":"충청남도 부여군 내산면 서천공주고속도로 25 (율암리)","location":"null","lat":"36.2570854","lng":"126.7961141","zcode":"44","zscode":"44760"},{"statNm":"롯데마트 서산점","statId":"ME178151","addr":"충청남도 서산시 충의로 27 (예천동)","location":"null","lat":"36.7727044","lng":"126.4395537","zcode":"44","zscode":"44210"},{"statNm":"GS장항솔바람점","statId":"ME181422","addr":"충청남도 서천군 장항읍 송림리 755-12","location":"null","lat":"36.024538","lng":"126.66773","zcode":"44","zscode":"44770"},{"statNm":"태안해안국립공원 삼봉주차장","statId":"ME181423","addr":"충청남도 태안군 안면읍 창기리 1304-6","location":"null","lat":"36.570842","lng":"126.315921","zcode":"44","zscode":"44825"},{"statNm":"태안해안국립공원 학암포야영장","statId":"ME181424","addr":"충청남도 태안군 원북면 방갈리 515-79","location":"null","lat":"36.896882","lng":"126.206457","zcode":"44","zscode":"44825"},{"statNm":"롯데마트 천안점","statId":"ME181434","addr":"충청남도 천안시 서북구 월봉로 95-0 (쌍용2동)","location":"null","lat":"36.799709","lng":"127.117648","zcode":"44","zscode":"44130"},{"statNm":"롯데마트 홍성점","statId":"ME181435","addr":"충청남도 홍성군 홍성읍 조양로247번길 9 (고암리)","location":"null","lat":"36.600955","lng":"126.676311","zcode":"44","zscode":"44800"},{"statNm":"예산군청","statId":"ME183108","addr":"충청남도 예산군 예산읍 군청로 22, 지하주차장 정면","location":"null","lat":"36.6801958","lng":"126.8453442","zcode":"44","zscode":"44810"},{"statNm":"논산시국민체육센터","statId":"ME183145","addr":"충청남도 논산시 논산대로 382, 논산건강관리센터 옆","location":"null","lat":"36.195595","lng":"127.1023503","zcode":"44","zscode":"44230"},{"statNm":"연무문화체육센터","statId":"ME183146","addr":"충청남도 논산시 연무로 166번길 64, 2주차장","location":"null","lat":"36.1261993","lng":"127.0959728","zcode":"44","zscode":"44230"},{"statNm":"주교면 행정복지센터","statId":"ME183147","addr":"충청남도 보령시 주교면 울계큰길 396","location":"null","lat":"36.3902835","lng":"126.56861","zcode":"44","zscode":"44180"},{"statNm":"대천해수욕장 제1주차장","statId":"ME183148","addr":"충청남도 보령시 신흑동 1437-3","location":"null","lat":"36.3069531","lng":"126.51994","zcode":"44","zscode":"44180"},{"statNm":"머드광장","statId":"ME183149","addr":"충청남도 보령시 신흑동 2279, 입구 우측 안쪽","location":"null","lat":"36.3171775","lng":"126.5135237","zcode":"44","zscode":"44180"},{"statNm":"무창포해수욕장 제6공영주차장","statId":"ME183150","addr":"충청남도 보령시 웅천읍 독산리 784-2, 입구 좌측","location":"null","lat":"36.2384111","lng":"126.5310201","zcode":"44","zscode":"44180"},{"statNm":"주포면사무소","statId":"ME183151","addr":"충청남도 보령시 주포면 보령읍성길 38-1","location":"null","lat":"36.4149256","lng":"126.5878437","zcode":"44","zscode":"44180"},{"statNm":"서천특화시장","statId":"ME183152","addr":"충청남도 서천군 서천읍 군사리 703, 우측 주차장 입구","location":"null","lat":"36.0752406","lng":"126.6858211","zcode":"44","zscode":"44770"},{"statNm":"한산119안전센터 공영주차장","statId":"ME183153","addr":"충청남도 서천군 한산면 지현리 8, 건물 우측","location":"null","lat":"36.0836479","lng":"126.8070099","zcode":"44","zscode":"44770"},{"statNm":"판교면행정복지센터","statId":"ME183154","addr":"충청남도 서천군 판교면 현암리 183-1, 입구 좌측","location":"null","lat":"36.1578447","lng":"126.689357","zcode":"44","zscode":"44770"},{"statNm":"천안박물관","statId":"ME183155","addr":"충청남도 천안시 동남구 삼룡동 401-17, 입구 좌측 주차장","location":"null","lat":"36.785816","lng":"127.1649241","zcode":"44","zscode":"44130"},{"statNm":"서부농협 광리지점","statId":"ME183156","addr":"충청남도 홍성군 서부면 서부로 777","location":"null","lat":"36.5978325","lng":"126.504842","zcode":"44","zscode":"44800"},{"statNm":"충청남도청","statId":"ME183157","addr":"충청남도 홍성군 홍북읍 충남대로 21, 입구 좌측 끝","location":"null","lat":"36.6579411","lng":"126.6713469","zcode":"44","zscode":"44800"},{"statNm":"블루핸즈 서산현대서비스","statId":"ME183158","addr":"충청남도 서산시 수석동 204-19","location":"null","lat":"36.7820781","lng":"126.497637","zcode":"44","zscode":"44210"},{"statNm":"블루핸즈 북천안현대서비스","statId":"ME183159","addr":"충청남도 천안시 서북구 신당새터 2길 28, 카페 옆","location":"null","lat":"36.8510372","lng":"127.1577098","zcode":"44","zscode":"44130"},{"statNm":"블루핸즈 내포현대서비스","statId":"ME183160","addr":"충청남도 홍성군 홍북읍 홍북로 453번길 50","location":"null","lat":"36.6501521","lng":"126.6896382","zcode":"44","zscode":"44800"},{"statNm":"블루핸즈 오관점","statId":"ME183161","addr":"충청남도 홍성군 홍성읍 충서로 1402","location":"null","lat":"36.6006257","lng":"126.6535383","zcode":"44","zscode":"44800"},{"statNm":"망향휴게소(부산방향)","statId":"ME184014","addr":"null","location":"null","lat":"36.855538","lng":"127.180940","zcode":"44","zscode":"44130"},{"statNm":"합덕읍 행정복지센터","statId":"ME184133","addr":", 주차장 내","location":"null","lat":"36.812931","lng":"126.765763","zcode":"44","zscode":"44270"},{"statNm":"당진시청","statId":"ME184134","addr":"충청남도 당진시 시청1로 1","location":"null","lat":"36.8906781","lng":"126.6453379","zcode":"44","zscode":"44270"},{"statNm":"아산시청","statId":"ME184135","addr":"충청남도 아산시 시민로 456","location":"null","lat":"36.790230","lng":"127.001773","zcode":"44","zscode":"44200"},{"statNm":"천안종합운동장 실내테니스장","statId":"ME184136","addr":"null","location":"null","lat":"36.816712","lng":"127.112333","zcode":"44","zscode":"44130"},{"statNm":"홍성휴게소(시흥방향)","statId":"ME184137","addr":"충청남도 홍성군 은하면 서해안고속도로 220","location":"null","lat":"36.5539232","lng":"126.5816528","zcode":"44","zscode":"44800"},{"statNm":"홍성휴게소(목포방향)","statId":"ME184138","addr":"충청남도 홍성군 은하면 서해안고속도로 221","location":"null","lat":"36.5521256","lng":"126.579426","zcode":"44","zscode":"44800"},{"statNm":"두마면사무소","statId":"ME18A181","addr":"충청남도 계룡시 두마면 팥거리2길 14","location":"null","lat":"36.266718","lng":"127.272804","zcode":"44","zscode":"44250"},{"statNm":"공주휴게소(당진방향)","statId":"ME18A182","addr":"충청남도 공주시 의당면 당진영덕고속도로 71","location":"null","lat":"36.4984","lng":"127.166516","zcode":"44","zscode":"44150"},{"statNm":"공주휴게소(대전방향)","statId":"ME18A183","addr":"충청남도 공주시 당진영덕고속도로 72","location":"null","lat":"36.496799","lng":"127.165376","zcode":"44","zscode":"44150"},{"statNm":"사곡면사무소","statId":"ME18A184","addr":"충청남도 공주시 사곡면 호계리 309","location":"null","lat":"36.502183","lng":"127.025549","zcode":"44","zscode":"44150"},{"statNm":"신풍면사무소","statId":"ME18A185","addr":"충청남도 공주시 신풍면 안뜸길 14","location":"null","lat":"36.51475","lng":"126.955752","zcode":"44","zscode":"44150"},{"statNm":"벌곡휴게소(대전방향)","statId":"ME18A186","addr":"충청남도 논산시 벌곡면 벌곡로 9-58","location":"null","lat":"36.210963","lng":"127.270945","zcode":"44","zscode":"44230"},{"statNm":"당진근로자복지회관","statId":"ME18A187","addr":"충청남도 당진시 송악읍 부곡공단4길 53-13","location":"null","lat":"36.961665","lng":"126.775816","zcode":"44","zscode":"44270"},{"statNm":"석문문화스포츠센터","statId":"ME18A188","addr":"충청남도 당진시 석문면 대호만로 1543","location":"null","lat":"37.003233","lng":"126.553698","zcode":"44","zscode":"44270"},{"statNm":"송악문화스포츠센타","statId":"ME18A189","addr":"충청남도 당진시 틀모시로 830","location":"null","lat":"36.907025","lng":"126.691711","zcode":"44","zscode":"44270"},{"statNm":"궁촌동 공영주차장","statId":"ME18A190","addr":"충청남도 보령시 궁촌동 43-2","location":"null","lat":"36.343237","lng":"126.596518","zcode":"44","zscode":"44180"},{"statNm":"장현보건진료소","statId":"ME18A191","addr":"충청남도 보령시 청라면 장현리 760-9 ","location":"null","lat":"36.420434","lng":"126.662475","zcode":"44","zscode":"44180"},{"statNm":"대천휴게소(목포방향)","statId":"ME18A192","addr":"충청남도 보령시 주교면 서해안고속도로 199","location":"null","lat":"36.373665","lng":"126.556021","zcode":"44","zscode":"44180"},{"statNm":"대천휴게소(시흥방향)","statId":"ME18A193","addr":"충청남도 보령시 주교면 서해안고속도로 200","location":"null","lat":"36.375302","lng":"126.557217","zcode":"44","zscode":"44180"},{"statNm":"청라면 사무소","statId":"ME18A194","addr":"충청남도 보령시 청라면 원모루길 219","location":"null","lat":"36.390127","lng":"126.67353","zcode":"44","zscode":"44180"},{"statNm":"서산휴게소(목포방향)","statId":"ME18A195","addr":"충청남도 서산시 해미면 서해안고속도로 241","location":"null","lat":"36.742968","lng":"126.565298","zcode":"44","zscode":"44210"},{"statNm":"부석면주민자치센터","statId":"ME18A196","addr":"충청남도 서산시 부석면 취평리 364-2","location":"null","lat":"36.714723","lng":"126.393378","zcode":"44","zscode":"44210"},{"statNm":"시초면사무소","statId":"ME18A197","addr":"충청남도 서천군 시초면 시초북로 37","location":"null","lat":"36.12169","lng":"126.752839","zcode":"44","zscode":"44770"},{"statNm":"온양온천시장 공영주차타워","statId":"ME18A198","addr":"충청남도 아산시 충무로 25(온천동 94-10), 1층","location":"null","lat":"36.783706","lng":"127.004024","zcode":"44","zscode":"44200"},{"statNm":"탕정면사무소","statId":"ME18A199","addr":"충청남도 아산시 탕정면 탕정면로 36","location":"null","lat":"36.798054","lng":"127.061386","zcode":"44","zscode":"44200"},{"statNm":"예산휴게소(당진방향)","statId":"ME18A200","addr":"충청남도 예산군 신양면 당진영덕고속도로 33","location":"null","lat":"36.619441","lng":"126.846334","zcode":"44","zscode":"44810"},{"statNm":"계룡시청","statId":"ME18A284","addr":"충청남도 계룡시 장안로 46","location":"null","lat":"36.273688","lng":"127.248959","zcode":"44","zscode":"44250"},{"statNm":"우성면사무소","statId":"ME18A285","addr":"충청남도 공주시 우성면 동대리길 57-1 ","location":"null","lat":"36.47051","lng":"127.050165","zcode":"44","zscode":"44150"},{"statNm":"금학생태공원주차장","statId":"ME18A286","addr":"충청남도 공주시 금학동 106","location":"null","lat":"36.434666","lng":"127.123787","zcode":"44","zscode":"44150"},{"statNm":"종합사회복지관","statId":"ME18A287","addr":"충청남도 공주시 의당면 의당로 257","location":"null","lat":"36.494229","lng":"127.136309","zcode":"44","zscode":"44150"},{"statNm":"계룡농협하나로마트","statId":"ME18A288","addr":"충청남도 논산시 연산면 청동로 34","location":"null","lat":"36.208811","lng":"127.196657","zcode":"44","zscode":"44230"},{"statNm":"채운면사무소","statId":"ME18A289","addr":"충청남도 논산시 채운면 채운로41","location":"null","lat":"36.173704","lng":"127.062575","zcode":"44","zscode":"44230"},{"statNm":"당진문예의전당","statId":"ME18A290","addr":"충청남도 당진시 무수동2길 25-21","location":"null","lat":"36.890211","lng":"126.638026","zcode":"44","zscode":"44270"},{"statNm":"롯데리조트부여","statId":"ME18A291","addr":"충청남도 부여군 규암면 백제문로 400, 지하1층, J","location":"null","lat":"36.303895","lng":"126.900692","zcode":"44","zscode":"44760"},{"statNm":"부여군청 뒤 주차장","statId":"ME18A292","addr":"충청남도 부여군 부여읍 동남리 732-1 ","location":"null","lat":"36.275198","lng":"126.909334","zcode":"44","zscode":"44760"},{"statNm":"배방읍 행정복지센터","statId":"ME18A293","addr":"충청남도 아산시 배방읍 배방로 38","location":"null","lat":"36.773426","lng":"127.05331","zcode":"44","zscode":"44200"},{"statNm":"용화동제2공영주차장","statId":"ME18A294","addr":"충청남도 아산시 용화동 1143","location":"null","lat":"36.775724","lng":"127.010905","zcode":"44","zscode":"44200"},{"statNm":"환경과학공원","statId":"ME18A295","addr":"충청남도 아산시 배미동 3-6 ","location":"null","lat":"36.798424","lng":"126.976628","zcode":"44","zscode":"44200"},{"statNm":"문성동 주민센터","statId":"ME18A296","addr":"충청남도 천안시 동남구 문화로 15","location":"null","lat":"36.811157","lng":"127.150341","zcode":"44","zscode":"44130"},{"statNm":"성환문화회관","statId":"ME18A297","addr":"충청남도 천안시 서북구 성환읍 성진로 15","location":"null","lat":"36.912085","lng":"127.135804","zcode":"44","zscode":"44130"},{"statNm":"신방동사무소 앞 공영주차장","statId":"ME18A298","addr":"충청남도 천안시 동남구 천안천변길 129-41","location":"null","lat":"36.786072","lng":"127.122937","zcode":"44","zscode":"44130"},{"statNm":"천안시 서북구청","statId":"ME18A299","addr":"충청남도 천안시 서북구 성거읍 봉주로 75","location":"null","lat":"36.877727","lng":"127.154154","zcode":"44","zscode":"44130"},{"statNm":"알프스마을","statId":"ME18A300","addr":"충청남도 청양군 정산면 천장호길 223-35","location":"null","lat":"36.409337","lng":"126.914454","zcode":"44","zscode":"44790"},{"statNm":"공주시청 주차장","statId":"ME18A310","addr":"충청남도 공주시 봉황동 304-6 ","location":"null","lat":"36.44647","lng":"127.119445","zcode":"44","zscode":"44150"},{"statNm":"장항전통시장","statId":"ME18A311","addr":"충청남도 서천군 장항읍 성화로 92","location":"null","lat":"36.016237","lng":"126.693534","zcode":"44","zscode":"44770"},{"statNm":"천안상록리조트","statId":"ME18A312","addr":"충청남도 천안시 동남구 수신면 수신로 576","location":"null","lat":"36.742044","lng":"127.286159","zcode":"44","zscode":"44130"},{"statNm":"독립기념관","statId":"ME18A405","addr":"충청남도 천안시 동남구 목천읍 남화리 230-1 ","location":"null","lat":"36.778612","lng":"127.231586","zcode":"44","zscode":"44130"},{"statNm":"예산휴게소(대전방향)","statId":"ME18A501","addr":"충청남도 예산군 신양면 당진영덕고속도로 34","location":"null","lat":"36.62409","lng":"126.839632","zcode":"44","zscode":"44810"},{"statNm":"덕산면 종합복지센터","statId":"ME18A502","addr":"충청남도 예산군 덕산면 신평리 362-8","location":"null","lat":"36.700147","lng":"126.665731","zcode":"44","zscode":"44810"},{"statNm":"삽교읍 국민체육센터","statId":"ME18A503","addr":"충청남도 예산군 삽교읍 신가꽃산서길 115","location":"null","lat":"36.68547","lng":"126.740149","zcode":"44","zscode":"44810"},{"statNm":"천안휴게소(부산방향)","statId":"ME18A504","addr":"충청남도 천안시 동남구 수신면 성남로 793-40","location":"null","lat":"36.730579","lng":"127.262657","zcode":"44","zscode":"44130"},{"statNm":"망향휴게소(부산방향)","statId":"ME18A505","addr":"null","location":"null","lat":"36.855538","lng":"127.180940","zcode":"44","zscode":"44130"},{"statNm":"칠갑산자연휴양림","statId":"ME18A506","addr":"충청남도 청양군 대치면 칠갑산로 668-103","location":"null","lat":"36.432352","lng":"126.844029","zcode":"44","zscode":"44790"},{"statNm":"롯데마트 당진점","statId":"ME18A507","addr":"충청남도 당진시 정안로 20","location":"null","lat":"36.905833","lng":"126.646561","zcode":"44","zscode":"44270"},{"statNm":"모종동 제1공영주차장","statId":"ME18A508","addr":"충청남도 아산시 모종동 562-4","location":"null","lat":"36.784045","lng":"127.013232","zcode":"44","zscode":"44200"},{"statNm":"인주면 걸매리 제3공영주차장","statId":"ME18A509","addr":"충청남도 아산시 인주면 걸매리 1049","location":"null","lat":"36.872926","lng":"126.879815","zcode":"44","zscode":"44200"},{"statNm":"이인휴게소(천안방향)","statId":"ME18A510","addr":"충청남도 공주시 이인면 논산천안고속도로 32","location":"null","lat":"36.352899","lng":"127.069722","zcode":"44","zscode":"44150"},{"statNm":"탄천휴게소(순천방향)","statId":"ME18A511","addr":"충청남도 공주시 탄천면 논산천안고속도로 27","location":"null","lat":"36.319252","lng":"127.070052","zcode":"44","zscode":"44150"},{"statNm":"정안휴게소(순천방향)","statId":"ME18A512","addr":"충청남도 공주시 정안면 논산천안고속도로 57","location":"null","lat":"36.57176","lng":"127.112707","zcode":"44","zscode":"44150"},{"statNm":"정안휴게소(천안방향)","statId":"ME18A513","addr":"충청남도 공주시 정안면 논산천안고속도로 58","location":"null","lat":"36.569724","lng":"127.115041","zcode":"44","zscode":"44150"},{"statNm":"여객신터미널 주차장","statId":"ME18A601","addr":"충청남도 태안군 근흥면 신진도리 528","location":"null","lat":"36.678174","lng":"126.136886","zcode":"44","zscode":"44825"},{"statNm":"태안국립공원 몽산포 주차장","statId":"ME18A602","addr":"충청남도 태안군 남면 신장리 360","location":"null","lat":"36.672267","lng":"126.289719","zcode":"44","zscode":"44825"},{"statNm":"태안국민체육센터","statId":"ME18A603","addr":"충청남도 태안군 태안읍 동문리 9-7","location":"null","lat":"36.754625","lng":"126.311901","zcode":"44","zscode":"44825"},{"statNm":"금마면 하나로마트","statId":"ME18A604","addr":"충청남도 홍성군 금마면 가산리 488","location":"null","lat":"36.626358","lng":"126.735388","zcode":"44","zscode":"44800"},{"statNm":"남당항 주차장","statId":"ME18A605","addr":"충청남도 홍성군 서부면 남당리 859-2","location":"null","lat":"36.539213","lng":"126.471536","zcode":"44","zscode":"44800"},{"statNm":"논산공고 앞 공용주차장","statId":"ME19C150","addr":"충청남도 논산시 취암동 822","location":"null","lat":"36.195389","lng":"127.087528","zcode":"44","zscode":"44230"},{"statNm":"선샤인랜드 앞 공용주차장","statId":"ME19C151","addr":"충청남도 논산시 연무읍 죽평리 331-41","location":"null","lat":"36.103139","lng":"127.106250","zcode":"44","zscode":"44230"},{"statNm":"국민연금공단 보령사옥","statId":"ME19C152","addr":"충청남도 보령시 동대동 576-1","location":"null","lat":"36.350944","lng":"126.610750","zcode":"44","zscode":"44180"},{"statNm":"국민건강보험공단 서천출장소","statId":"ME19C153","addr":"충청남도 서천군 서천읍 군사리 181-3","location":"null","lat":"36.074444","lng":"126.698056","zcode":"44","zscode":"44770"},{"statNm":"한국기술교육대학교(제1캠퍼스)","statId":"ME19C155","addr":"충청남도 천안시 동남구 병천면 가전리 307","location":"null","lat":"36.760444","lng":"127.278278","zcode":"44","zscode":"44130"},{"statNm":"청수공원 주차장","statId":"ME19C156","addr":"충청남도 천안시 동남구 청수동 270","location":"null","lat":"36.787111","lng":"127.147194","zcode":"44","zscode":"44130"},{"statNm":"도솔공원","statId":"ME19C157","addr":"충청남도 천안시 동남구 신부동 132-8","location":"null","lat":"36.825001","lng":"127.159452","zcode":"44","zscode":"44130"},{"statNm":"태안보건의료원 제2주차장","statId":"ME19C158","addr":"충청남도 태안군 태안읍 평천리 500-4","location":"null","lat":"36.752861","lng":"126.324528","zcode":"44","zscode":"44825"},{"statNm":"상월면사무소","statId":"ME19C163","addr":"충청남도 논산시 상월면 신충리 54-2","location":"null","lat":"36.295583","lng":"127.141472","zcode":"44","zscode":"44230"},{"statNm":"금산세계인삼엑스포","statId":"ME19C204","addr":"충청남도 금산군 금산읍 신대리 355","location":"null","lat":"36.097873","lng":"127.503598","zcode":"44","zscode":"44710"},{"statNm":"신도안면사무소 주차장","statId":"ME19C233","addr":"충청남도 계룡시 신도안면 남선리 1233","location":"null","lat":"36.300306","lng":"127.242028","zcode":"44","zscode":"44250"},{"statNm":"의당면사무소","statId":"ME19C234","addr":"충청남도 공주시 의당면 청룡리 661-1","location":"null","lat":"36.499444","lng":"127.141694","zcode":"44","zscode":"44150"},{"statNm":"유구읍 행정복지센터","statId":"ME19C235","addr":"충청남도 공주시 유구읍 석남리 388-2","location":"null","lat":"36.552194","lng":"126.950667","zcode":"44","zscode":"44150"},{"statNm":"주산면사무소 주차장","statId":"ME19C236","addr":"충청남도 보령시 주산면 야룡리 181-1 ","location":"null","lat":"36.198306","lng":"126.632250","zcode":"44","zscode":"44180"},{"statNm":"청소농공단지","statId":"ME19C237","addr":"충청남도 보령시 청소면 장곡리 1175","location":"null","lat":"36.430889","lng":"126.583556","zcode":"44","zscode":"44180"},{"statNm":"임천면행정복지센터","statId":"ME19C238","addr":"충청남도 부여군 임천면 군사리 306-1","location":"null","lat":"36.190750","lng":"126.894333","zcode":"44","zscode":"44760"},{"statNm":"대산지방해양수산청","statId":"ME19C239","addr":"충청남도 서산시 잠홍동 344","location":"null","lat":"36.791139","lng":"126.482556","zcode":"44","zscode":"44210"},{"statNm":"국립생태원","statId":"ME19C240","addr":"충청남도 서천군 마서면 송내리 758","location":"null","lat":"36.027528","lng":"126.720917","zcode":"44","zscode":"44770"},{"statNm":"신창역 공영주차장","statId":"ME19C241","addr":"충청남도 아산시 신창면 행목리 346-2","location":"null","lat":"36.770083","lng":"126.951333","zcode":"44","zscode":"44200"},{"statNm":"인주면 걸매리 제1공영주차장","statId":"ME19C242","addr":"충청남도 아산시 인주면 걸매리 1004","location":"null","lat":"36.878250","lng":"126.869750","zcode":"44","zscode":"44200"},{"statNm":"아산테크노밸리 제2공영주차장 ","statId":"ME19C243","addr":"충청남도 아산시 둔포면 석곡리 1480","location":"null","lat":"36.923306","lng":"127.062778","zcode":"44","zscode":"44200"},{"statNm":"도고면사무소","statId":"ME19C244","addr":"충청남도 아산시 도고면 신언리 64-3","location":"null","lat":"36.757278","lng":"126.877861","zcode":"44","zscode":"44200"},{"statNm":"한국전기안전공사 충남중부지사","statId":"ME19C245","addr":"충청남도 예산군 오가면 좌방리 19-16","location":"null","lat":"36.686278","lng":"126.779278","zcode":"44","zscode":"44810"},{"statNm":"종합운동장","statId":"ME19C246","addr":"충청남도 예산군 예산읍 향천리 253-7","location":"null","lat":"36.678139","lng":"126.862028","zcode":"44","zscode":"44810"},{"statNm":"성거읍사무소","statId":"ME19C247","addr":"충청남도 천안시 서북구 성거읍 저리 57-26","location":"null","lat":"36.877667","lng":"127.198722","zcode":"44","zscode":"44130"},{"statNm":"태안군농업기술센터","statId":"ME19C248","addr":"충청남도 태안군 태안읍 송암리 770-2","location":"null","lat":"36.733083","lng":"126.306000","zcode":"44","zscode":"44825"},{"statNm":"내포보부상촌","statId":"ME19C276","addr":"충청남도 예산군 덕산면 사동리 286","location":"null","lat":"36.691750","lng":"126.653194","zcode":"44","zscode":"44810"},{"statNm":"예산군문예회관","statId":"ME19C283","addr":"충청남도 예산군 예산읍 예산리 60-5","location":"null","lat":"36.685417","lng":"126.848694","zcode":"44","zscode":"44810"},{"statNm":"한국중부발전㈜ 본사","statId":"ME19C302","addr":"충청남도 보령시 대천동 460-137","location":"null","lat":"36.355778","lng":"126.589306","zcode":"44","zscode":"44180"},{"statNm":"보령시청 (정문) 주차장","statId":"ME19C405","addr":"충청남도 보령시 명천동 269-4","location":"null","lat":"36.332917","lng":"126.613500","zcode":"44","zscode":"44180"},{"statNm":"농업기술센터","statId":"ME19D101","addr":"충청남도 아산시 염치읍 염성리 186-2","location":"null","lat":"36.81554132","lng":"126.97615051","zcode":"44","zscode":"44200"},{"statNm":"서산휴게소(목포방향)","statId":"ME19D104","addr":"null","location":"null","lat":"36.742975","lng":"126.565042","zcode":"44","zscode":"44210"},{"statNm":"벌곡휴게소(논산방향)","statId":"ME19D105","addr":"충청남도 논산시 벌곡면 호남지선고속도로 25","location":"null","lat":"36.21757282","lng":"127.273271922","zcode":"44","zscode":"44230"},{"statNm":"국군대천콘도 1관","statId":"ME19D222","addr":"충청남도 보령시 갓바위 1길 10-30","location":"null","lat":"36.30158489","lng":"126.52162369","zcode":"44","zscode":"44180"},{"statNm":"신정호수공원","statId":"ME19D232","addr":"충청남도 아산시 방축동 5","location":"null","lat":"36.77253457","lng":"126.98285656","zcode":"44","zscode":"44200"},{"statNm":"탄천면사무소","statId":"ME19E171","addr":"충청남도 공주시 탄천면 삼각리 523-2","location":"null","lat":"36.330183","lng":"127.029905","zcode":"44","zscode":"44150"},{"statNm":"금산 인삼골 오토캠핑장","statId":"ME19E172","addr":"충청남도 금산군 제원면 용화리 215","location":"null","lat":"36.089127","lng":"127.587709","zcode":"44","zscode":"44710"},{"statNm":"청소년 수련관 주차장","statId":"ME19E173","addr":"충청남도 보령시 성주면 성주리 229-5","location":"null","lat":"36.327831","lng":"126.652794","zcode":"44","zscode":"44180"},{"statNm":"충남정심원 정심실내수영장 주차장","statId":"ME19E174","addr":"충청남도 보령시 주교면 관창리 407-4","location":"null","lat":"36.376872","lng":"126.584316","zcode":"44","zscode":"44180"},{"statNm":"무창포 제3공영주차장","statId":"ME19E175","addr":"충청남도 보령시 웅천읍 관당리 806-1","location":"null","lat":"36.242481","lng":"126.536719","zcode":"44","zscode":"44180"},{"statNm":"홍산면행정복지센터","statId":"ME19E176","addr":"충청남도 부여군 홍산면 북촌리188-7","location":"null","lat":"36.216059","lng":"126.759802","zcode":"44","zscode":"44760"},{"statNm":"외산면행정복지센터","statId":"ME19E177","addr":"충청남도 부여군 외산면 만수리 14-3","location":"null","lat":"36.303994","lng":"126.708435","zcode":"44","zscode":"44760"},{"statNm":"해미면 행정복지센터","statId":"ME19E178","addr":"충청남도 서산시 해미면 읍내리 353","location":"null","lat":"36.71382","lng":"126.544294","zcode":"44","zscode":"44210"},{"statNm":"신창면사무소","statId":"ME19E179","addr":"충청남도 아산시 신창면 오목리 2-1","location":"null","lat":"36.803791","lng":"126.935798","zcode":"44","zscode":"44200"},{"statNm":"고덕면행정복지센터","statId":"ME19E180","addr":"충청남도 예산군 고덕면 대천리 711","location":"null","lat":"36.745276","lng":"126.702067","zcode":"44","zscode":"44810"},{"statNm":"대술면행정복지센터","statId":"ME19E181","addr":"충청남도 예산군 대술면 화천리 873-1","location":"null","lat":"36.657413","lng":"126.892263","zcode":"44","zscode":"44810"},{"statNm":"황새공원","statId":"ME19E182","addr":"충청남도 예산군 광시면 대리 230","location":"null","lat":"36.544609","lng":"126.796359","zcode":"44","zscode":"44810"},{"statNm":"광시면 공영주차장","statId":"ME19E183","addr":"충청남도 예산군 광시면 광시리 77-3","location":"null","lat":"36.550491","lng":"126.774935","zcode":"44","zscode":"44810"},{"statNm":"고추문화마을","statId":"ME19E184","addr":"충청남도 청양군 청양읍 군량리 533","location":"null","lat":"36.441637","lng":"126.778965","zcode":"44","zscode":"44790"},{"statNm":"소원면사무소","statId":"ME19E185","addr":"충청남도 태안군 소원면 신덕리 272","location":"null","lat":"36.761467","lng":"126.196421","zcode":"44","zscode":"44825"},{"statNm":"태안로컬푸드사업단(직매장)","statId":"ME19E186","addr":"충청남도 태안군 남면 당암리 529-1","location":"null","lat":"36.611732","lng":"126.315033","zcode":"44","zscode":"44825"},{"statNm":"한국전기안전공사 전기안전교육원","statId":"ME19E222","addr":"충청남도 아산시 고도면 신통리 247-1","location":"null","lat":"36.771004","lng":"126.895144","zcode":"44","zscode":"44200"},{"statNm":"한국서부발전 본사","statId":"ME19E401","addr":"충청남도 태안군 태안읍 평천리 1488","location":"null","lat":"36.75257","lng":"126.317007","zcode":"44","zscode":"44825"},{"statNm":"아산시청(본청)","statId":"ME19E402","addr":"충청남도 아산시 온천동 1880","location":"null","lat":"36.790391","lng":"127.004235","zcode":"44","zscode":"44200"},{"statNm":"온천동 제1공영주차장","statId":"ME19F119","addr":"충청남도 아산시 온천동 1926","location":"null","lat":"36.792866415734","lng":"126.99650154","zcode":"44","zscode":"44200"},{"statNm":"송악면사무소","statId":"ME19F125","addr":"충청남도 아산시 송악면 송악로 790","location":"null","lat":"36.731627176618","lng":"127.00878467","zcode":"44","zscode":"44200"},{"statNm":"국민건강보험공단 예산지사","statId":"ME19F204","addr":"충청남도 예산군 예산읍 벚꽃로 242","location":"null","lat":"36.7020774","lng":"126.8391409","zcode":"44","zscode":"44810"},{"statNm":"제2테크노밸리 공영주차장","statId":"ME19F266","addr":"충청남도 아산시 둔포면 석곡리 1949","location":"null","lat":"36.9067799","lng":"127.0562304","zcode":"44","zscode":"44200"},{"statNm":"한국조폐공사 제지본부","statId":"ME19F303","addr":"충청남도 부여군 부여읍 염창리 131-2","location":"null","lat":"36.266306665165","lng":"126.96082173","zcode":"44","zscode":"44760"},{"statNm":"한국중부발전㈜ 에너지월드","statId":"ME19F406","addr":"충청남도 보령시 오천면 오천해안로 89-37","location":"null","lat":"36.4028858","lng":"126.495998","zcode":"44","zscode":"44180"},{"statNm":"한국중부발전㈜ 신보령발전본부 옥외주차장","statId":"ME19F407","addr":"충청남도 보령시 주교면 송도길 201","location":"null","lat":"36.384038660207","lng":"126.49074943","zcode":"44","zscode":"44180"},{"statNm":"서산국민체육센터앞 주차장","statId":"ME19X401","addr":"충청남도 서산시 안견로","location":"null","lat":"36.797993","lng":"126.435995","zcode":"44","zscode":"44210"},{"statNm":"롯데마트 서산점 야외주차장","statId":"ME19X422","addr":"충청남도 서산시 충의로","location":"null","lat":"37.866972","lng":"127.759168","zcode":"44","zscode":"44210"},{"statNm":"서산동부전통시장 공영주차장","statId":"ME19X431","addr":"충청남도 서산시 동문동 800번지","location":"null","lat":"36.783777","lng":"126.454604","zcode":"44","zscode":"44210"},{"statNm":"삽교호 관광지 ","statId":"ME19X435","addr":"충청남도 당진시 신평면 운정리","location":"null","lat":"36.891651","lng":"126.820292","zcode":"44","zscode":"44270"},{"statNm":"당진종합운동장 제1주차장","statId":"ME19X436","addr":"충청남도 당진시 고대면 고대로","location":"null","lat":"36.921956","lng":"126.601100","zcode":"44","zscode":"44270"},{"statNm":"대천해수욕장 제3 공영주차장","statId":"ME19X446","addr":"충청남도 보령시 신흑동","location":"null","lat":"36.313093","lng":"126.514630","zcode":"44","zscode":"44180"},{"statNm":"탕정온샘도서관","statId":"ME19X802","addr":"충청남도 아산시 탕정면 한내로 ","location":"null","lat":"36.793252","lng":"127.053260","zcode":"44","zscode":"44200"},{"statNm":"현대제철문화센터","statId":"ME19Y241","addr":"충청남도 당진시 송산면 유곡3길 6","location":"null","lat":"36.965624","lng":"126.690661","zcode":"44","zscode":"44270"},{"statNm":"수석동 행정복지센터","statId":"ME19Y242","addr":"충청남도 서산시 무석1로 2","location":"null","lat":"36.771207","lng":"126.467359","zcode":"44","zscode":"44210"},{"statNm":"마산면공용주차장","statId":"ME19Y243","addr":"충청남도 서천군 삼일로265번길 8","location":"null","lat":"36.117226","lng":"126.791423","zcode":"44","zscode":"44770"},{"statNm":"아산시보건소","statId":"ME19Y244","addr":"충청남도 아산시 번영로224번길 20","location":"null","lat":"36.782764","lng":"127.014406","zcode":"44","zscode":"44200"},{"statNm":"병천면 행정복지센터","statId":"ME19Y245","addr":"충청남도 천안시 동남구 병천면 병천2로 57","location":"null","lat":"36.765921","lng":"127.302360","zcode":"44","zscode":"44130"},{"statNm":"성정동 공영주차장","statId":"ME19Y246","addr":"충청남도 천안시 서북구 동서대로 110-9","location":"null","lat":"36.825077","lng":"127.135434","zcode":"44","zscode":"44130"},{"statNm":"아산현대서비스","statId":"ME19Y268","addr":"충청남도 아산시 온천대로 1790","location":"null","lat":"36.773307","lng":"127.034741","zcode":"44","zscode":"44200"},{"statNm":"논산농협 하나로마트","statId":"ME19Y272","addr":"충청남도 논산시 대학로 48","location":"null","lat":"36.177613","lng":"127.103526","zcode":"44","zscode":"44230"},{"statNm":"논산문화원 옆 공용주차장","statId":"ME19Y273","addr":"충청남도 논산시 관촉로 113-12","location":"null","lat":"36.197894","lng":"127.107784","zcode":"44","zscode":"44230"},{"statNm":"빙그레 야외주차장","statId":"ME19Y274","addr":"충청남도 논산시 동안로 1407","location":"null","lat":"36.136940","lng":"127.148531","zcode":"44","zscode":"44230"},{"statNm":"삼선산수목원","statId":"ME19Y275","addr":"충청남도 당진시 삼선산수목원길 80-10","location":"null","lat":"36.909682","lng":"126.587451","zcode":"44","zscode":"44270"},{"statNm":"환상의바다 리조트 주차장","statId":"ME19Y276","addr":"충청남도 보령시 대천항1길 67-5","location":"null","lat":"36.323955","lng":"126.505615","zcode":"44","zscode":"44180"},{"statNm":"대산도서관","statId":"ME19Y277","addr":"충청남도 서산시 대산읍 대산1로 78-22","location":"null","lat":"36.940319","lng":"126.439030","zcode":"44","zscode":"44210"},{"statNm":"대산읍 행정복지센터","statId":"ME19Y278","addr":"충청남도 서산시 대산읍 구진로 42-4","location":"null","lat":"36.939471","lng":"126.433953","zcode":"44","zscode":"44210"},{"statNm":"열린성애병원","statId":"ME19Y279","addr":"충청남도 아산시 음봉로681번길 75","location":"null","lat":"36.838791","lng":"127.080400","zcode":"44","zscode":"44200"},{"statNm":"고남패총박물관","statId":"ME19Y280","addr":"충청남도 태안군 고남면 안면대로 4270-6","location":"null","lat":"36.420347","lng":"126.409863","zcode":"44","zscode":"44825"},{"statNm":"안면읍 승언리 공영주차장","statId":"ME19Y281","addr":"충청남도 태안군 구억말길 8","location":"null","lat":"36.516931","lng":"126.347990","zcode":"44","zscode":"44825"},{"statNm":"천안시종합복지사회복지관","statId":"ME19Y289","addr":"충청남도 천안시 동남구 천안대로 361","location":"null","lat":"36.780880","lng":"127.164682","zcode":"44","zscode":"44130"},{"statNm":"공주기적의도서관","statId":"ME19Y290","addr":"충청남도 공주시 무령로 550-53","location":"null","lat":"36.472317","lng":"127.153245","zcode":"44","zscode":"44150"},{"statNm":"유구읍 공영주차장1","statId":"ME19Y291","addr":"충청남도 공주시 중앙2길 88","location":"null","lat":"36.552620","lng":"126.952892","zcode":"44","zscode":"44150"},{"statNm":"유구읍 공영주차장2","statId":"ME19Y292","addr":"충청남도 공주시 중앙2길 88","location":"null","lat":"36.550595","lng":"126.953743","zcode":"44","zscode":"44150"},{"statNm":"성주면 보건지소 뒤 주차장","statId":"ME19Y293","addr":"충청남도 보령시 성주면 심원계곡로 6-21","location":"null","lat":"36.335386","lng":"126.651396","zcode":"44","zscode":"44180"},{"statNm":"미산면사무소","statId":"ME19Y294","addr":"충청남도 보령시 내평봉성길 5","location":"null","lat":"36.210281","lng":"126.675983","zcode":"44","zscode":"44180"},{"statNm":"웅천복지회관","statId":"ME19Y295","addr":"충청남도 보령시 웅천읍 장터2길 15","location":"null","lat":"36.232605","lng":"126.601618","zcode":"44","zscode":"44180"},{"statNm":"관창일반산업단지 근로자 복지센터","statId":"ME19Y296","addr":"충청남도 보령시 관창공단길 229","location":"null","lat":"36.382278","lng":"126.578562","zcode":"44","zscode":"44180"},{"statNm":"대천3동사무소","statId":"ME19Y297","addr":"충청남도 보령시 대청로 167","location":"null","lat":"36.355868","lng":"126.611332","zcode":"44","zscode":"44180"},{"statNm":"구시주차장","statId":"ME19Y298","addr":"충청남도 보령시 구시1길 10","location":"null","lat":"36.348092","lng":"126.592994","zcode":"44","zscode":"44180"},{"statNm":"외암마을 주차장","statId":"ME19Y299","addr":"충청남도 아산시 강당로 21","location":"null","lat":"36.730560","lng":"127.012848","zcode":"44","zscode":"44200"},{"statNm":"충청남도의회주차장","statId":"ME19Y302","addr":"충청남도 예산군 삽교읍 도청대로 600","location":"null","lat":"36.660767","lng":"126.674198","zcode":"44","zscode":"44810"},{"statNm":"농업기술센터 공영주차장","statId":"ME19Y404","addr":"충청남도 공주시 우성면 내산목천길 52-15","location":"null","lat":"36.493974","lng":"127.097665","zcode":"44","zscode":"44150"},{"statNm":"저잣거리 주차장","statId":"ME19Z201","addr":"충청남도 아산시 외암로 1030-14","location":"null","lat":"36.728585","lng":"127.012291","zcode":"44","zscode":"44200"},{"statNm":"예산군 노인종합복지관 (현재: 예산군 사랑채)","statId":"ME19Z202","addr":"충청남도 예산군 예산읍 벚꽃로155번길 10","location":"null","lat":"36.694550","lng":"126.835438","zcode":"44","zscode":"44810"},{"statNm":"예산일반산업단지","statId":"ME19Z203","addr":"충청남도 예산군 삽교읍 산단2길 76-18","location":"null","lat":"36.671013","lng":"126.751569","zcode":"44","zscode":"44810"},{"statNm":"덕산면 공영주차장","statId":"ME19Z204","addr":"충청남도 예산군 덕산면 덕산온천로 422-3","location":"null","lat":"36.703663","lng":"126.667724","zcode":"44","zscode":"44810"},{"statNm":"신례원 공영주차장","statId":"ME19Z205","addr":"충청남도 예산군 신례원로 216","location":"null","lat":"36.727420","lng":"126.846370","zcode":"44","zscode":"44810"},{"statNm":"수덕사","statId":"ME19Z206","addr":"충청남도 예산군 덕산면 수덕사안길 79","location":"null","lat":"36.662635","lng":"126.622396","zcode":"44","zscode":"44810"},{"statNm":"이원면 면사무소","statId":"ME19Z207","addr":"충청남도 태안군 이원면 분지길 14","location":"null","lat":"36.869725","lng":"126.280576","zcode":"44","zscode":"44825"},{"statNm":"신두리사구센터","statId":"ME19Z208","addr":"충청남도 태안군 신두해변길 201-49","location":"null","lat":"36.842925","lng":"126.194965","zcode":"44","zscode":"44825"},{"statNm":"남면 당암포구","statId":"ME19Z209","addr":"충청남도 태안군 남면 당암리 1-64","location":"null","lat":"36.621620","lng":"126.355253","zcode":"44","zscode":"44825"},{"statNm":"이마트 천안서북점","statId":"ME19Z215","addr":"충청남도 천안시 서북구 삼성대로 20","location":"null","lat":"36.838689","lng":"127.121925","zcode":"44","zscode":"44130"},{"statNm":"이마트 천안점","statId":"ME19Z216","addr":"충청남도 천안시 서북구 충무로 187","location":"null","lat":"36.795809","lng":"127.126998","zcode":"44","zscode":"44130"},{"statNm":"합덕수리민속박물관","statId":"ME20C198","addr":"충청남도 당진시 합덕읍 덕평로 379-9","location":"null","lat":"36.7939194","lng":"126.7834256","zcode":"44","zscode":"44270"},{"statNm":"병천 제1공영주차장","statId":"ME20C199","addr":"충청남도 천안시 동남구 병천리 211-1","location":"null","lat":"36.7594717","lng":"127.2990732","zcode":"44","zscode":"44130"},{"statNm":"쌍용 제1공영주차장","statId":"ME20C1a0","addr":"충청남도 천안시 서북구 미라3길 16","location":"null","lat":"36.80093727","lng":"127.13087972","zcode":"44","zscode":"44130"},{"statNm":"신관동 공영주차장","statId":"ME20C298","addr":"충청남도 공주시 신관동 4","location":"null","lat":"36.4753","lng":"127.1464","zcode":"44","zscode":"44150"},{"statNm":"금강대학교","statId":"ME20C299","addr":"충청남도 논산시 상월면 상월로 522","location":"null","lat":"36.3064","lng":"127.1964","zcode":"44","zscode":"44230"},{"statNm":"한국도로공사 당진지사","statId":"ME20C2a0","addr":"충청남도 당진시 송악읍 반촌로 236","location":"null","lat":"36.89811150","lng":"126.70337680","zcode":"44","zscode":"44270"},{"statNm":"충청권 대기환경연구소","statId":"ME20C2a1","addr":"충청남도 서산시 수석1길 124-1","location":"null","lat":"36.7767933","lng":"126.49382","zcode":"44","zscode":"44210"},{"statNm":"아산 장애인 국민체육센터","statId":"ME20C2a2","addr":"충청남도 아산시 곡교천로 27번길 33","location":"null","lat":"36.78853730","lng":"126.98158640","zcode":"44","zscode":"44200"},{"statNm":"아산시 국민체육센터 ","statId":"ME20C2a3","addr":"충청남도 아산시 모종북로 76번길 62","location":"null","lat":"36.78925530","lng":"127.02785040","zcode":"44","zscode":"44200"},{"statNm":"아산시 배미수영장","statId":"ME20C2a4","addr":"충청남도 아산시 실옥로234","location":"null","lat":"36.79690161","lng":"126.97617880","zcode":"44","zscode":"44200"},{"statNm":"아산시 배방스포츠센터","statId":"ME20C2a5","addr":"충청남도 아산시 배방읍 북수리 1783","location":"null","lat":"36.76932761","lng":"127.07524022","zcode":"44","zscode":"44200"},{"statNm":"아산시 신정호 주차장(느티나무쉼터)","statId":"ME20C2a6","addr":"충청남도 아산시 방축동 655-5","location":"null","lat":"36.764381","lng":"126.97467","zcode":"44","zscode":"44200"},{"statNm":"신례원 현대아파트 뒤 공영주차장","statId":"ME20C2a7","addr":"충청남도 예산군 예산읍 신례원리 611-151","location":"null","lat":"36.7231131","lng":"126.8399521","zcode":"44","zscode":"44810"},{"statNm":"주교리 공영주차장","statId":"ME20C2a8","addr":"충청남도 예산군 예산읍 주교리 243-2","location":"null","lat":"36.68369320","lng":"126.82993650","zcode":"44","zscode":"44810"},{"statNm":"대회리 공영주차장","statId":"ME20C2a9","addr":"충청남도 예산군 예산읍 대회리 221-3","location":"null","lat":"36.67545140","lng":"126.84875610","zcode":"44","zscode":"44810"},{"statNm":"두정역 제1공영주차장","statId":"ME20C2b0","addr":"충청남도 천안시 서북구 두정동 91-1","location":"null","lat":"36.8319261","lng":"127.150577","zcode":"44","zscode":"44130"},{"statNm":"북면행정복지센터","statId":"ME20C2b1","addr":"충청남도 천안시 동남구 위례성로 724","location":"null","lat":"36.82706920","lng":"127.27312850","zcode":"44","zscode":"44130"},{"statNm":"불당 제3공영주차장","statId":"ME20C2b2","addr":"충청남도 천안시 서북구 불당동 910","location":"null","lat":"36.8052064","lng":"127.1083253","zcode":"44","zscode":"44130"},{"statNm":"안서 제1공영주차장","statId":"ME20C2b3","addr":"충청남도 천안시 동남구 안서동 526-39","location":"null","lat":"36.83808010","lng":"127.173561","zcode":"44","zscode":"44130"},{"statNm":"청양군청","statId":"ME20C2b4","addr":"충청남도 청양군 청양읍 문화예술로 222","location":"null","lat":"36.457744","lng":"126.8024272","zcode":"44","zscode":"44790"},{"statNm":"홍성군청","statId":"ME20C2b5","addr":"충청남도 홍성군 홍성읍 아문길 27","location":"null","lat":"36.60157247","lng":"126.66184645","zcode":"44","zscode":"44800"},{"statNm":"면천농협하나로마트","statId":"ME20C415","addr":"충청남도 당진시 면천면 성상리 331-1","location":"null","lat":"36.3814715","lng":"126.67609","zcode":"44","zscode":"44270"},{"statNm":"국립생태원","statId":"ME20C416","addr":"충청남도 서천군 마서면 금강로 1210","location":"null","lat":"36.025987","lng":"126.7213033","zcode":"44","zscode":"44770"},{"statNm":"한국생산기술연구원(본원)","statId":"ME20C417","addr":"충청남도 천안시 입장면 양대기로길 89","location":"null","lat":"36.90433050","lng":"127.24596270","zcode":"44","zscode":"44130"},{"statNm":"강경실내수영장 주차장","statId":"ME20D146","addr":"충청남도 논산시 산양1길2","location":"null","lat":"36.1467016","lng":"127.0217375","zcode":"44","zscode":"44230"},{"statNm":"보령노인종합복지관","statId":"ME20D147","addr":"충청남도 보령시 대천로113","location":"null","lat":"36.356482","lng":"126.603618","zcode":"44","zscode":"44180"},{"statNm":"천북면사무소","statId":"ME20D148","addr":"충청남도 보령시 천북면 홍보로462","location":"null","lat":"36.478917","lng":"126.527148","zcode":"44","zscode":"44180"},{"statNm":"가족행복센터","statId":"ME20D149","addr":"충청남도 부여군 규암면 아름1로64 ","location":"null","lat":"36.303378","lng":"126.888337","zcode":"44","zscode":"44760"},{"statNm":"양화면행정복지센터","statId":"ME20D150","addr":"충청남도 부여군 양화면 입포로53번길6 ","location":"null","lat":"36.135361","lng":"126.881139","zcode":"44","zscode":"44760"},{"statNm":"은산면 체육회관 주차장","statId":"ME20D151","addr":"충청남도 부여군 은산면 충의로694 ","location":"null","lat":"36.309895","lng":"126.854948","zcode":"44","zscode":"44760"},{"statNm":"고북면행정복지센터","statId":"ME20D152","addr":"충청남도 서산시 고북면 고북1로294","location":"null","lat":"36.66713","lng":"126.533325","zcode":"44","zscode":"44210"},{"statNm":"서산시 교육지원청","statId":"ME20D153","addr":"충청남도 서산시 문화로112","location":"null","lat":"36.787087","lng":"126.44321","zcode":"44","zscode":"44210"},{"statNm":"삽교읍 주민복합지원센타","statId":"ME20D154","addr":"충청남도 예산군 삽교읍 예학로65","location":"null","lat":"36.664504","lng":"126.675116","zcode":"44","zscode":"44810"},{"statNm":"비봉면사무소","statId":"ME20D155","addr":"충청남도 청양군 비봉면 충절로1994","location":"null","lat":"36.519226","lng":"126.78647","zcode":"44","zscode":"44790"},{"statNm":"금산군농업기술센터","statId":"ME20D166","addr":"충청남도 금산군 금성면 의총길25","location":"null","lat":"36.125978","lng":"127.495885","zcode":"44","zscode":"44710"},{"statNm":"보령냉풍욕장","statId":"ME20D169","addr":"충청남도 보령시 청라면 의평리 50-19","location":"null","lat":"36.380421","lng":"126.66722","zcode":"44","zscode":"44180"},{"statNm":"계룡문화예술의전당(문화체육동)","statId":"ME20D220","addr":"충청남도 계룡시 엄사면 문화1로13","location":"null","lat":"36.2732787","lng":"127.2340162","zcode":"44","zscode":"44250"},{"statNm":"세도면행정복지센터 ","statId":"ME20D221","addr":"충청남도 부여군 세도면 세도중앙로8","location":"null","lat":"36.170061","lng":"126.948268","zcode":"44","zscode":"44760"},{"statNm":"충화면행정복지센터(기존지점 추가설치) ","statId":"ME20D222","addr":"충청남도 부여군 충화면 팔충로770","location":"null","lat":"36.181931","lng":"126.821538","zcode":"44","zscode":"44760"},{"statNm":"천안풍세일반산업단지 ","statId":"ME20D223","addr":"충청남도 천안시 동남구 풍세산단4로81","location":"null","lat":"36.7295","lng":"127.09835","zcode":"44","zscode":"44130"},{"statNm":"서천휴게소(서울)","statId":"ME21A109","addr":"충청남도 서천군 비인면 서해안고속도로 168","location":"null","lat":"36.1317267","lng":"126.627657","zcode":"44","zscode":"44770"},{"statNm":"공주휴게소(대전)","statId":"ME21A111","addr":"충청남도 공주시 송선동 320-16","location":"null","lat":"36.4971584","lng":"127.1665916","zcode":"44","zscode":"44150"},{"statNm":"천안호두휴게소(부산)","statId":"ME21A209","addr":"충청남도 천안시 동남구 성남면 대화리 산8-12","location":"null","lat":"36.7304185","lng":"127.2638826","zcode":"44","zscode":"44130"},{"statNm":"대천휴게소(서울)","statId":"ME21A211","addr":"충청남도 보령시 주교면 주교리 903-34","location":"null","lat":"36.3742615","lng":"126.5579736","zcode":"44","zscode":"44180"},{"statNm":"예산휴게소(당진)","statId":"ME21A214","addr":"충청남도 예산군 신양면 서계양리 736","location":"null","lat":"36.619415","lng":"126.8459062","zcode":"44","zscode":"44810"},{"statNm":"서산휴게소(목포)","statId":"ME21A215","addr":"충청남도 서산시 해미면 서해안고속도로 241","location":"null","lat":"36.7430127","lng":"126.5653968","zcode":"44","zscode":"44210"},{"statNm":"정부충남지방합동청사","statId":"ME21A221","addr":"충청남도 홍성군 홍북읍 충남대로 45","location":"null","lat":"36.6567844","lng":"126.6759248","zcode":"44","zscode":"44800"},{"statNm":"입장거봉포도휴게소(서울)","statId":"ME21A307","addr":"충청남도 천안시 서북구 입장면 연곡길 407","location":"null","lat":"36.9426856","lng":"127.192419","zcode":"44","zscode":"44130"},{"statNm":"천안삼거리휴게소(서울)","statId":"ME21A309","addr":"충청남도 천안시 동남구 구성동 153-77","location":"null","lat":"36.7876902","lng":"127.1733336","zcode":"44","zscode":"44130"},{"statNm":"공주휴게소(당진)","statId":"ME21A407","addr":"충청남도 공주시 의당면 청룡리 65-12","location":"null","lat":"36.4983588","lng":"127.1665579","zcode":"44","zscode":"44150"},{"statNm":"예산휴게소(대전)","statId":"ME21A904","addr":"충청남도 예산군 대흥면 탄방리 136","location":"null","lat":"36.6237714","lng":"126.8401419","zcode":"44","zscode":"44810"},{"statNm":"금산인삼랜드휴게소(대전)","statId":"ME21A909","addr":"충청남도 금산군 군북면 대암길 34-30","location":"null","lat":"36.1547139","lng":"127.4973913","zcode":"44","zscode":"44710"},{"statNm":"부여경찰서","statId":"ME21B126","addr":"충청남도 부여군 부여읍 성말로 4","location":"null","lat":"36.2756844","lng":"126.9025928","zcode":"44","zscode":"44760"},{"statNm":"서산시보건소","statId":"ME21B139","addr":"충청남도 서산시 호수공원6로 6","location":"null","lat":"36.7741847","lng":"126.4445773","zcode":"44","zscode":"44210"},{"statNm":"호수공원 공영주차장","statId":"ME21B144","addr":"충청남도 서산시 예천동 1277-3","location":"null","lat":"36.7725299","lng":"126.4499532","zcode":"44","zscode":"44210"},{"statNm":"원도심 공영주차장","statId":"ME21B145","addr":"충청남도 서산시 동문동 934-9","location":"null","lat":"36.7830124","lng":"126.4538115","zcode":"44","zscode":"44210"},{"statNm":"금산읍행정복지센터","statId":"ME21B163","addr":"충청남도 금산군 금산읍 비호로 69","location":"null","lat":"36.1071211","lng":"127.4904086","zcode":"44","zscode":"44710"},{"statNm":"하나로마트 서산농협 서부지점","statId":"ME21B187","addr":"충청남도 서산시 고운로 106","location":"null","lat":"36.779558","lng":"126.4493299","zcode":"44","zscode":"44210"},{"statNm":"천안시맑은물사업소","statId":"ME21B1B5","addr":"충청남도 천안시 동남구 용곡2길 141","location":"null","lat":"36.7922489","lng":"127.1421901","zcode":"44","zscode":"44130"},{"statNm":"서천교육지원청","statId":"ME21B1B7","addr":"충청남도 서천군 서천읍 서천로 105","location":"null","lat":"36.0776672","lng":"126.6883352","zcode":"44","zscode":"44770"},{"statNm":"고남면사무소","statId":"ME21B1C0","addr":"충청남도 태안군 고남면 안면대로 4254-12","location":"null","lat":"36.4205076","lng":"126.4093614","zcode":"44","zscode":"44825"},{"statNm":"성연면행정복지센터","statId":"ME21B1C1","addr":"충청남도 서산시 성연면 마루들길 15","location":"null","lat":"36.838862","lng":"126.4609179","zcode":"44","zscode":"44210"},{"statNm":"충청남도경제진흥원 주차장","statId":"ME21B1C2","addr":"충청남도 아산시 은행나무길 223","location":"null","lat":"36.799508","lng":"127.0120843","zcode":"44","zscode":"44200"},{"statNm":"국민건강보험공단 보령지사 주차장","statId":"ME21B1E1","addr":"충청남도 보령시 대천동 중앙로 236","location":"null","lat":"36.3572178","lng":"126.5823226","zcode":"44","zscode":"44180"},{"statNm":"운산면행정복지센터","statId":"ME21B1E2","addr":"충청남도 서산시 운산면 운암로 1016","location":"null","lat":"36.8110327","lng":"126.5805842","zcode":"44","zscode":"44210"},{"statNm":"음암면행정복지센터","statId":"ME21B1F8","addr":"충청남도 서산시 음암면 도당리 1304-3","location":"null","lat":"36.7997617","lng":"126.5176223","zcode":"44","zscode":"44210"},{"statNm":"천안동남경찰서","statId":"ME21B221","addr":"충청남도 천안시 동남구 청수6로 73","location":"null","lat":"36.7865005","lng":"127.1565282","zcode":"44","zscode":"44130"},{"statNm":"병천고등학교","statId":"ME21B226","addr":"충청남도 천안시 동남구 병천면 충절로 1872","location":"null","lat":"36.7642678","lng":"127.3128944","zcode":"44","zscode":"44130"},{"statNm":"배방읍 지산공원 제1주차장","statId":"ME21B237","addr":"충청남도 아산시 배방읍 연화로 29","location":"null","lat":"36.7864532","lng":"127.093815","zcode":"44","zscode":"44200"},{"statNm":"서천경찰서","statId":"ME21B303","addr":"충청남도 서천군 장항읍 신창동로 15","location":"null","lat":"36.009982","lng":"126.6920483","zcode":"44","zscode":"44770"},{"statNm":"충청남도교통연수원","statId":"ME21B314","addr":"충청남도 공주시 연수원길 83","location":"null","lat":"36.4883794","lng":"127.1467191","zcode":"44","zscode":"44150"},{"statNm":"아산경찰서","statId":"ME21B319","addr":"충청남도 아산시 남부로 370-15","location":"null","lat":"36.7711908","lng":"127.0220835","zcode":"44","zscode":"44200"},{"statNm":"서동공원 서문 주차장","statId":"ME21B403","addr":"충청남도 부여군 부여읍 신기정로 15","location":"null","lat":"36.2707777","lng":"126.9093321","zcode":"44","zscode":"44760"},{"statNm":"아산시청 부설주차장","statId":"ME21B405","addr":"충청남도 아산시 온천동 1906","location":"null","lat":"36.7887934","lng":"127.0031245","zcode":"44","zscode":"44200"},{"statNm":"독립기념관 주차장","statId":"ME21B801","addr":"충청남도 천안시 동남구 목천읍 독립기념관로 1","location":"null","lat":"36.7798728","lng":"127.231468","zcode":"44","zscode":"44130"},{"statNm":"공주경찰서","statId":"ME21C210","addr":"충청남도 공주시 백제문화로 2148-15","location":"null","lat":"36.4562367","lng":"127.1096883","zcode":"44","zscode":"44150"},{"statNm":"오천면행정복지센터","statId":"ME21C223","addr":"충청남도 보령시 오천면 솟재길 281","location":"null","lat":"36.4365687","lng":"126.5236084","zcode":"44","zscode":"44180"},{"statNm":"홍성의료원","statId":"ME21C226","addr":"충청남도 홍성군 홍성읍 조양로 224","location":"null","lat":"36.5986471","lng":"126.6743872","zcode":"44","zscode":"44800"},{"statNm":"천안개방교도소 민원인주차장","statId":"ME21C230","addr":"충청남도 천안시 서북구 신당새터1길 1","location":"null","lat":"36.8561292","lng":"127.1622296","zcode":"44","zscode":"44130"},{"statNm":"굿뜨래웰빙마을","statId":"ME21C281","addr":"충청남도 부여군 부여읍 가탑로 75","location":"null","lat":"36.2757444","lng":"126.9313596","zcode":"44","zscode":"44760"},{"statNm":"서산 인삼농협 주차장","statId":"ME21C2A2","addr":"충청남도 서산시 남부순환로 11","location":"null","lat":"36.754285","lng":"126.4959481","zcode":"44","zscode":"44210"},{"statNm":"서산 충서원예농협","statId":"ME21C2A3","addr":"충청남도 서산시 고운로 353","location":"null","lat":"36.7863322","lng":"126.473692","zcode":"44","zscode":"44210"},{"statNm":"서산경찰서","statId":"ME21C2A9","addr":"충청남도 서산시 안견로 327","location":"null","lat":"36.777243","lng":"126.447352","zcode":"44","zscode":"44210"},{"statNm":"한국농어촌공사 보령지사","statId":"ME21C403","addr":"충청남도 보령시 죽성로 94-19","location":"null","lat":"36.378222","lng":"126.6248023","zcode":"44","zscode":"44180"},{"statNm":"한국기술교육대학교","statId":"ME21C412","addr":"충청남도 천안시 동남구 병천면 충절로 1600","location":"null","lat":"36.7669508","lng":"127.2836733","zcode":"44","zscode":"44130"},{"statNm":"소노벨천안","statId":"ME21C417","addr":"충청남도 천안시 동남구 성남면 종합휴양지로 200","location":"null","lat":"36.7551623","lng":"127.2256447","zcode":"44","zscode":"44130"},{"statNm":"당진근로자복지회관","statId":"ME21D032","addr":"충청남도 당진시 송악읍 부곡공단4길 53-13","location":"null","lat":"36.9615916","lng":"126.7758363","zcode":"44","zscode":"44270"},{"statNm":"보령시청","statId":"ME21D033","addr":"충청남도 보령시 성주산로 77","location":"null","lat":"36.332936","lng":"126.6134651","zcode":"44","zscode":"44180"},{"statNm":"서산시청","statId":"ME21D034","addr":"충청남도 서산시 읍내동 472-5","location":"null","lat":"36.7834487","lng":"126.4503189","zcode":"44","zscode":"44210"},{"statNm":"안면읍사무소","statId":"ME21D035","addr":"충청남도 태안군 안면읍 장터로 149","location":"null","lat":"36.5208633","lng":"126.3449511","zcode":"44","zscode":"44825"},{"statNm":"충남 서산 종합운동장","statId":"BNDA0401","addr":"충청남도 서산시 갈산1길 84","location":"null","lat":"36.796887","lng":"126.433522","zcode":"44","zscode":"44210"},{"statNm":"순천향대학교 유토피아관 주차장","statId":"BNDI4401","addr":"충청남도 아산시 신창면 순천향로 22-6","location":"유토피아관 주차장","lat":"36.7691362","lng":"126.9329202","zcode":"44","zscode":"44200"},{"statNm":"순천향대학교 멀티미디어관 주차장","statId":"BNDI4402","addr":"충청남도 아산시 신창면 순천향로 22-11","location":"멀티미디어관 주차장","lat":"36.7687529","lng":"126.9349425","zcode":"44","zscode":"44200"},{"statNm":"순천향대학교 미디어랩스관","statId":"BNDI4403","addr":"충청남도 아산시 신창면 순천향로 22-19","location":"미디어랩스관 주차장","lat":"36.772237533","lng":"126.93100173","zcode":"44","zscode":"44200"},{"statNm":"한국전통문화대학교","statId":"BNDI4404","addr":"충청남도 부여군 규암면 백제문로 367","location":"주차장","lat":"36.308482","lng":"126.896821","zcode":"44","zscode":"44760"},{"statNm":"천안꽃마루유치원","statId":"BNDJ5401","addr":"충청남도 천안시 서북구 성성6로 37","location":"천안꽃마루유치원 주차장","lat":"36.878588","lng":"127.142990","zcode":"44","zscode":"44130"},{"statNm":"a호텔","statId":"CSAHT001","addr":"충청남도 당진시 송악읍 부곡공단로 68-16","location":"주차장","lat":"36.943899","lng":"126.793451","zcode":"44","zscode":"44270"},{"statNm":"카페 흑","statId":"CSCH0001","addr":"충청남도 천안시 동남구 북면 위례성로 824-36","location":"주차장","lat":"36.833267","lng":"127.271989","zcode":"44","zscode":"44130"},{"statNm":"해가인","statId":"CSHG0001","addr":"충청남도 보령시 천북면 홍보로 337","location":"주차장","lat":"36.467423","lng":"126.524430","zcode":"44","zscode":"44180"},{"statNm":"장수우렁쌈밥","statId":"CSJS0001","addr":"충청남도 서산시 성연면 충의로 755","location":"null","lat":"36.836370","lng":"126.440357","zcode":"44","zscode":"44210"},{"statNm":"럭스펜션텔","statId":"CSLS0001","addr":"충청남도 태안군 안면읍 백사장1길 129-3","location":"주차장","lat":"36.584554","lng":"126.315735","zcode":"44","zscode":"44825"},{"statNm":"논산훈련소 우리집펜션","statId":"CSOH0001","addr":"충청남도 논산시 연무읍 황화로 360","location":"주차장","lat":"36.103573","lng":"127.096903","zcode":"44","zscode":"44230"},{"statNm":"삼봉셀프세차장","statId":"CSSB0001","addr":"충청남도 당진시 석문면 대호만로 1710","location":"삼봉셀프세차장","lat":"37.012363","lng":"126.539806","zcode":"44","zscode":"44270"},{"statNm":"에스지스크린골프 업성점","statId":"CSSGU001","addr":"충청남도 천안시 서북구 2공단3로 102-12","location":"주차장","lat":"36.859792","lng":"127.124573","zcode":"44","zscode":"44130"},{"statNm":"토성골프랜드","statId":"CSTS0001","addr":"충청남도 논산시 은진면 탑정로 311","location":"주차장","lat":"36.170850","lng":"127.099409","zcode":"44","zscode":"44230"},{"statNm":"딴뚝식당","statId":"CSTT0001","addr":"충청남도 태안군 안면읍 안면대로 3037","location":"주차장","lat":"36.507118","lng":"126.350182","zcode":"44","zscode":"44825"},{"statNm":"원성K스크린골프","statId":"CSWSK001","addr":"충청남도 천안시 동남구 천안대로 611","location":"주차장","lat":"36.802766","lng":"127.163974","zcode":"44","zscode":"44130"},{"statNm":"도덕봉가든","statId":"CU410002","addr":"충청남도 공주시 반포면 동학사1로 159","location":"null","lat":"36.3601459","lng":"127.250111","zcode":"44","zscode":"44150"},{"statNm":"해성빌딩","statId":"CU410003","addr":"충청남도 아산시 탕정면 용머리길 71","location":"지하주차장","lat":"36.7958179","lng":"127.0538977","zcode":"44","zscode":"44200"},{"statNm":"한국앤컴퍼니(주)","statId":"CU410004","addr":"충청남도 금산군 부리면 적벽강로 378","location":"입구 우측 주차장","lat":"36.0697127","lng":"127.587971","zcode":"44","zscode":"44710"},{"statNm":"국립특수교육원","statId":"CU410006","addr":"충청남도 아산시 배방읍 공원로 40","location":"null","lat":"36.787583","lng":"127.100701","zcode":"44","zscode":"44200"},{"statNm":"해미공군부대","statId":"CU410007","addr":"충청남도 서산시 해미면 기지1길 27","location":"null","lat":"36.7077975","lng":"126.511287","zcode":"44","zscode":"44210"},{"statNm":"해미국방연구소","statId":"CU410008","addr":"충청남도 서산시 해미면 기지1길 27","location":"null","lat":"36.7077975","lng":"126.511287","zcode":"44","zscode":"44210"},{"statNm":"한국타이어앤테크놀로지","statId":"CU410009","addr":"충청남도 금산군 제원면 금강로 1","location":"null","lat":"36.1145850","lng":"127.531560","zcode":"44","zscode":"44710"},{"statNm":"충남염작초등학교","statId":"CU410010","addr":"충청남도 아산시 둔포면 아산밸리중앙로 33","location":"null","lat":"36.9243310","lng":"127.051753","zcode":"44","zscode":"44200"},{"statNm":"충남아산초등학교","statId":"CU410011","addr":"충청남도 아산시 남부로 266","location":"null","lat":"36.7700639","lng":"127.010948","zcode":"44","zscode":"44200"},{"statNm":"GS수퍼마켓 예산점","statId":"CV000022","addr":"충청남도 예산군 예산읍 산성리","location":"null","lat":"36.68756300000","lng":"126.8347979999","zcode":"44","zscode":"44810"},{"statNm":"GS수퍼마켓 공주점","statId":"CV000025","addr":"충청남도 공주시 무령로 310","location":"null","lat":"36.4554869999","lng":"127.1341879999","zcode":"44","zscode":"44150"},{"statNm":"GS수퍼마켓 당진점","statId":"CV000034","addr":"충청남도 당진시 당진중앙2로 185-50","location":"null","lat":"36.89710499999","lng":"126.6341589999","zcode":"44","zscode":"44270"},{"statNm":"용곡동 더쉴아파트","statId":"CV000164","addr":"충청남도 천안시 동남구 새말1길 47","location":"101동 지하주차장","lat":"36.789922","lng":"127.13199","zcode":"44","zscode":"44130"},{"statNm":"태안 별빛 오토 캠핑장","statId":"CV000169","addr":"충청남도 태안군 소원면 법산길 160-20","location":"null","lat":"36.746068","lng":"126.183626","zcode":"44","zscode":"44825"},{"statNm":"국민연금공단(보령지사)","statId":"CV000186","addr":"충청남도 보령시 동현로 27","location":"null","lat":"36.351132","lng":"126.610803","zcode":"44","zscode":"44180"},{"statNm":"금산컨벤션센터","statId":"CV000190","addr":"충청남도 금산군 금성면 금산로 1665","location":"null","lat":"36.121968","lng":"127.495858","zcode":"44","zscode":"44710"},{"statNm":"한국전기안전공사 천안아산지사","statId":"CV000245","addr":"충청남도 천안시 동남구 충무로 504","location":"null","lat":"36.798479","lng":"127.161315","zcode":"44","zscode":"44130"},{"statNm":"천안 이제이파크랜드","statId":"CV000279","addr":"충청남도 천안시 서북구 불당25로 23","location":"null","lat":"36.803911","lng":"127.103783","zcode":"44","zscode":"44130"},{"statNm":"호텔금강","statId":"CV000336","addr":"충청남도 공주시 전막2길 16-11","location":"null","lat":"36.4704","lng":"127.1310459","zcode":"44","zscode":"44150"},{"statNm":"보령 해양경찰서","statId":"CV000351","addr":"충청남도 보령시 성주산로 49","location":"null","lat":"36.3352452","lng":"126.6046069","zcode":"44","zscode":"44180"},{"statNm":"남서울대학교","statId":"CV000372","addr":"충청남도 천안시 서북구 성환읍 대학로 91","location":"학생복지회관 1층 옥외주차장","lat":"36.908793","lng":"127.144338","zcode":"44","zscode":"44130"},{"statNm":"주식회사 송악서비스","statId":"CV000395","addr":"충청남도 당진시 송악읍 덕적골길 14","location":"null","lat":"36.917593","lng":"126.707199","zcode":"44","zscode":"44270"},{"statNm":"스피드메이트예산점","statId":"CV000474","addr":"충청남도 예산군 예산읍 예산로 126","location":"null","lat":"36.678745","lng":"126.838921","zcode":"44","zscode":"44810"},{"statNm":"방축점 현대자동차(주)","statId":"CV000489","addr":"충청남도 아산시 신정로 757","location":"null","lat":"36.784174","lng":"126.988567","zcode":"44","zscode":"44200"},{"statNm":"한국농어촌공사논산지사","statId":"CV000574","addr":"충청남도 논산시 관촉로 152","location":"null","lat":"36.200589","lng":"127.105235","zcode":"44","zscode":"44230"},{"statNm":"한국농어촌공사 공주지사","statId":"CV000576","addr":"충청남도 공주시 공주대학로 17-53","location":"null","lat":"36.467115","lng":"127.135405","zcode":"44","zscode":"44150"},{"statNm":"르네상스호텔","statId":"CV000577","addr":"충청남도 공주시 번영2로 8","location":"null","lat":"36.468593","lng":"127.131913","zcode":"44","zscode":"44150"},{"statNm":"국민건강보험공단당진지사","statId":"CV000604","addr":"충청남도 당진시 대덕1로 37","location":"null","lat":"36.8835286","lng":"126.6365262","zcode":"44","zscode":"44270"},{"statNm":"포르쉐 데스티네이션 EJ파크랜드","statId":"CV000655","addr":"충청남도 천안시 서북구 불당25로 23","location":"null","lat":"36.803883","lng":"127.103346","zcode":"44","zscode":"44130"},{"statNm":"보트금강레저(주)","statId":"CV000698","addr":"충청남도 서천군 장항읍 장산로 612","location":"null","lat":"36.000566","lng":"126.72543","zcode":"44","zscode":"44770"},{"statNm":"채선정","statId":"CV000717","addr":"충청남도 서천군 마서면 장서로 532","location":"null","lat":"36.048002","lng":"126.706837","zcode":"44","zscode":"44770"},{"statNm":"(주)디엠","statId":"CV000732","addr":"충청남도 공주시 반포면 임금봉길 78-18","location":"null","lat":"36.367193","lng":"127.251142","zcode":"44","zscode":"44150"},{"statNm":"팜스프링호텔","statId":"CV000739","addr":"충청남도 아산시 음봉면 아산온천로157번길 7-99","location":"null","lat":"36.856014","lng":"126.982636","zcode":"44","zscode":"44200"},{"statNm":"이화병원","statId":"CV000740","addr":"충청남도 천안시 서북구 충무로 165","location":"null","lat":"36.79434","lng":"127.125486","zcode":"44","zscode":"44130"},{"statNm":"LH아산에너지사업단 옆 급속충전소","statId":"CV000822","addr":"충청남도 아산시 배방읍 이순신대로 841","location":"null","lat":"36.7990389","lng":"127.0928744","zcode":"44","zscode":"44200"},{"statNm":"포르쉐 HPC 에쓰-오일 청룡휴게주유소","statId":"CV000859","addr":"충청남도 공주시 의당면 차령로 2218","location":"null","lat":"36.501502999","lng":"127.14264500","zcode":"44","zscode":"44150"},{"statNm":"석남동행정복지센터","statId":"CV000869","addr":"충청남도 서산시 관아문길 1","location":"null","lat":"36.763858","lng":"126.45348200","zcode":"44","zscode":"44210"},{"statNm":"서산시청 맑은물관리과","statId":"CV000873","addr":"충청남도 서산시 관아문길 1","location":"null","lat":"36.784467000","lng":"126.45012099","zcode":"44","zscode":"44210"},{"statNm":"서산문화복지센터(어린이도서관)","statId":"CV000874","addr":"충청남도 서산시 서령로 136","location":"null","lat":"36.792744","lng":"126.462925","zcode":"44","zscode":"44210"},{"statNm":"해미읍성 문화시설사업소","statId":"CV000875","addr":"충청남도 서산시 해미면 남문2로 143","location":"null","lat":"36.713003000","lng":"126.54852900","zcode":"44","zscode":"44210"},{"statNm":"레이크힐 호텔","statId":"CV000970","addr":"충청남도 논산시 가야곡면 탑정로 872","location":"지하주차장","lat":"36.177179","lng":"127.157619","zcode":"44","zscode":"44230"},{"statNm":"아산시노인종합복지관 주차타워","statId":"CV000990","addr":"충청남도 아산시 남산로 10","location":"null","lat":"36.781969999","lng":"126.99540599","zcode":"44","zscode":"44200"},{"statNm":"오토메카 인 천안","statId":"CV001014","addr":"충청남도 천안시 서북구 번영로 533","location":"null","lat":"36.84799100","lng":"127.121477","zcode":"44","zscode":"44130"},{"statNm":"논산국토관리사무소 야외주차장","statId":"CV001030","addr":"충청남도 논산시 시민로 121","location":"null","lat":"36.178650999","lng":"127.10104","zcode":"44","zscode":"44230"},{"statNm":"단국대병원 주차장동","statId":"CV001031","addr":"충청남도 천안시 동남구 망향로 201","location":"null","lat":"36.842576000","lng":"127.17311100","zcode":"44","zscode":"44130"},{"statNm":"논산시 공영주차장","statId":"CV001091","addr":"충청남도 논산시 시민로210번길 9","location":"null","lat":"36.186036226","lng":"127.09872727","zcode":"44","zscode":"44230"},{"statNm":"국립해양생물자원관","statId":"CV001156","addr":"충청남도 서천군 장항읍 장산로101번길 75","location":"null","lat":"36.017555999","lng":"126.67005200","zcode":"44","zscode":"44770"},{"statNm":"간월도 공영주차장","statId":"CV001179","addr":"충청남도 서산시 부석면 간월도1길 89","location":"null","lat":"36.607467658","lng":"126.41566128","zcode":"44","zscode":"44210"},{"statNm":"서산시 농업기술센터","statId":"CV001180","addr":"충청남도 서산시 인지면 무학재1길 99","location":"null","lat":"36.720498103","lng":"126.41170863","zcode":"44","zscode":"44210"},{"statNm":"한화이글스 서산구장","statId":"CV001181","addr":"충청남도 서산시 성연면 성연4로 96","location":"서산제2구장 지상1층 야외주차장","lat":"36.826682072","lng":"126.45614698","zcode":"44","zscode":"44210"},{"statNm":"수석농공단지 주차장","statId":"CV001182","addr":"충청남도 서산시 수석산업로 44","location":"관리사무소 지상주차장","lat":"36.778690000","lng":"126.50231099","zcode":"44","zscode":"44210"},{"statNm":"팔봉면 행정복지센터","statId":"CV001183","addr":"충청남도 서산시 팔봉면 팔봉1로 392","location":"지상1층 주차장","lat":"36.811895078","lng":"126.34994643","zcode":"44","zscode":"44210"},{"statNm":"배방읍 제7공영주차장","statId":"CV001230","addr":"충청남도 아산시 배방읍 월천8길 21-3","location":"아산 배방중학교 옆","lat":"36.770163067","lng":"127.07292715","zcode":"44","zscode":"44200"},{"statNm":"배방읍 제4공영주차장","statId":"CV001231","addr":"충청남도 아산시 배방읍 북수리 1612","location":"이마트에브리데이 아산배방점 맞은편","lat":"36.772089318","lng":"127.07991404","zcode":"44","zscode":"44200"},{"statNm":"태안해안국립공원사무소","statId":"CV001246","addr":"충청남도 태안군 남면 몽산포길 57","location":"null","lat":"36.672146000","lng":"126.290164","zcode":"44","zscode":"44825"},{"statNm":"배방시그마빌S","statId":"EC000065","addr":"충청남도 아산시 배방읍 광장로 177-14","location":"null","lat":"36.798156338","lng":"127.10492387","zcode":"44","zscode":"44200"},{"statNm":"기산현대아파트","statId":"EC000102","addr":"충청남도 아산시 인주면 공세길 6-7","location":"null","lat":"36.879298452","lng":"126.90837072","zcode":"44","zscode":"44200"},{"statNm":"당진대덕수청지구 중흥S클래스파크힐아파트","statId":"EC000111","addr":"충청남도 당진시 대덕1로 102-15","location":"지하1층 408~409동 사이 /지하1층 408~409동 사이/ 406동 지하2층 1,2라인통로 입구","lat":"36.882157001","lng":"126.64269898","zcode":"44","zscode":"44270"},{"statNm":"예가숯불갈비","statId":"EC000134","addr":"충청남도 예산군 삽교읍 수암산로 203","location":"null","lat":"36.6866743","lng":"126.6714429","zcode":"44","zscode":"44810"},{"statNm":"포도마을아파트","statId":"EC000231","addr":"충청남도 천안시 서북구 성거읍 망향로 785","location":"null","lat":"36.8863039","lng":"127.2055005","zcode":"44","zscode":"44130"},{"statNm":"신도브래뉴2차아파트","statId":"EC000298","addr":"충청남도 천안시 동남구 목천읍 목천안터2길 19","location":"null","lat":"36.776386537","lng":"127.21115833","zcode":"44","zscode":"44130"},{"statNm":"공간목련아파트","statId":"EC000352","addr":"충청남도 당진시 신평면 거산3거리길 88","location":"null","lat":"36.88420008","lng":"126.7581074","zcode":"44","zscode":"44270"},{"statNm":"블랙펄호텔(enh)","statId":"EH213050","addr":"충청남도 공주시 전막2길 13","location":"구내주차장/옥외","lat":"36.4706772","lng":"127.1294984","zcode":"44","zscode":"44150"},{"statNm":"소댕이(ENH)","statId":"EH213077","addr":"충청남도 천안시 서북구 성거읍 소댕이2길 1-17","location":"지상주차장","lat":"36.8672978","lng":"127.1918595","zcode":"44","zscode":"44130"},{"statNm":"국민건강보험공주지사","statId":"EH213083","addr":"충청남도 공주시 번영2로 58","location":"지상주차장","lat":"36.47224893","lng":"127.1352748","zcode":"44","zscode":"44150"},{"statNm":"홍동농협급속충전소(ENH)","statId":"EH213084","addr":"충청남도 홍성군 홍동면 홍장북로 7","location":"지상주차장","lat":"36.560444","lng":"126.687027","zcode":"44","zscode":"44800"},{"statNm":"호반호텔앤리조트 급속충전소(ENH)","statId":"EH213085","addr":"충청남도 예산군 덕산면 온천단지3로 45-7","location":"지하주차장","lat":"36.694160","lng":"126.656100","zcode":"44","zscode":"44810"},{"statNm":"서부농업협동조합급속충전소(ENH)","statId":"EH213089","addr":"충청남도 홍성군 서부면 서부로 777","location":"지상주차장","lat":"36.597920","lng":"126.504360","zcode":"44","zscode":"44800"},{"statNm":"삽교농협내포농수산물유통센터급속충전소(ENH)","statId":"EH213091","addr":"충청남도 예산군 삽교읍 예목로 171","location":"지상주차장","lat":"36.671930","lng":"126.685190","zcode":"44","zscode":"44810"},{"statNm":"삽교농업협동조합급속충전소(ENH)","statId":"EH213092","addr":"충청남도 예산군 삽교읍 삽교로 107","location":"지상주차장","lat":"36.686120","lng":"126.740630","zcode":"44","zscode":"44810"},{"statNm":"덕산농협경제종합센터급속충전소(ENH)","statId":"EH213093","addr":"충청남도 예산군 봉산면 예덕로 162","location":"지상주차장","lat":"36.715990","lng":"126.679550","zcode":"44","zscode":"44810"},{"statNm":"(주)제일골프급속충전소(ENH)","statId":"EH213097","addr":"충청남도 홍성군 홍동면 광금남로 950","location":"지상주차장","lat":"36.57355","lng":"126.71020","zcode":"44","zscode":"44800"},{"statNm":"덕산농협봉산지점급속충전소(ENH)","statId":"EH213100","addr":"충청남도 예산군 봉산면 황금뜰로 7","location":"지상주차장","lat":"36.748690","lng":"126.682230","zcode":"44","zscode":"44810"},{"statNm":"덕산농협나박소지점급속충전소(ENH)","statId":"EH213101","addr":"충청남도 예산군 덕산면 수덕사로 659","location":"지상주차장","lat":"36.641530","lng":"126.606360","zcode":"44","zscode":"44810"},{"statNm":"홍성 숲안타워오피스텔 충전소(ENH)","statId":"EH213111","addr":"충청남도 홍성군 홍북읍 상하천로 34","location":"지하주차장","lat":"36.65514791","lng":"126.6753971","zcode":"44","zscode":"44800"},{"statNm":"동서천농협파머스마켓","statId":"EN000050","addr":"충청남도 서천군 마서면 금강로 1137","location":"null","lat":"36.0242224","lng":"126.7266785","zcode":"44","zscode":"44770"},{"statNm":"부여 골프무인텔","statId":"EN000159","addr":"충청남도 부여군 규암면 서궁로 147-1","location":"null","lat":"36.3178151","lng":"126.8970628","zcode":"44","zscode":"44760"},{"statNm":"부여 골프무인텔","statId":"EN000160","addr":"충청남도 부여군 규암면 서궁로 147-1","location":"null","lat":"36.3178151","lng":"126.8970628","zcode":"44","zscode":"44760"},{"statNm":"우정힐스컨트리클럽","statId":"EP190004","addr":"충청남도 천안시 동남구 목천읍 충절로 1048-68","location":"옥외주차장 연수원동 앞","lat":"36.7697246","lng":"127.2228822","zcode":"44","zscode":"44130"},{"statNm":"공주여성농업인센터","statId":"EP190007","addr":"충청남도 공주시 사곡면 통천포길 263","location":"야외주차장","lat":"36.4814735","lng":"127.0458954","zcode":"44","zscode":"44150"},{"statNm":"충청남도천안의료원(이경석)","statId":"EP190062","addr":"충청남도 천안시 동남구 충절로 537","location":"1층옥외주차장","lat":"36.7754898","lng":"127.1792753","zcode":"44","zscode":"44130"},{"statNm":"천안 e편한세상 두정4차아파트","statId":"EP190064","addr":"충청남도 천안시 서북구 두정공단2길 50","location":"지하1층주차장52번기둥뒤, 지하2층주차장","lat":"36.8369783","lng":"127.1560424","zcode":"44","zscode":"44130"},{"statNm":"태안 국방과학연구소 제5기술연구본부","statId":"EP190069","addr":"충청남도 태안군 태안읍 독샘로 5","location":"국방과학연구소 영내기숙사 / 총포탄약시험동 기숙사 가동 주차장","lat":"36.7514356","lng":"126.2971428","zcode":"44","zscode":"44825"},{"statNm":"태안 국방과학연구소 제5기술연구본부 총포탄약시험동","statId":"EP190070","addr":"충청남도 태안군 태안읍 독샘로 5","location":"1층 태안우체국 사서함1 장산소택(사원아파트) 주차장","lat":"36.7514356","lng":"126.2971428","zcode":"44","zscode":"44825"},{"statNm":"논산 다올프라자","statId":"EP190079","addr":"충청남도 논산시 연산면 황산벌로 1498","location":"야외주차장","lat":"36.2127818","lng":"127.2181828","zcode":"44","zscode":"44230"},{"statNm":"논산 계룡상사","statId":"EP190080","addr":"충청남도 논산시 연산면 황산벌로 1492-1","location":"야외주차장","lat":"36.2125213","lng":"127.218747","zcode":"44","zscode":"44230"},{"statNm":"청양 운곡면사무소","statId":"EP190084","addr":"충청남도 청양군 운곡면 청신로 873","location":"야외주차장","lat":"36.5239953","lng":"126.844834","zcode":"44","zscode":"44790"},{"statNm":"공주 반디호텔","statId":"EP190091","addr":"충청남도 공주시 반포면 임금봉길 99","location":"야외주차장","lat":"36.3682504","lng":"127.2550044","zcode":"44","zscode":"44150"},{"statNm":"서천 ㈜하나","statId":"EP200095","addr":"충청남도 서천군 종천면 희리산길 7","location":"안쪽 주차장","lat":"36.0972334","lng":"126.6688581","zcode":"44","zscode":"44770"},{"statNm":"서공주IC 관광농원 완속 급속충전소","statId":"EP200125","addr":"충청남도 공주시 우성면 공수원로 3-59","location":"구내주차장","lat":"36.4439013","lng":"127.0230858","zcode":"44","zscode":"44150"},{"statNm":"당진 스마트벽우빌딩","statId":"EP200185","addr":"충청남도 당진시 시청2로 18","location":"구내주차장","lat":"36.8895987","lng":"126.6440295","zcode":"44","zscode":"44270"},{"statNm":"당진 나라빌딩","statId":"EP200186","addr":"충청남도 당진시 무수동2길 20","location":"구내주차장","lat":"36.8893801","lng":"126.6381973","zcode":"44","zscode":"44270"},{"statNm":"천안 ㈜장성전력","statId":"EP200199","addr":"충청남도 천안시 동남구 목천읍 진주골길 54","location":"구내주차장","lat":"36.7477981","lng":"127.1916524","zcode":"44","zscode":"44130"},{"statNm":"공주 농원","statId":"EP200296","addr":"충청남도 공주시 반포면 동학사2로 46","location":"구내주차장","lat":"36.3584345","lng":"127.2478021","zcode":"44","zscode":"44150"},{"statNm":"보령 선우자동차공업사","statId":"EP200376","addr":"충청남도 보령시 주교면 보령북로 417","location":"구내주차장","lat":"36.3772039","lng":"126.5833675","zcode":"44","zscode":"44180"},{"statNm":"아산 미종산업개발㈜","statId":"EP200410","addr":"충청남도 아산시 모종로 9-7","location":"주차장","lat":"36.7847034","lng":"127.0175727","zcode":"44","zscode":"44200"},{"statNm":"보령댐 황토한증막","statId":"EP200460","addr":"충청남도 보령시 미산면 판미로 696","location":"구내주차장","lat":"36.2417563","lng":"126.6807858","zcode":"44","zscode":"44180"},{"statNm":"태안 마검포힐링캠핑장","statId":"EP200461","addr":"충청남도 태안군 남면 마검포길 313-30","location":"구내주차장","lat":"36.6094834","lng":"126.2908412","zcode":"44","zscode":"44825"},{"statNm":"국방과학연구소(구)","statId":"EP210002","addr":"충청남도 태안군 근흥면 근흥로 1421-15","location":"국방과학연구소 안흥지소","lat":"36.7549624","lng":"126.2679556","zcode":"44","zscode":"44825"},{"statNm":"국방과학연구소","statId":"EP210160","addr":"충청남도 태안군 근흥면 근흥로 1421-15","location":"국방과학연구소 안흥지소(근흥로 1421-15)","lat":"36.7551979","lng":"126.267735","zcode":"44","zscode":"44825"},{"statNm":"코윈테크","statId":"EP210162","addr":"충청남도 아산시 둔포면 아산밸리로 285","location":"구내주차장","lat":"36.9146482","lng":"127.0640864","zcode":"44","zscode":"44200"},{"statNm":"이안더센트럴아파트","statId":"EP210247","addr":"충청남도 천안시 서북구 천안대로 999-7","location":"옥외주차장","lat":"36.82858573","lng":"127.15184755","zcode":"44","zscode":"44130"},{"statNm":"공주월송LH천년나무3단지","statId":"EP210280","addr":"충청남도 공주시 무령로 600-25","location":"구내주차장/옥외","lat":"36.4756478","lng":"127.1550758","zcode":"44","zscode":"44150"},{"statNm":"풍세로 712","statId":"EP220031","addr":"충청남도 천안시 동남구 풍세로 712","location":"옥외주차장","lat":"36.773087395","lng":"127.14035742","zcode":"44","zscode":"44130"},{"statNm":"불당파크뷰 급속충전소","statId":"EP220092","addr":"충청남도 천안시 서북구 불당21로 67-26","location":"충남 천안시 서북구 불당21로 67-26 (불당동)","lat":"36.814804289","lng":"127.10873266","zcode":"44","zscode":"44130"},{"statNm":"서산예천한성필하우스1 101동 충전소","statId":"EP220139","addr":"충청남도 서산시 동서1로 182","location":"101동 A13기둥","lat":"36.767556840","lng":"126.44942771","zcode":"44","zscode":"44210"},{"statNm":"서산예천한성필하우스2 102동 충전소","statId":"EP220140","addr":"충청남도 서산시 동서1로 182","location":"102동 A09기둥","lat":"36.767407241","lng":"126.44989191","zcode":"44","zscode":"44210"},{"statNm":"서산예천한성필하우스3 104동 충전소","statId":"EP220141","addr":"충청남도 서산시 동서1로 182","location":"104동 B03기둥","lat":"36.767287245","lng":"126.45122560","zcode":"44","zscode":"44210"},{"statNm":"서산예천한성필하우스4 105동 충전소","statId":"EP220142","addr":"충청남도 서산시 동서1로 182","location":"105동 마크","lat":"36.767882266","lng":"126.45128857","zcode":"44","zscode":"44210"},{"statNm":"서산예천한성필하우스5 107동 충전소","statId":"EP220143","addr":"충청남도 서산시 동서1로 182","location":"107동 펜룸실옆","lat":"36.768101536","lng":"126.44998775","zcode":"44","zscode":"44210"},{"statNm":"서산예천한성필하우스6 107110동 충전소","statId":"EP220144","addr":"충청남도 서산시 동서1로 182","location":"107동_110동 A92","lat":"36.768329806","lng":"126.45063575","zcode":"44","zscode":"44210"},{"statNm":"서산예천한성필하우스6 111동 충전소","statId":"EP220145","addr":"충청남도 서산시 동서1로 182","location":"111동 C28","lat":"36.769324194","lng":"126.45132309","zcode":"44","zscode":"44210"},{"statNm":"동문한성 필하우스아파트1 충전소","statId":"EP220179","addr":"충청남도 서산시 서령로 36","location":"B1F 57번기둥","lat":"36.785035001","lng":"126.45525534","zcode":"44","zscode":"44210"},{"statNm":"유원대학교 아산캠퍼스1 충전소","statId":"EP220205","addr":"충청남도 아산시 음봉면 연암산로 52-70","location":"본관(심우관) 주차장","lat":"36.85115049","lng":"127.06217421","zcode":"44","zscode":"44200"},{"statNm":"유원대학교 아산캠퍼스2 충전소","statId":"EP220206","addr":"충청남도 아산시 음봉면 연암산로 52-70","location":"창조관 주차장","lat":"36.850574168","lng":"127.06143371","zcode":"44","zscode":"44200"},{"statNm":"유원대학교 아산캠퍼스3 충전소","statId":"EP220207","addr":"충청남도 아산시 음봉면 연암산로 52-70","location":"교육연구관 주차장","lat":"36.85150260","lng":"127.06084579","zcode":"44","zscode":"44200"},{"statNm":"유원대학교 아산캠퍼스4 충전소","statId":"EP220208","addr":"충청남도 아산시 음봉면 연암산로 52-70","location":"반도체연구관 주차장","lat":"36.851446060","lng":"127.06181575","zcode":"44","zscode":"44200"},{"statNm":"장미아파트 충전소","statId":"EP220216","addr":"충청남도 천안시 서북구 성거읍 성거길 82","location":"지상주차장","lat":"36.872450062","lng":"127.20217544","zcode":"44","zscode":"44130"},{"statNm":"천안 두진그린힐아파트1 충전소","statId":"EP220253","addr":"충청남도 천안시 서북구 성환읍 율금1길 221-34","location":"제1초소 지하주차장 14번기둥","lat":"36.905497936","lng":"127.09953387","zcode":"44","zscode":"44130"},{"statNm":"천안 두진그린힐아파트2 충전소","statId":"EP220254","addr":"충청남도 천안시 서북구 성환읍 율금1길 221-34","location":"제3초소 지하주차장 14번기둥","lat":"36.90549793","lng":"127.09953387","zcode":"44","zscode":"44130"},{"statNm":"착한EV급속충전소(NEWK)","statId":"EP220280","addr":"충청남도 천안시 동남구 신원3길 65","location":"빌라 1층주차장","lat":"36.8177663","lng":"127.1640983","zcode":"44","zscode":"44130"},{"statNm":"부여옥산면사무소","statId":"EV000147","addr":"충청남도 부여군 옥산면 대백제로 336-6","location":"정문 오른편 주차장","lat":"36.1915852","lng":"126.7335266","zcode":"44","zscode":"44760"},{"statNm":"부여은산면사무소","statId":"EV000148","addr":"충청남도 부여군 은산면 충의로 690","location":"뒤편 주차장","lat":"36.3103254","lng":"126.8542242","zcode":"44","zscode":"44760"},{"statNm":"부여임천면사무소","statId":"EV000149","addr":"충청남도 부여군 임천면 성흥로97번길 23","location":"건물 뒤 벽면","lat":"36.1911651","lng":"126.8948342","zcode":"44","zscode":"44760"},{"statNm":"군북면행정복지센터","statId":"EV000260","addr":"충청남도 금산군 군북면 산꽃로 17","location":"null","lat":"36.1688989","lng":"127.5277008","zcode":"44","zscode":"44710"},{"statNm":"금산읍행정복지센터","statId":"EV000261","addr":"충청남도 금산군 금산읍 비호로 69","location":"null","lat":"36.107202","lng":"127.4905097","zcode":"44","zscode":"44710"},{"statNm":"금성면사무소","statId":"EV000262","addr":"충청남도 금산군 금성면 진산로 372","location":"null","lat":"36.1306848","lng":"127.4536755","zcode":"44","zscode":"44710"},{"statNm":"남이면사무소","statId":"EV000263","addr":"충청남도 금산군 남이면 휴양림로 299","location":"null","lat":"36.0454103","lng":"127.4367042","zcode":"44","zscode":"44710"},{"statNm":"남일면사무소","statId":"EV000265","addr":"충청남도 금산군 남일면 봉황로 84","location":"null","lat":"36.0427762","lng":"127.504398","zcode":"44","zscode":"44710"},{"statNm":"복수면사무소","statId":"EV000267","addr":"충청남도 금산군 복수면 복수로 150","location":"null","lat":"36.1667245","lng":"127.3983073","zcode":"44","zscode":"44710"},{"statNm":"부리면주민자치센터","statId":"EV000268","addr":"충청남도 금산군 부리면 현내1길 37","location":"null","lat":"36.0609183","lng":"127.5552289","zcode":"44","zscode":"44710"},{"statNm":"제원면사무소","statId":"EV000270","addr":"충청남도 금산군 제원면 제원3길 3","location":"null","lat":"36.11261","lng":"127.5461652","zcode":"44","zscode":"44710"},{"statNm":"진산면행정복지센터","statId":"EV000272","addr":"충청남도 금산군 진산면 읍내로 69","location":"null","lat":"36.1442734","lng":"127.3703137","zcode":"44","zscode":"44710"},{"statNm":"추부면사무소","statId":"EV000274","addr":"충청남도 금산군 추부면 서대산로 93","location":"null","lat":"36.1948354","lng":"127.4760772","zcode":"44","zscode":"44710"},{"statNm":"장평면사무소","statId":"EV000279","addr":"충청남도 청양군 장평면 닭우리고개길 35","location":"null","lat":"36.3418827","lng":"126.8931526","zcode":"44","zscode":"44790"},{"statNm":"청남면사무소","statId":"EV000280","addr":"충청남도 청양군 청남면 명덕로 183","location":"null","lat":"36.3524107","lng":"126.9523667","zcode":"44","zscode":"44790"},{"statNm":"청양읍사무소","statId":"EV000281","addr":"충청남도 청양군 청양읍 칠갑산로9길 32","location":"null","lat":"36.4533464","lng":"126.8066771","zcode":"44","zscode":"44790"},{"statNm":"부여규암면사무소","statId":"EV000312","addr":"충청남도 부여군 규암면 계백로 39","location":"null","lat":"36.2753235","lng":"126.8841659","zcode":"44","zscode":"44760"},{"statNm":"부여남면사무소","statId":"EV000313","addr":"충청남도 부여군 남면 남성로426번길 13","location":"null","lat":"36.2120145","lng":"126.8072769","zcode":"44","zscode":"44760"},{"statNm":"부여읍사무소","statId":"EV000314","addr":"충청남도 부여군 부여읍 사비로 36","location":"null","lat":"36.2756314","lng":"126.9111842","zcode":"44","zscode":"44760"},{"statNm":"부여세도면사무소","statId":"EV000315","addr":"충청남도 부여군 세도면 세도중앙로 8","location":"null","lat":"36.1699605","lng":"126.9483071","zcode":"44","zscode":"44760"},{"statNm":"부여양화면사무소","statId":"EV000316","addr":"충청남도 부여군 양화면 입포로53번길 6","location":"null","lat":"36.1352376","lng":"126.8810614","zcode":"44","zscode":"44760"},{"statNm":"부여장암면사무소","statId":"EV000317","addr":"충청남도 부여군 장암면 석동로 15","location":"null","lat":"36.2439425","lng":"126.886464","zcode":"44","zscode":"44760"},{"statNm":"부여충화면사무소","statId":"EV000318","addr":"충청남도 부여군 충화면 팔충로 770","location":"null","lat":"36.1818824","lng":"126.8215799","zcode":"44","zscode":"44760"},{"statNm":"부여홍산면사무소","statId":"EV000319","addr":"충청남도 부여군 홍산면 홍산로 77","location":"null","lat":"36.2167418","lng":"126.7602217","zcode":"44","zscode":"44760"},{"statNm":"서산 석남동행정복지센터","statId":"EV000346","addr":"충청남도 서산시 남부순환로 982","location":"null","lat":"36.7638481","lng":"126.4534676","zcode":"44","zscode":"44210"},{"statNm":"서산시립도서관","statId":"EV000348","addr":"충청남도 서산시 부춘공원2로 26","location":"null","lat":"36.7883315","lng":"126.4492382","zcode":"44","zscode":"44210"},{"statNm":"인지면사무소","statId":"EV000367","addr":"충청남도 서산시 인지면 무학로 1677","location":"null","lat":"36.7531548","lng":"126.4253777","zcode":"44","zscode":"44210"},{"statNm":"엄사면사무소","statId":"EV000508","addr":"충청남도 계룡시 엄사면 번영로 47","location":"null","lat":"36.2885524","lng":"127.2398642","zcode":"44","zscode":"44250"},{"statNm":"서산시청","statId":"EV000522","addr":"충청남도 서산시 관아문길 1","location":"null","lat":"36.7839641","lng":"126.4495024","zcode":"44","zscode":"44210"},{"statNm":"홍성향촌현대아파트_1","statId":"EV000591","addr":"충청남도 홍성군 홍성읍 월계천길 41-11 (현대아파트)","location":"null","lat":"36.6018586211","lng":"126.6545669293","zcode":"44","zscode":"44800"},{"statNm":"향촌현대아파트_2","statId":"EV000601","addr":"충청남도 홍성군 홍성읍 월계천길 41-11 (현대아파트)","location":"null","lat":"36.60251472858","lng":"126.6545941806","zcode":"44","zscode":"44800"},{"statNm":"중흥S클래스리버티1","statId":"EV000747","addr":"충청남도 홍성군 홍북읍 자경로 17 (자경마을중흥에스클래스)","location":"null","lat":"36.65290217003","lng":"126.6823007951","zcode":"44","zscode":"44800"},{"statNm":"구룡면사무소","statId":"EV000785","addr":"충청남도 부여군 구룡면 태양로 17","location":"null","lat":"36.252332","lng":"126.8127812","zcode":"44","zscode":"44760"},{"statNm":"내산면사무소","statId":"EV000786","addr":"충청남도 부여군 내산면 성충로 982","location":"null","lat":"36.2748574","lng":"126.7805271","zcode":"44","zscode":"44760"},{"statNm":"석성면 사무소","statId":"EV000787","addr":"충청남도 부여군 석성면 증산로 61-1","location":"null","lat":"36.2532823","lng":"127.0023365","zcode":"44","zscode":"44760"},{"statNm":"초촌면사무소","statId":"EV000788","addr":"충청남도 부여군 초촌면 초촌로 15","location":"null","lat":"36.2641058","lng":"127.0199194","zcode":"44","zscode":"44760"},{"statNm":"외산면사무소","statId":"EV000789","addr":"충청남도 부여군 외산면 외산로 111","location":"null","lat":"36.3043384","lng":"126.7042178","zcode":"44","zscode":"44760"},{"statNm":"중흥S클래스리버티2","statId":"EV000917","addr":"충청남도 홍성군 홍북읍 자경로 17 (자경마을중흥에스클래스)","location":"null","lat":"36.65223364871","lng":"126.6833604016","zcode":"44","zscode":"44800"},{"statNm":"중흥S클래스리버티3","statId":"EV000918","addr":"충청남도 홍성군 홍북읍 자경로 17 (자경마을중흥에스클래스)","location":"null","lat":"36.65276144365","lng":"126.6835986919","zcode":"44","zscode":"44800"},{"statNm":"중흥S클래스리버티4","statId":"EV000919","addr":"충청남도 홍성군 홍북읍 자경로 17 (자경마을중흥에스클래스)","location":"null","lat":"36.65374779985","lng":"126.6851548138","zcode":"44","zscode":"44800"},{"statNm":"중흥S클래스리버티5","statId":"EV000920","addr":"충청남도 홍성군 홍북읍 자경로 17 (자경마을중흥에스클래스)","location":"null","lat":"36.65425930970","lng":"126.6860530431","zcode":"44","zscode":"44800"},{"statNm":"중흥S클래스리버티6","statId":"EV000921","addr":"충청남도 홍성군 홍북읍 자경로 17 (자경마을중흥에스클래스)","location":"null","lat":"36.65341764161","lng":"126.6829864858","zcode":"44","zscode":"44800"},{"statNm":"중흥S클래스리버티7","statId":"EV000922","addr":"충청남도 홍성군 홍북읍 자경로 17 (자경마을중흥에스클래스)","location":"null","lat":"36.65397837318","lng":"126.6837502882","zcode":"44","zscode":"44800"},{"statNm":"아산권곡청솔아파트1","statId":"EV001084","addr":"충청남도 아산시 문화로 257-17 (권곡동, 청솔아파트)","location":"null","lat":"36.79136812781","lng":"127.0153550066","zcode":"44","zscode":"44200"},{"statNm":"아산권곡청솔아파트2","statId":"EV001085","addr":"충청남도 아산시 문화로 257-17 (권곡동, 청솔아파트)","location":"null","lat":"36.79099870153","lng":"127.0151168502","zcode":"44","zscode":"44200"},{"statNm":"아산온천미소지움아파트1","statId":"EV001087","addr":"충청남도 아산시 아산로 116-20 (온천동, 아산온천 미소지움 아파트)","location":"null","lat":"36.79134202286","lng":"126.9961402422","zcode":"44","zscode":"44200"},{"statNm":"아산온천미소지움아파트2","statId":"EV001088","addr":"충청남도 아산시 아산로 116-20 (온천동, 아산온천 미소지움 아파트)","location":"null","lat":"36.79100859805","lng":"126.9957705304","zcode":"44","zscode":"44200"},{"statNm":"금산군청","statId":"EV001179","addr":"충청남도 금산군 금산읍 군청길 13","location":"null","lat":"36.1088885102","lng":"127.4880058083","zcode":"44","zscode":"44710"},{"statNm":"서산청구제네스아파트","statId":"EV001240","addr":"충청남도 서산시 인지면 둔당로 105-9 (서산청구제네스)","location":"null","lat":"36.75655558832","lng":"126.4199904283","zcode":"44","zscode":"44210"},{"statNm":"서산동문코아루아파트1-1주차장","statId":"EV001241","addr":"충청남도 서산시 고운로 275-14 (동문동, 동문동 코아루아파트)","location":"null","lat":"36.78601613205","lng":"126.4669527628","zcode":"44","zscode":"44210"},{"statNm":"천안아산서비스 기아오토큐(주)(회원 전용)","statId":"ST442008","addr":"충청남도 아산시 탕정면 삼성로 457","location":"지상주차장","lat":"36.821945","lng":"127.088031","zcode":"44","zscode":"44200"},{"statNm":"풍기점 기아오토큐(회원 전용)","statId":"ST442009","addr":"충청남도 아산시 온천대로 1708","location":"지상주차장","lat":"36.775586","lng":"127.026495","zcode":"44","zscode":"44200"},{"statNm":"배방점 기아오토큐","statId":"ST442010","addr":"충청남도 아산시 배방읍 배방로 239-8","location":"지상 주차장(출입구 우측)","lat":"36.7714992","lng":"127.0728273","zcode":"44","zscode":"44200"},{"statNm":"기아 아산지점(이용자 제한)","statId":"ST442011","addr":"충청남도 아산시 모종남로42번길 33","location":"옥외주차장","lat":"36.7773815","lng":"127.0247852","zcode":"44","zscode":"44200"},{"statNm":"줌모텔(메르디앙모텔)(투숙객 전용)","statId":"ST442101","addr":"충청남도 서산시 동헌로 91-1","location":"모텔 옥외주차장 모텔본관 앞","lat":"36.777655","lng":"126.452215","zcode":"44","zscode":"44210"},{"statNm":"펀앤포크호텔 (서산)(투숙객 전용)","statId":"ST442102","addr":"충청남도 서산시 번화4길 6-1","location":"펀앤포크호텔 (서산) 옥내주차장 1층","lat":"36.781738","lng":"126.453447","zcode":"44","zscode":"44210"},{"statNm":"논산전문정비","statId":"ST442301","addr":"충청남도 논산시 계백로 786","location":"논산전문정비 사업장건물 옆 지상주차장","lat":"36.18836","lng":"127.07347","zcode":"44","zscode":"44230"},{"statNm":"쏘울모텔(투숙객 전용)","statId":"ST442501","addr":"충청남도 계룡시 서금암2길 8-18","location":"쏘울모텔 옥외주차장 진출입로 옆","lat":"36.272791","lng":"127.256119","zcode":"44","zscode":"44250"},{"statNm":"당진벽산아파트(입주민 전용)","statId":"ST442701","addr":"충청남도 당진시 계성2길","location":"101동 지하1층 B10, 101동 지하1층 B08","lat":"36.898571","lng":"126.630809","zcode":"44","zscode":"44270"},{"statNm":"세원목화아파트(입주민 전용)","statId":"ST442702","addr":"충청남도 당진시 계성3길 56-23","location":"세원목화아파트 지상주차장 분전반앞","lat":"36.900808","lng":"126.634209","zcode":"44","zscode":"44270"},{"statNm":"CU 당진고대원룸점","statId":"ST442703","addr":"충청남도 당진시 송악읍 정곡로 596","location":"CU당진고대원룸점 지상주차장 분전반 앞","lat":"36.97315","lng":"126.74526","zcode":"44","zscode":"44270"},{"statNm":"서울산업(이용자 제한)","statId":"ST447601","addr":"충청남도 부여군 부여읍 성왕로 104","location":"서울산업 주차장(사무용품전문점 도어 부근(건물 우측)","lat":"36.2755839","lng":"126.9039549","zcode":"44","zscode":"44760"},{"statNm":"홍성 스마트쌈지주차장","statId":"ST448001","addr":"충청남도 홍성군 홍성읍 충절로1032번길 62","location":"스마트쌈지주차장(입구 좌측)","lat":"36.600353","lng":"126.668352","zcode":"44","zscode":"44800"},{"statNm":"마온월드타운(투숙객 전용)","statId":"ST448002","addr":"충청남도 홍성군 구항면 충서로 1067-15","location":"마온월드타운 주차장","lat":"36.573018","lng":"126.65262","zcode":"44","zscode":"44800"},{"statNm":"고암점 기아오토큐(회원 전용)","statId":"ST448003","addr":"충청남도 홍성군 홍성읍 조양로246번길 62","location":"지상 주차장","lat":"36.594384","lng":"126.678019","zcode":"44","zscode":"44800"},{"statNm":"동현자동차정비공업사(회원 전용)","statId":"ST448101","addr":"충청남도 예산군 예산읍 금오대로 133-10","location":"지상주차장","lat":"36.690472","lng":"126.842495","zcode":"44","zscode":"44810"},{"statNm":"도요새","statId":"ST448201","addr":"충청남도 태안군 남면 몽대로 482","location":"도요새 옥외주차장 계단실 옆","lat":"36.673715","lng":"126.274143","zcode":"44","zscode":"44825"},{"statNm":"블루힐모텔(투숙객 전용)","statId":"ST448202","addr":"충청남도 태안군 태안읍 중앙로 227-8","location":"블루힐모텔 지상주차장","lat":"36.749454","lng":"126.312657","zcode":"44","zscode":"44825"},{"statNm":"잉카의작은마을(투숙객 전용)","statId":"ST448203","addr":"충청남도 태안군 태안읍 서해로 2226-26","location":"잉카의작은마을 옥외주차장 모텔본관 앞","lat":"36.767589","lng":"126.3487","zcode":"44","zscode":"44825"},{"statNm":"서부발전 이화마을","statId":"ST448204","addr":"충청남도 태안군 원북면 원이로 820-32","location":"WP생활체육관 주차장 내","lat":"36.8200838","lng":"126.26183","zcode":"44","zscode":"44825"},{"statNm":"팜앤팜치유정원(부여글램핑판)","statId":"TDD00001","addr":"충청남도 부여군 옥산면 신안로40번길 90","location":"지상 1층 입구 주차장","lat":"36.184079","lng":"126.7225641","zcode":"44","zscode":"44760"},{"statNm":"연산황산벌오토캠핑장","statId":"TDD00002","addr":"충청남도 논산시 연산면 신신양로 187-8","location":"지상1층 주차장","lat":"36.1877363","lng":"127.2311677","zcode":"44","zscode":"44230"},{"statNm":"주식회사 일상","statId":"TDD00003","addr":"충청남도 논산시 상월면 선비로 1079","location":"지상1층 클럽하우스 좌측주차장","lat":"36.2773296","lng":"127.1705727","zcode":"44","zscode":"44230"},{"statNm":"(주)서부자동차운전전문학원","statId":"TDD00004","addr":"충청남도 계룡시 엄사면 계백로 3080-10","location":"사무실 옆 주차장","lat":"36.2797235","lng":"127.2402824","zcode":"44","zscode":"44250"},{"statNm":"롯데케미칼 대산사택","statId":"TDD00005","addr":"충청남도 서산시 대산읍 물안1로 123","location":"대산사택 지상주차장","lat":"36.9679006","lng":"126.4249902","zcode":"44","zscode":"44210"},{"statNm":"마코연산상설점","statId":"TDD00006","addr":"충청남도 논산시 연산면 계백로 1928","location":"지상1층 건물 우측 주차장","lat":"36.209342","lng":"127.1861767","zcode":"44","zscode":"44230"},{"statNm":"롯데케미칼 대산공장 생산연구동","statId":"TDD00007","addr":"충청남도 서산시 대산읍 독곶1로 82","location":"대산공장 생산연구동 지상주차장","lat":"37.0028818","lng":"126.3623631","zcode":"44","zscode":"44210"},{"statNm":"하나모터스(천안)","statId":"TDD00008","addr":"충청남도 천안시 동남구 천안대로 683","location":"건물 앞 주차장","lat":"36.8091388","lng":"127.1642677","zcode":"44","zscode":"44130"},{"statNm":"천수향","statId":"TDD00009","addr":"충청남도 보령시 원동1길 10-15","location":"지상1층 입구 주차장","lat":"36.3509564","lng":"126.5956484","zcode":"44","zscode":"44180"},{"statNm":"주식회사고무신호텔","statId":"TDD00012","addr":"충청남도 논산시 은진면 안심로277번길 8","location":"외부주차장","lat":"36.1460302","lng":"127.1020595","zcode":"44","zscode":"44230"},{"statNm":"산호비치호텔","statId":"TDD00013","addr":"충청남도 보령시 해수욕장6길 16","location":"지하1층 주차장","lat":"36.306486","lng":"126.517355","zcode":"44","zscode":"44180"},{"statNm":"대천제니스호텔","statId":"TDD00015","addr":"충청남도 보령시 대천항1길 13","location":"지하1층 주차장","lat":"36.3237557","lng":"126.5086392","zcode":"44","zscode":"44180"},{"statNm":"월영산모텔 달맞이레스토랑","statId":"TDD00016","addr":"충청남도 금산군 제원면 월영산길 14","location":"지상1층 후면주차장","lat":"36.1134773","lng":"127.5963635","zcode":"44","zscode":"44710"},{"statNm":"로하스펜션","statId":"TDD00018","addr":"충청남도 태안군 남면 마검포길 313-18","location":"지상1층 입구주차장","lat":"36.6101383","lng":"126.2905808","zcode":"44","zscode":"44825"},{"statNm":"몽호텔","statId":"TDD00019","addr":"충청남도 서산시 대산읍 탑골1길 19-9","location":"지상1층 입구 좌측 주차장","lat":"36.9352365","lng":"126.4332891","zcode":"44","zscode":"44210"},{"statNm":"비치콘도모텔","statId":"TDD00020","addr":"충청남도 태안군 근흥면 신진도길 4","location":"지상1층 입구 좌측 주차장","lat":"36.6785572","lng":"126.1360203","zcode":"44","zscode":"44825"},{"statNm":"수암골프클럽","statId":"TDD00021","addr":"충청남도 예산군 덕산면 시량부흥길 75-16","location":"지상1층 휴게실 앞 주차장","lat":"34.9473188","lng":"127.4940764","zcode":"44","zscode":"44810"},{"statNm":"오션뷰리조텔","statId":"TDD00022","addr":"충청남도 보령시 대천항1길 17","location":"지상1층 1주차장","lat":"36.3240338","lng":"126.5063156","zcode":"44","zscode":"44180"},{"statNm":"샵모텔","statId":"TDD00025","addr":"충청남도 서천군 장항읍 장산로 641-17","location":"입구 주차장","lat":"36.0025071","lng":"126.726416","zcode":"44","zscode":"44770"},{"statNm":"하늘관광농원","statId":"TDD00026","addr":"충청남도 보령시 천북면 사호장은로 624","location":"지상1층 건물 옆 주차장","lat":"36.5040242","lng":"126.4897954","zcode":"44","zscode":"44180"},{"statNm":"용우가든","statId":"TDD00027","addr":"충청남도 예산군 광시면 예당로 399","location":"건물 앞 주차장","lat":"36.5690372","lng":"126.7807216","zcode":"44","zscode":"44810"},{"statNm":"월드파크장","statId":"TDD00028","addr":"충청남도 예산군 예산읍 형제고개로 923","location":"지상1층 입구좌측 주차장","lat":"36.6730784","lng":"126.8513815","zcode":"44","zscode":"44810"},{"statNm":"리모텔 (Lee Motel)","statId":"TDD00032","addr":"충청남도 당진시 계성3길 19-11","location":"건물 앞 주차장","lat":"36.8978053","lng":"126.6332826","zcode":"44","zscode":"44270"},{"statNm":"주식회사 아름다운자동차","statId":"TDD00033","addr":"충청남도 아산시 배방읍 모산로 30","location":"건물 옆 주차장","lat":"36.7723933","lng":"127.0466556","zcode":"44","zscode":"44200"},{"statNm":"아리아모텔","statId":"TDD00034","addr":"충청남도 당진시 송악읍 북부산업로 666","location":"건물 우측 주차장","lat":"36.9372563","lng":"126.7889295","zcode":"44","zscode":"44270"},{"statNm":"알프스파크","statId":"TDD00036","addr":"충청남도 아산시 온화로11번길 5-3","location":"지상1층 입구 주차장","lat":"36.7785728","lng":"126.9986287","zcode":"44","zscode":"44200"},{"statNm":"쉘모텔","statId":"TDD00038","addr":"충청남도 당진시 당진중앙2로 41-16","location":"지상1층 입구 주차장","lat":"36.8928144","lng":"126.6276971","zcode":"44","zscode":"44270"},{"statNm":"천마산장독대와보리밥","statId":"TDD00039","addr":"충청남도 계룡시 천마로 87-10","location":"건물 앞 주차장","lat":"36.2751683","lng":"127.2426243","zcode":"44","zscode":"44250"},{"statNm":"VIP모텔","statId":"TDD00040","addr":"충청남도 보령시 서낭댕이길 14","location":"건물 앞 주차장","lat":"36.3455383","lng":"126.6105173","zcode":"44","zscode":"44180"},{"statNm":"두바다찬솔","statId":"TDD00041","addr":"충청남도 태안군 고남면 월고지길 8-58","location":"건물 앞 주차장","lat":"36.4008935","lng":"126.4217493","zcode":"44","zscode":"44825"},{"statNm":"예담","statId":"TDD00042","addr":"충청남도 보령시 천북면 사호장은로 657","location":"건물후면 주차장","lat":"36.5075327","lng":"126.4889239","zcode":"44","zscode":"44180"},{"statNm":"자드락","statId":"TDD00043","addr":"충청남도 태안군 이원면 원이로 2535-139","location":"건물 앞 주차장","lat":"36.9427387","lng":"126.292618","zcode":"44","zscode":"44825"},{"statNm":"호텔카몬","statId":"TDD00044","addr":"충청남도 서천군 장항읍 장산로317번길 9-8","location":"지상1층 우측 후면주차장","lat":"36.0087878","lng":"126.6947897","zcode":"44","zscode":"44770"},{"statNm":"늘푸른캠핑장","statId":"TDD00045","addr":"충청남도 서천군 마서면 장천로 905-20","location":"외부주차장","lat":"36.0841621","lng":"126.6447265","zcode":"44","zscode":"44770"},{"statNm":"프로포즈","statId":"TDD00047","addr":"충청남도 서천군 마서면 금강로 1155","location":"지상1층 주차장","lat":"36.0250441","lng":"126.7250453","zcode":"44","zscode":"44770"},{"statNm":"타임호텔","statId":"TDD00048","addr":"충청남도 천안시 서북구 성정공원7길 14","location":"지상1층 주차장","lat":"36.828967","lng":"127.1426836","zcode":"44","zscode":"44130"},{"statNm":"태광모터스","statId":"TDD00049","addr":"충청남도 천안시 동남구 통세골1길 8","location":"건물앞 주차장","lat":"36.7741249","lng":"127.1246768","zcode":"44","zscode":"44130"},{"statNm":"소나무","statId":"TDD00050","addr":"충청남도 논산시 논산대로 357","location":"지상1층 입구주차장","lat":"36.1948153","lng":"127.0992676","zcode":"44","zscode":"44230"},{"statNm":"가나안카센타","statId":"TDD00052","addr":"충청남도 예산군 덕산면 수암산로 26","location":"건물 앞 주차장","lat":"36.7018984","lng":"126.668162","zcode":"44","zscode":"44810"},{"statNm":"온천카랜드","statId":"TDD00053","addr":"충청남도 예산군 덕산면 덕산온천로 310","location":"건물 우측벽 주차장","lat":"36.694496","lng":"126.6622279","zcode":"44","zscode":"44810"},{"statNm":"타이타닉","statId":"TDD00054","addr":"충청남도 논산시 관촉로 291","location":"지상1층 건물 옆 주차장","lat":"36.204116","lng":"127.0901262","zcode":"44","zscode":"44230"},{"statNm":"내안의숲인테리어","statId":"TDD00056","addr":"충청남도 부여군 옥산면 차동로30번길 30-42","location":"야외주차장","lat":"36.1851728","lng":"126.7462675","zcode":"44","zscode":"44760"},{"statNm":"헤라모텔","statId":"TDD00058","addr":"충청남도 서산시 갈산3길 5","location":"건물 앞 주차장","lat":"36.7995153","lng":"126.4337078","zcode":"44","zscode":"44210"},{"statNm":"화산숯불오리가든","statId":"TDD00059","addr":"충청남도 보령시 화산큰길 52","location":"야외주차장","lat":"36.3644337","lng":"126.6267477","zcode":"44","zscode":"44180"},{"statNm":"홍성2차부영아파트","statId":"HM000130","addr":"충청남도 홍성군 홍성읍 월산로30번길 38","location":"null","lat":"36.601455578","lng":"126.64996401","zcode":"44","zscode":"44800"},{"statNm":"세광엔리치타원아파트","statId":"HM000131","addr":"충청남도 홍성군 홍성읍 충서로 1506","location":"null","lat":"36.604434998","lng":"126.65887778","zcode":"44","zscode":"44800"},{"statNm":"아산아이파크","statId":"HM000146","addr":"충청남도 아산시 남부로 321-8","location":"null","lat":"36.772599978","lng":"127.01639441","zcode":"44","zscode":"44200"},{"statNm":"청솔아파트","statId":"HM000147","addr":"충청남도 홍성군 홍성읍 내포로146번길 46","location":"null","lat":"36.598535432","lng":"126.65409019","zcode":"44","zscode":"44800"},{"statNm":"희홍밸러뷰아파트","statId":"HM000162","addr":"충청남도 천안시 서북구 직산읍 직산로 252-10","location":"null","lat":"36.896301204","lng":"127.16639059","zcode":"44","zscode":"44130"},{"statNm":"배방어울림아파트2차","statId":"HM000222","addr":"충청남도 아산시 배방읍 배방로201번길 20","location":"주차장","lat":"36.772122003","lng":"127.06841202","zcode":"44","zscode":"44200"},{"statNm":"아산주은환타지아아파트","statId":"HM000233","addr":"충청남도 아산시 어의정로183번길 14","location":"주차장","lat":"36.7759864","lng":"127.0164073","zcode":"44","zscode":"44200"},{"statNm":"온양일성아파트","statId":"HM000235","addr":"충청남도 아산시 시민로 485","location":"주차장","lat":"36.791823523","lng":"127.00080599","zcode":"44","zscode":"44200"},{"statNm":"법곡코아루더파크아파트","statId":"HM000236","addr":"충청남도 아산시 법곡길 8","location":"주차장","lat":"36.764928290","lng":"127.01205304","zcode":"44","zscode":"44200"},{"statNm":"중부팬더아파트","statId":"HM000253","addr":"충청남도 아산시 아산로 103-17","location":"주차장","lat":"36.790277650","lng":"126.99350882","zcode":"44","zscode":"44200"},{"statNm":"아산동아나래2차아파트","statId":"HM000254","addr":"충청남도 아산시 온천대로1333번길 10","location":"주차장","lat":"36.786147056","lng":"126.98711057","zcode":"44","zscode":"44200"},{"statNm":"한라동백아파트","statId":"HM000288","addr":"충청남도 아산시 삼동로 34","location":"주차장","lat":"36.783310124","lng":"127.01238804","zcode":"44","zscode":"44200"},{"statNm":"동일하이빌하이시티4단지","statId":"HM000312","addr":"충청남도 천안시 동남구 용곡5길 34","location":"주차장","lat":"36.790949441","lng":"127.13885536","zcode":"44","zscode":"44130"},{"statNm":"두정서해그랑블아파트","statId":"HM000314","addr":"충청남도 천안시 서북구 늘푸른1길 32","location":"주차장","lat":"36.828267303","lng":"127.12951313","zcode":"44","zscode":"44130"},{"statNm":"태안 엘렌리조트","statId":"HM000333","addr":"충청남도 태안군 안면읍 방죽길 118","location":"주차장","lat":"36.568431129","lng":"126.32717391","zcode":"44","zscode":"44825"},{"statNm":"새솔마을중앙하이츠3차아파트","statId":"HM000336","addr":"충청남도 아산시 배방읍 북수로 137","location":"주차장","lat":"36.774295761","lng":"127.07597665","zcode":"44","zscode":"44200"},{"statNm":"배방어울림아파트1차","statId":"HM000337","addr":"충청남도 아산시 배방읍 배방로201번길 10","location":"주차장","lat":"36.771372118","lng":"127.06852277","zcode":"44","zscode":"44200"},{"statNm":"아산용화주공3단지","statId":"HM000367","addr":"충청남도 아산시 온중로 22","location":"주차장","lat":"36.772600969","lng":"126.99651571","zcode":"44","zscode":"44200"},{"statNm":"새뜸현대3차아파트","statId":"HM000369","addr":"충청남도 공주시 신금1길 72","location":"주차장","lat":"36.476729851","lng":"127.14768588","zcode":"44","zscode":"44150"},{"statNm":"모종캐슬어울림2단지","statId":"HM000371","addr":"충청남도 아산시 모종로22번길 33","location":"주차장","lat":"36.781669102","lng":"127.02085103","zcode":"44","zscode":"44200"},{"statNm":"당진시티프라디움1차","statId":"HM000373","addr":"충청남도 당진시 대덕1로 102","location":"주차장","lat":"36.883134041","lng":"126.64289964","zcode":"44","zscode":"44270"},{"statNm":"목천프라임아파트","statId":"HM000374","addr":"충청남도 천안시 동남구 목천읍 충절로 892","location":"주차장","lat":"36.772840249","lng":"127.20991622","zcode":"44","zscode":"44130"},{"statNm":"불당지웰푸르지오","statId":"HM000381","addr":"충청남도 천안시 서북구 불당26로 80","location":"주차장","lat":"36.815271679","lng":"127.10602446","zcode":"44","zscode":"44130"},{"statNm":"홍성남장이안아파트","statId":"HM000383","addr":"충청남도 홍성군 홍성읍 문화로72번길 50","location":"주차장","lat":"36.591274549","lng":"126.66377700","zcode":"44","zscode":"44800"},{"statNm":"신평LIG리가","statId":"HM000385","addr":"충청남도 당진시 신평면 신평로 792","location":"주차장","lat":"36.882875115","lng":"126.77692244","zcode":"44","zscode":"44270"},{"statNm":"백석2차아이파크","statId":"HM000386","addr":"충청남도 천안시 서북구 한들3로 35-23","location":"주차장","lat":"36.826361375","lng":"127.12169585","zcode":"44","zscode":"44130"},{"statNm":"곰나루아파트","statId":"HM000409","addr":"충청남도 공주시 신금2길 47-1","location":"주차장","lat":"36.472567013","lng":"127.14601743","zcode":"44","zscode":"44150"},{"statNm":"신세대하이빌","statId":"HM000450","addr":"충청남도 당진시 신평면 거산3거리길 66","location":"주차장","lat":"36.883130570","lng":"126.75647033","zcode":"44","zscode":"44270"},