[{"statNm":"포항 남구청","statId":"ME000347","addr":"경상북도 포항시 남구 희망대로 790","location":"null","lat":"36.0090","lng":"129.3601","zcode":"47","zscode":"47110"},{"statNm":"포항시 청소년수련관","statId":"ME000349","addr":"경상북도 포항시 북구 삼호로 533","location":"null","lat":"36.0756518","lng":"129.397061","zcode":"47","zscode":"47110"},{"statNm":"영일대1주차장","statId":"ME000350","addr":"경상북도 포항시 북구 해안로82","location":"null","lat":"36.06175","lng":"129.3807566","zcode":"47","zscode":"47110"},{"statNm":"녹색미래과학관","statId":"ME000358","addr":"경상북도 김천시 혁신6로 31","location":"null","lat":"36.1239032","lng":"128.1850149","zcode":"47","zscode":"47150"},{"statNm":"안동휴게소(부산방향)","statId":"ME000360","addr":"경상북도 안동시 풍산읍 계평리","location":"null","lat":"36.5526751","lng":"128.6421175","zcode":"47","zscode":"47170"},{"statNm":"안동휴게소(춘천방향)","statId":"ME000361","addr":"경상북도 안동시 풍산읍 계평리 ","location":"null","lat":"36.5527465","lng":"128.6447331","zcode":"47","zscode":"47170"},{"statNm":"구미보건소","statId":"ME000364","addr":"경상북도 구미시 선산대로 111","location":"null","lat":"36.1398","lng":"128.34615","zcode":"47","zscode":"47190"},{"statNm":"영천휴게소(포항방향)","statId":"ME000367","addr":"경상북도 영천시 임고면 금대리","location":"null","lat":"36.0510309","lng":"129.0438883","zcode":"47","zscode":"47230"},{"statNm":"영천휴게소(대구방향)","statId":"ME000368","addr":"경상북도 영천시 임고면 금대리","location":"null","lat":"36.0533978","lng":"129.0432884","zcode":"47","zscode":"47230"},{"statNm":"신녕면복지회관","statId":"ME000369","addr":"경상북도 영천시 신녕면 화성중앙길 28","location":"null","lat":"36.0446055","lng":"128.7894486","zcode":"47","zscode":"47230"},{"statNm":"화서휴게소(상주방향)","statId":"ME000370","addr":"경상북도 상주시 화서면 터골길 51-25 ","location":"null","lat":"36.4444327","lng":"127.9212623","zcode":"47","zscode":"47250"},{"statNm":"군위군청","statId":"ME000376","addr":"경상북도 군위군 군위읍 군청로 200","location":"null","lat":"36.2431677","lng":"128.572398","zcode":"47","zscode":"47720"},{"statNm":"청송군청","statId":"ME000377","addr":"경상북도 청송군 청송읍 군청로 51","location":"null","lat":"36.4354425","lng":"129.0573457","zcode":"47","zscode":"47750"},{"statNm":"강구면사무소","statId":"ME000378","addr":"경상북도 영덕군 강구면 동해대로 4526","location":"null","lat":"36.3612309","lng":"129.3786192","zcode":"47","zscode":"47770"},{"statNm":"청도새마을휴게소(대구방향)","statId":"ME000381","addr":"경상북도 청도군 청도읍 하지길 59-50","location":"null","lat":"35.5950438","lng":"128.7694794","zcode":"47","zscode":"47820"},{"statNm":"고령군청","statId":"ME000382","addr":"경상북도 고령군 대가야읍 왕릉로 55","location":"null","lat":"35.7256443","lng":"128.2624701","zcode":"47","zscode":"47830"},{"statNm":"남성주휴게소(양평방향)","statId":"ME000383","addr":"경상북도 성주군 용암면 본리리","location":"null","lat":"35.8584861","lng":"128.3197036","zcode":"47","zscode":"47840"},{"statNm":"남성주휴게소(창원방향)","statId":"ME000384","addr":"경상북도 성주군 선남면 명포리","location":"null","lat":"35.8697384","lng":"128.3165169","zcode":"47","zscode":"47840"},{"statNm":"동명휴게소(부산방향)","statId":"ME000387","addr":"경상북도 칠곡군 동명면 중앙고속도로 123 ","location":"null","lat":"36.0077034","lng":"128.5460538","zcode":"47","zscode":"47850"},{"statNm":"동명휴게소(춘천방향)","statId":"ME000388","addr":"경상북도 칠곡군 동명면 중앙고속도로 122 ","location":"null","lat":"36.0069197","lng":"128.5486571","zcode":"47","zscode":"47850"},{"statNm":"아포읍사무소 ","statId":"ME174087","addr":"경상북도 김천시 아포읍 국사길 63","location":"null","lat":"36.1600823","lng":"128.2530737","zcode":"47","zscode":"47150"},{"statNm":"문경시청","statId":"ME174088","addr":"경상북도 문경시 모전동 220","location":"null","lat":"36.5861467","lng":"128.1876744","zcode":"47","zscode":"47280"},{"statNm":"구시장 주차장","statId":"ME174089","addr":"경상북도 봉화군 봉화읍 내성리 231-30","location":"null","lat":"36.8894357","lng":"128.7392335","zcode":"47","zscode":"47920"},{"statNm":"상주 시민운동장 내 주차장","statId":"ME174090","addr":"경상북도 상주시 계산동 474-1","location":"null","lat":"36.4320621","lng":"128.1604534","zcode":"47","zscode":"47250"},{"statNm":"성주군청","statId":"ME174091","addr":"경상북도 성주군 성주읍 성주로 3200","location":"null","lat":"35.9191151","lng":"128.2834698","zcode":"47","zscode":"47840"},{"statNm":"영양군청 정문 앞 공영주차장","statId":"ME174092","addr":"경상북도 영양군 영양읍 서부리","location":"null","lat":"36.6659487","lng":"129.1126487","zcode":"47","zscode":"47760"},{"statNm":"영주1동 행정복지센터","statId":"ME174093","addr":"경상북도 영주시 영주동 27-2","location":"null","lat":"36.8265386","lng":"128.6199281","zcode":"47","zscode":"47210"},{"statNm":"예천군보건소","statId":"ME174094","addr":"경상북도 예천군 예천읍 노상리 125-1","location":"null","lat":"36.6573757","lng":"128.4530619","zcode":"47","zscode":"47900"},{"statNm":"울진연호공원 입구","statId":"ME174095","addr":"경상북도 울진군 울진읍 연지리 820-62","location":"null","lat":"36.9924564","lng":"129.4071759","zcode":"47","zscode":"47930"},{"statNm":"의성군청 공영주차장","statId":"ME174096","addr":"경상북도 의성군 의성읍 후죽리 507-2","location":"null","lat":"36.3534416","lng":"128.6968098","zcode":"47","zscode":"47730"},{"statNm":"칠곡군청","statId":"ME174097","addr":"경상북도 칠곡군 왜관읍 군청1길 80","location":"null","lat":"35.9949554","lng":"128.4017133","zcode":"47","zscode":"47850"},{"statNm":"경주휴게소(부산방향)","statId":"ME178001","addr":"경상북도 경주시 내남면 경부고속도로 59 (월산리)","location":"null","lat":"35.72448","lng":"129.1926307","zcode":"47","zscode":"47130"},{"statNm":"김천휴게소(부산방향)","statId":"ME178004","addr":"경상북도 김천시 농소면 경부고속도로 194 (신촌리)","location":"null","lat":"36.129385","lng":"128.164209","zcode":"47","zscode":"47150"},{"statNm":"김천휴게소(서울방향)","statId":"ME178005","addr":"경상북도 김천시 농소면 경부고속도로 193 (신촌리)","location":"null","lat":"36.131093","lng":"128.16334","zcode":"47","zscode":"47150"},{"statNm":"칠곡휴게소(부산방향)","statId":"ME178006","addr":"경상북도 칠곡군 왜관읍 경부고속도로 159 (아곡리)","location":"null","lat":"36.02025","lng":"128.4292831","zcode":"47","zscode":"47850"},{"statNm":"칠곡휴게소(서울방향)","statId":"ME178007","addr":"경상북도 칠곡군 왜관읍 경부고속도로 158 (아곡리)","location":"null","lat":"36.0134523","lng":"128.4300932","zcode":"47","zscode":"47850"},{"statNm":"건천휴게소(부산방향)","statId":"ME178046","addr":"경상북도 경주시 건천읍 경부고속도로 77 (방내리)","location":"null","lat":"35.830231","lng":"129.1099622","zcode":"47","zscode":"47130"},{"statNm":"건천휴게소(서울방향)","statId":"ME178047","addr":"경상북도 경주시 건천읍 경부고속도로 76 (방내리)","location":"null","lat":"35.8318434","lng":"129.1092475","zcode":"47","zscode":"47130"},{"statNm":"문경휴게소(마산방향)","statId":"ME178058","addr":"경상북도 문경시 중부내륙고속도로 173","location":"null","lat":"36.6197424","lng":"128.1505644","zcode":"47","zscode":"47280"},{"statNm":"문경휴게소(양평방향)","statId":"ME178059","addr":"경상북도 문경시 중부내륙고속도로 174 (유곡동)","location":"null","lat":"36.6212807","lng":"128.1519843","zcode":"47","zscode":"47280"},{"statNm":"군위휴게소(부산방향)","statId":"ME178071","addr":"경상북도 군위군 군위읍 경북대로 4084 (오곡리)","location":"null","lat":"36.2659378","lng":"128.5749302","zcode":"47","zscode":"47720"},{"statNm":"동명휴게소(춘천방향)","statId":"ME178072","addr":"경상북도 칠곡군 동명면 중앙고속도로 122 (가천리)","location":"null","lat":"36.0068197","lng":"128.5488571","zcode":"47","zscode":"47850"},{"statNm":"남성주휴게소(창원방향)","statId":"ME178095","addr":"경상북도 성주군 선남면 중부내륙고속도로 77 (명포리)","location":"null","lat":"35.8696384","lng":"128.3167169","zcode":"47","zscode":"47840"},{"statNm":"외동휴게소(울산방향)","statId":"ME178096","addr":"경상북도 경주시 외동읍 상석길 58-70 (석계리)","location":"null","lat":"35.6721564","lng":"129.2862024","zcode":"47","zscode":"47130"},{"statNm":"외동휴게소(포항방향)","statId":"ME178097","addr":"경상북도 경주시 외동읍 상석길 58-74 (석계리)","location":"null","lat":"35.6730757","lng":"129.2882193","zcode":"47","zscode":"47130"},{"statNm":"와촌휴게소(포항방향)","statId":"ME178098","addr":"경상북도 경산시 와촌면 강학길 103 (강학리)","location":"null","lat":"35.9520202","lng":"128.7754218","zcode":"47","zscode":"47290"},{"statNm":"청통휴게소(대구방향)","statId":"ME178099","addr":"경상북도 영천시 청통면 청통로 334-42 (우천리)","location":"null","lat":"35.9938324","lng":"128.8600932","zcode":"47","zscode":"47230"},{"statNm":"의성휴게소(상주방향)","statId":"ME178102","addr":"경상북도 의성군 안계면 새못안길 45-49 (양곡리)","location":"null","lat":"36.41036","lng":"128.4464999","zcode":"47","zscode":"47730"},{"statNm":"의성휴게소(영덕방향)","statId":"ME178103","addr":"경상북도 의성군 안계면 새못안길 45-47 (양곡리)","location":"null","lat":"36.4092576","lng":"128.4471669","zcode":"47","zscode":"47730"},{"statNm":"한국도로공사본사","statId":"ME178130","addr":"경상북도 김천시 혁신8로 77","location":"null","lat":"36.1280571","lng":"128.1898163","zcode":"47","zscode":"47150"},{"statNm":"낙동강구미휴게소(상행)","statId":"ME178135","addr":"경상북도 구미시 도개면 용산리","location":"null","lat":"36.3429379","lng":"128.3008432","zcode":"47","zscode":"47190"},{"statNm":"낙동강의성휴게소(하행)","statId":"ME178136","addr":"경상북도 의성군 단밀면 낙정리","location":"null","lat":"36.345174","lng":"128.2967428","zcode":"47","zscode":"47730"},{"statNm":"군위영천휴게소(하행)","statId":"ME178137","addr":"경상북도 군위군 산성면 백학리","location":"null","lat":"36.070161","lng":"128.7097063","zcode":"47","zscode":"47720"},{"statNm":"가야산 백운동 주차장","statId":"ME181205","addr":"경상북도 성주군 수륜면 가야산식물원길 49","location":"null","lat":"35.803416","lng":"128.141788","zcode":"47","zscode":"47840"},{"statNm":"신공단주유소","statId":"ME181305","addr":"경상북도 경산시 진량읍 공단로299","location":"null","lat":"35.858199","lng":"128.820215","zcode":"47","zscode":"47290"},{"statNm":"현대LPG행복충전소","statId":"ME181306","addr":"경상북도 경주시 외동읍 산업로 2759","location":"null","lat":"35.756611","lng":"129.314047","zcode":"47","zscode":"47130"},{"statNm":"아리랑 주유소(상주시)","statId":"ME181307","addr":"경상북도 상주시 계산동 189-6","location":"null","lat":"36.42832","lng":"128.172943","zcode":"47","zscode":"47250"},{"statNm":"승춘에너지","statId":"ME181308","addr":"경상북도 상주시 함창로581번지 ","location":"null","lat":"36.579299","lng":"128.191631","zcode":"47","zscode":"47250"},{"statNm":"대동주유소","statId":"ME181309","addr":"경상북도 상주시 화남면 문장로758","location":"null","lat":"36.480432","lng":"127.932562","zcode":"47","zscode":"47250"},{"statNm":"S-oil LPG 상주충전소","statId":"ME181310","addr":"경상북도 상주시 영남제일로1950","location":"null","lat":"36.415614","lng":"128.132118","zcode":"47","zscode":"47250"},{"statNm":"SK SnS 만남주유소","statId":"ME181311","addr":"경상북도 상주시 영남제일로 1273","location":"null","lat":"36.41794","lng":"128.200196","zcode":"47","zscode":"47250"},{"statNm":"상산주유소","statId":"ME181312","addr":"경상북도 상주시 영남 제일로 1339","location":"null","lat":"36.418211","lng":"128.193527","zcode":"47","zscode":"47250"},{"statNm":"카페에비뉴 220","statId":"ME181313","addr":"경상북도 안동시 상아동 266-2","location":"null","lat":"36.589655","lng":"128.74204","zcode":"47","zscode":"47170"},{"statNm":"휴네스트","statId":"ME181314","addr":"경상북도 영덕군 병곡면 병곡리 360번지","location":"null","lat":"36.608768","lng":"129.413826","zcode":"47","zscode":"47770"},{"statNm":"구미 아리랑 주유소","statId":"ME181315","addr":"경상북도 구미시 오태동659-13","location":"null","lat":"36.077883","lng":"128.352893","zcode":"47","zscode":"47190"},{"statNm":"퍼빌무인텔(토담)","statId":"ME181316","addr":"경상북도 예천군 보문면 오암리 584-1","location":"null","lat":"36.665113","lng":"128.526951","zcode":"47","zscode":"47900"},{"statNm":"공단주유소LPG충전소","statId":"ME181317","addr":"경상북도 의성군 안계면 서부로1783","location":"null","lat":"36.391","lng":"128.431743","zcode":"47","zscode":"47730"},{"statNm":"애지중지","statId":"ME181318","addr":"경상북도 포항시 남구 장기면 동해안로2987","location":"null","lat":"35.862555","lng":"129.525014","zcode":"47","zscode":"47110"},{"statNm":"포항공과대학교 포스빌 6동주차장","statId":"ME181319","addr":"경상북도 포항시 남구 지곡로 83","location":"null","lat":"36.014232","lng":"129.325094","zcode":"47","zscode":"47110"},{"statNm":"선린대학교","statId":"ME181320","addr":"경상북도 포항시 북구 흥해읍 초곡길36번길 30","location":"null","lat":"36.090081","lng":"129.334073","zcode":"47","zscode":"47110"},{"statNm":"경주국립공원사무소","statId":"ME181321","addr":"경상북도 경주시 천북남로 12(신평동)","location":"null","lat":"35.843844","lng":"129.289554","zcode":"47","zscode":"47130"},{"statNm":"금호농협클린주유소","statId":"ME181322","addr":"경상북도 영천시 금호읍 덕성리 44-1","location":"null","lat":"35.925036","lng":"128.878147","zcode":"47","zscode":"47230"},{"statNm":"경북주유소","statId":"ME181323","addr":"경상북도 영천시 금호읍 교대리74","location":"null","lat":"35.935235","lng":"128.872972","zcode":"47","zscode":"47230"},{"statNm":"청수주유소","statId":"ME181324","addr":"경상북도 영천시 한방로53번지","location":"null","lat":"35.941507","lng":"128.93448","zcode":"47","zscode":"47230"},{"statNm":"영천요양병원","statId":"ME181325","addr":"경상북도 영천시 천문로594","location":"null","lat":"35.987732","lng":"128.924099","zcode":"47","zscode":"47230"},{"statNm":"대어돌섬횟집","statId":"ME181326","addr":"경상북도 영천시 한방로77","location":"null","lat":"35.940494","lng":"128.936767","zcode":"47","zscode":"47230"},{"statNm":"주왕산국립공원 상의주차장","statId":"ME181327","addr":"경상북도 청송군 부동면 상의리 299","location":"null","lat":"36.390481","lng":"129.140571","zcode":"47","zscode":"47750"},{"statNm":"소백산국립공원 삼가주차장","statId":"ME181328","addr":"경상북도 영주시 풍기읍 삼가로 476","location":"null","lat":"36.923147","lng":"128.503217","zcode":"47","zscode":"47210"},{"statNm":"포항공항","statId":"ME181329","addr":"경상북도 포항시 남구 동해면 도구리 403-3","location":"null","lat":"35.983315","lng":"129.433639","zcode":"47","zscode":"47110"},{"statNm":"롯데마트 김천점","statId":"ME181330","addr":"경상북도 김천시 시청로 80 (신음동)","location":"null","lat":"36.135952","lng":"128.117868","zcode":"47","zscode":"47150"},{"statNm":"롯데마트 포항점","statId":"ME181331","addr":"경상북도 포항시 남구 지곡로 247-0 (지곡동)","location":"null","lat":"36.027599","lng":"129.324699","zcode":"47","zscode":"47110"},{"statNm":"롯데마트 구미점","statId":"ME181332","addr":"경상북도 구미시 구미대로22길 11-0 (신평동)","location":"null","lat":"36.113635","lng":"128.365533","zcode":"47","zscode":"47190"},{"statNm":"소백산 생태탐방원","statId":"ME181412","addr":"경상북도 영주시 단산면 옥대리 산 16-1","location":"null","lat":"36.971926","lng":"128.60833","zcode":"47","zscode":"47210"},{"statNm":"가흥1동 주민자치센터","statId":"ME183052","addr":"경상북도 영주시 가흥동 1622","location":"null","lat":"36.8156201","lng":"128.6039755","zcode":"47","zscode":"47210"},{"statNm":"백암온천주차장","statId":"ME183079","addr":"경상북도 울진군 온정면 소태리 1453, 온정종합터미널 뒤","location":"null","lat":"36.7211147","lng":"129.3438151","zcode":"47","zscode":"47930"},{"statNm":"경주시청","statId":"ME183129","addr":"경상북도 경주시 양정로 260","location":"null","lat":"35.8557609","lng":"129.2246499","zcode":"47","zscode":"47130"},{"statNm":"건천운동장","statId":"ME183130","addr":"경상북도 경주시 건천읍 천포리 1122","location":"null","lat":"35.8419416","lng":"129.0937282","zcode":"47","zscode":"47130"},{"statNm":"월정교주차장","statId":"ME183131","addr":"경상북도 경주시 천원2길 9","location":"null","lat":"35.8279273","lng":"129.2153985","zcode":"47","zscode":"47130"},{"statNm":"단계교 주차장","statId":"ME183132","addr":"경상북도 구미시 단계동길 52, 단계교 쉼터 옆 주차장","location":"null","lat":"36.242692","lng":"128.298214","zcode":"47","zscode":"47190"},{"statNm":"지좌동주민센터","statId":"ME183133","addr":"경상북도 김천시 영남대로 1940","location":"null","lat":"36.1200022","lng":"128.1423776","zcode":"47","zscode":"47150"},{"statNm":"후포문화복지센터","statId":"ME183134","addr":"경상북도 울진군 후포면 삼율로 17","location":"null","lat":"36.6783476","lng":"129.4397067","zcode":"47","zscode":"47930"},{"statNm":"동명면평생학습복지센터","statId":"ME183135","addr":"경상북도 칠곡군 동명면 동명팔거천2길 9, 복지센터 앞","location":"null","lat":"35.984967","lng":"128.5524735","zcode":"47","zscode":"47850"},{"statNm":"포항철강관리공단","statId":"ME183136","addr":"경상북도 포항시 남구 철강로 362, 후면 주차장","location":"null","lat":"35.9785354","lng":"129.378743","zcode":"47","zscode":"47110"},{"statNm":"기계면사무소","statId":"ME183137","addr":"경상북도 포항시 북구 기계면 근면길 14","location":"null","lat":"36.0719124","lng":"129.2104246","zcode":"47","zscode":"47110"},{"statNm":"김천시청","statId":"ME183138","addr":"경상북도 김천시 신음동 1284, 입구 우측","location":"null","lat":"36.1395083","lng":"128.1142006","zcode":"47","zscode":"47150"},{"statNm":"부곡근린공원 주차장","statId":"ME183139","addr":"경상북도 김천시 부곡동 1533-1","location":"null","lat":"36.1256312","lng":"128.0922379","zcode":"47","zscode":"47150"},{"statNm":"구룡포읍사무소","statId":"ME183140","addr":"경상북도 포항시 남구 구룡포읍 호미로 133","location":"null","lat":"35.9851599","lng":"129.5467553","zcode":"47","zscode":"47110"},{"statNm":"대송면다목적복지회관","statId":"ME183141","addr":"경상북도 포항시 남구 대송면 제내리 630-5","location":"null","lat":"35.9784701","lng":"129.3618318","zcode":"47","zscode":"47110"},{"statNm":"영주시청","statId":"ME183142","addr":"경상북도 영주시 시청로 1, 입구 우측","location":"null","lat":"36.8062996","lng":"128.6243504","zcode":"47","zscode":"47210"},{"statNm":"영주선비촌주차장","statId":"ME183143","addr":"경상북도 영주시 순흥면 청구리 362, 소형주차장","location":"null","lat":"36.9281211","lng":"128.5809619","zcode":"47","zscode":"47210"},{"statNm":"덕구온천콘도주차장","statId":"ME183178","addr":"경상북도 울진군 북면 덕구리 578-6","location":"null","lat":"37.0782389","lng":"129.2827257","zcode":"47","zscode":"47930"},{"statNm":"청도군청 주차장","statId":"ME183190","addr":"경상북도 청도군 화양읍 청화로 70, 후문 앞","location":"null","lat":"35.647262","lng":"128.7350102","zcode":"47","zscode":"47820"},{"statNm":"성주휴게소 양평방향","statId":"ME183211","addr":"경상북도 성주군 초전면 용봉리 129-5","location":"null","lat":"36.0078608","lng":"128.2610295","zcode":"47","zscode":"47840"},{"statNm":"성주휴게소 창원방향","statId":"ME183212","addr":"경상북도 성주군 대가면 중부내륙고속도로 97","location":"null","lat":"36.010903","lng":"128.2606992","zcode":"47","zscode":"47840"},{"statNm":"칠곡휴게소(서울방향)","statId":"ME184047","addr":"경상북도 칠곡군 왜관읍 경부고속도로 158","location":"null","lat":"36.0134523","lng":"128.4300932","zcode":"47","zscode":"47850"},{"statNm":"경산휴게소(서울방향)","statId":"ME184048","addr":"경상북도 경산시 진량읍 대학로 1089","location":"null","lat":"35.878943","lng":"128.8096386","zcode":"47","zscode":"47290"},{"statNm":"평사휴게소(부산방향)","statId":"ME184049","addr":"경상북도 경산시 진량읍 경부고속도로 105 ","location":"null","lat":"35.8852493","lng":"128.8657272","zcode":"47","zscode":"47290"},{"statNm":"진량읍사무소","statId":"ME184050","addr":"경상북도 경산시 진량읍 다문로 50","location":"null","lat":"35.874153","lng":"128.817135","zcode":"47","zscode":"47290"},{"statNm":"경주휴게소(부산방향)","statId":"ME184051","addr":"경상북도 경주시 내남면 경부고속도로 59","location":"null","lat":"35.72458","lng":"129.1924307","zcode":"47","zscode":"47130"},{"statNm":"경주시청","statId":"ME184052","addr":"경상북도 경주시 양정로 260","location":"null","lat":"35.855610","lng":"129.224532","zcode":"47","zscode":"47130"},{"statNm":"외동읍사무소","statId":"ME184053","addr":"경상북도 경주시 외동읍 읍청사로 25","location":"null","lat":"35.717067","lng":"129.327905","zcode":"47","zscode":"47130"},{"statNm":"양남면사무소","statId":"ME184054","addr":"경상북도 경주시 양남면 다래길 8","location":"null","lat":"35.677279","lng":"129.460322","zcode":"47","zscode":"47130"},{"statNm":"선산휴게소(양평방향)","statId":"ME184055","addr":"경상북도 구미시 옥성면 중부내륙고속도로 128","location":"null","lat":"36.2770877","lng":"128.2498826","zcode":"47","zscode":"47190"},{"statNm":"선산휴게소(마산방향)","statId":"ME184056","addr":"경상북도 구미시 옥성면 중부내륙고속도로 129-1","location":"null","lat":"36.2749052","lng":"128.249717","zcode":"47","zscode":"47190"},{"statNm":"문경휴게소(양평방향)","statId":"ME184057","addr":"경상북도 문경시 중부내륙고속도로 174-1","location":"null","lat":"36.6213807","lng":"128.1517843","zcode":"47","zscode":"47280"},{"statNm":"문경휴게소(마산방향)","statId":"ME184058","addr":"경상북도 문경시 중부내륙고속도로 173 (유곡동)","location":"null","lat":"36.6198424","lng":"128.1503644","zcode":"47","zscode":"47280"},{"statNm":"북안면사무소","statId":"ME184059","addr":"경상북도 영천시 북안면 운북로 1995","location":"null","lat":"35.915185","lng":"129.009479","zcode":"47","zscode":"47230"},{"statNm":"보현산댐휴게소","statId":"ME184060","addr":"경상북도 영천시 화북면 천문로 3087","location":"null","lat":"36.155603","lng":"128.915953","zcode":"47","zscode":"47230"},{"statNm":"운문면사무소","statId":"ME184061","addr":"경상북도 청도군 운문면 청려로 4707","location":"null","lat":"35.715329","lng":"128.913326","zcode":"47","zscode":"47820"},{"statNm":"칠곡휴게소(부산방향)","statId":"ME184062","addr":"경상북도 칠곡군 왜관읍 경부고속도로 159","location":"null","lat":"36.0186724","lng":"128.4292701","zcode":"47","zscode":"47850"},{"statNm":"이마트 포항점","statId":"ME184063","addr":"경상북도 포항시 남구 냉천로 10","location":"null","lat":"35.991653","lng":"129.398475","zcode":"47","zscode":"47110"},{"statNm":"내남면사무소","statId":"ME187001","addr":"경상북도 경주시 내남면 이조리 156-3","location":"null","lat":"35.7522541","lng":"129.2002887","zcode":"47","zscode":"47130"},{"statNm":"감포읍사무소","statId":"ME187002","addr":"경상북도 경주시 감포읍 감포리 62-2","location":"null","lat":"35.80711590000","lng":"129.5013120999","zcode":"47","zscode":"47130"},{"statNm":"선도동사무소","statId":"ME187003","addr":"경상북도 경주시 충효동 540-1","location":"null","lat":"35.8442222","lng":"129.1745994","zcode":"47","zscode":"47130"},{"statNm":"안강읍사무소","statId":"ME187004","addr":"경상북도 경주시 안강읍 안강리 350-24","location":"null","lat":"35.9902705","lng":"129.2262909999","zcode":"47","zscode":"47130"},{"statNm":"현곡면사무소","statId":"ME187005","addr":"경상북도 경주시 현곡면 금장리 582-4","location":"null","lat":"35.8658502","lng":"129.2021987","zcode":"47","zscode":"47130"},{"statNm":"황남동사무소","statId":"ME187006","addr":"경상북도 경주시 사정동 172-1","location":"null","lat":"35.8334708","lng":"129.2076181","zcode":"47","zscode":"47130"},{"statNm":"하양읍사무소","statId":"ME18C132","addr":"경상북도 경산시 경산시 하양읍 문화로 36","location":"null","lat":"35.912177","lng":"128.813052","zcode":"47","zscode":"47290"},{"statNm":"경산시청 공영주차장","statId":"ME18C133","addr":"경상북도 경산시 남매로 159","location":"null","lat":"35.826651","lng":"128.741564","zcode":"47","zscode":"47290"},{"statNm":"경산생활체육공원","statId":"ME18C134","addr":"경상북도 경산시 남매로 100？","location":"null","lat":"35.821847","lng":"128.745073","zcode":"47","zscode":"47290"},{"statNm":"경산휴게소(서울방향)","statId":"ME18C135","addr":"경상북도 경산시 대학로 1089","location":"null","lat":"35.878925","lng":"128.809573","zcode":"47","zscode":"47290"},{"statNm":"평사휴게소(부산방향)","statId":"ME18C136","addr":"경상북도 경산시 진량읍 평사리 195","location":"null","lat":"35.886","lng":"128.869","zcode":"47","zscode":"47290"},{"statNm":"건천휴게소(부산방향)","statId":"ME18C137","addr":"경상북도 경주시 건천읍 경부고속도로 77","location":"null","lat":"35.830508","lng":"129.110383","zcode":"47","zscode":"47130"},{"statNm":"건천휴게소(서울방향)","statId":"ME18C138","addr":"경상북도 경주시 건천읍 경부고속도로 76","location":"null","lat":"35.831841","lng":"129.108664","zcode":"47","zscode":"47130"},{"statNm":"강동면사무소","statId":"ME18C139","addr":"경상북도 경주시 강동면 강동로 19","location":"null","lat":"35.987491","lng":"129.273411","zcode":"47","zscode":"47130"},{"statNm":"양북면사무소","statId":"ME18C140","addr":"경상북도 경주시 양북면 어일중앙길 24","location":"null","lat":"35.791161","lng":"129.443089","zcode":"47","zscode":"47130"},{"statNm":"천북면사무소","statId":"ME18C141","addr":"경상북도 경주시 천북면 동산리 506-1","location":"null","lat":"35.894915","lng":"129.270975","zcode":"47","zscode":"47130"},{"statNm":"서면사무소","statId":"ME18C142","addr":"경상북도 경주시 서면 내서로 458","location":"null","lat":"35.891525","lng":"129.052762","zcode":"47","zscode":"47130"},{"statNm":"고령소방서","statId":"ME18C143","addr":"경상북도 고령군 대가야읍 벽화길 18","location":"null","lat":"35.723842","lng":"128.268963","zcode":"47","zscode":"47830"},{"statNm":"성산면사무소","statId":"ME18C144","addr":"경상북도 고령군 성산면 성산로 897","location":"null","lat":"35.749882","lng":"128.359918","zcode":"47","zscode":"47830"},{"statNm":"쌍림면사무소","statId":"ME18C145","addr":"경상북도 고령군 쌍림면 대가야로 613","location":"null","lat":"35.679789","lng":"128.242000","zcode":"47","zscode":"47830"},{"statNm":"선산휴게소(마산방향)","statId":"ME18C146","addr":"경상북도 구미시 옥성면 중부내륙고속도로 129","location":"null","lat":"36.274914","lng":"128.249639","zcode":"47","zscode":"47190"},{"statNm":"삼국유사 가온누리","statId":"ME18C147","addr":"경상북도 군위군 의흥면 이지리 882","location":"null","lat":"36.158508","lng":"128.696930","zcode":"47","zscode":"47720"},{"statNm":"천마체육광장","statId":"ME18C148","addr":"경상북도 문경시 영순면 의곡리 101-1","location":"null","lat":"36.579919","lng":"128.235889","zcode":"47","zscode":"47280"},{"statNm":"화서휴게소(상주방향)","statId":"ME18C149","addr":"경상북도 상주시 화서면 터골길 51-25","location":"null","lat":"36.444064","lng":"127.922637","zcode":"47","zscode":"47250"},{"statNm":"성주경찰서민원실주차장","statId":"ME18C150","addr":"경상북도 성주군 성주읍 성주순환로251","location":"null","lat":"35.920800","lng":"128.292372","zcode":"47","zscode":"47840"},{"statNm":"남성주휴게소(양평방향)","statId":"ME18C151","addr":"경상북도 성주군 대가면 중부내륙고속도로 76","location":"null","lat":"35.858450","lng":"128.319708","zcode":"47","zscode":"47840"},{"statNm":"안동휴게소(부산방향)","statId":"ME18C152","addr":"경상북도 안동시 풍산읍 풍산태사로 1903-27","location":"null","lat":"36.552999","lng":"128.641889","zcode":"47","zscode":"47170"},{"statNm":"안동휴게소(춘천방향)","statId":"ME18C153","addr":"경상북도 안동시 풍산읍 풍산태사로 1913-40","location":"null","lat":"36.553703","lng":"128.645178","zcode":"47","zscode":"47170"},{"statNm":"병곡면사무소","statId":"ME18C154","addr":"경상북도 영덕군 병곡면 병곡길 72","location":"null","lat":"36.602281","lng":"129.410481","zcode":"47","zscode":"47770"},{"statNm":"축산면사무소","statId":"ME18C155","addr":"경상북도 영덕군 축산면 도곡길 67","location":"null","lat":"36.508879","lng":"129.414213","zcode":"47","zscode":"47770"},{"statNm":"소백산 초암주차장","statId":"ME18C156","addr":"경상북도 영주시 순흥면 배점리 501-1","location":"null","lat":"36.941944","lng":"128.529722","zcode":"47","zscode":"47210"},{"statNm":"고경면사무소","statId":"ME18C157","addr":"경상북도 영천시 고경면 호국로 1065-25","location":"null","lat":"36.001389","lng":"129.045833","zcode":"47","zscode":"47230"},{"statNm":"영천시민회관","statId":"ME18C158","addr":"경상북도 영천시 시청로 17？","location":"null","lat":"35.972364","lng":"128.937549","zcode":"47","zscode":"47230"},{"statNm":"서부동사무소","statId":"ME18C159","addr":"경상북도 영천시 장수로 19","location":"null","lat":"35.963713","lng":"128.921052","zcode":"47","zscode":"47230"},{"statNm":"영천휴게소(포항방향)","statId":"ME18C160","addr":"경상북도 영천시 임고면 운주로 777","location":"null","lat":"36.051146","lng":"129.043915","zcode":"47","zscode":"47230"},{"statNm":"칠곡국민체육센터","statId":"ME18C161","addr":"경상북도 칠곡군 왜관읍 석전로7길 58","location":"null","lat":"36.007286","lng":"128.408897","zcode":"47","zscode":"47850"},{"statNm":"동명휴게소(부산방향)","statId":"ME18C162","addr":"경상북도 칠곡군 동명면 중앙고속도로 123","location":"null","lat":"36.005973","lng":"128.547172","zcode":"47","zscode":"47850"},{"statNm":"포항대학교","statId":"ME18C163","addr":"경상북도 포항시 북구 흥해읍 신덕로 60","location":"null","lat":"36.084224","lng":"129.409291","zcode":"47","zscode":"47110"},{"statNm":"서라벌 문화회관","statId":"ME18C164","addr":"경상북도 경주시 금성로 236","location":"null","lat":"35.838289","lng":"129.207408","zcode":"47","zscode":"47130"},{"statNm":"국민체육센터","statId":"ME18C165","addr":"경상북도 경주시 유림로 5번길 85-15호","location":"null","lat":"35.878887","lng":"129.216949","zcode":"47","zscode":"47130"},{"statNm":"고아읍사무소","statId":"ME18C166","addr":"경상북도 구미시 고아읍 관심리 621-1","location":"null","lat":"36.210507","lng":"128.328625","zcode":"47","zscode":"47190"},{"statNm":"인동도서관","statId":"ME18C167","addr":"경상북도 구미시 인동14길 14","location":"null","lat":"36.099077","lng":"128.423884","zcode":"47","zscode":"47190"},{"statNm":"구미시립봉곡도서관","statId":"ME18C168","addr":"경상북도 구미시 봉곡로 15길 54","location":"null","lat":"36.153536","lng":"128.307962","zcode":"47","zscode":"47190"},{"statNm":"수륜면사무소","statId":"ME18C169","addr":"경상북도 성주군 수륜면 참별로 915","location":"null","lat":"35.832567","lng":"128.192370","zcode":"47","zscode":"47840"},{"statNm":"모전공원 1주차장","statId":"ME18C201","addr":"경상북도 문경시 모전동 30-2","location":"null","lat":"36.588960","lng":"128.186880","zcode":"47","zscode":"47280"},{"statNm":"경북도청사 (지상주차장)","statId":"ME18C221","addr":"경상북도 안동시 풍천면 도청대로 455","location":"null","lat":"36.576139","lng":"128.508389","zcode":"47","zscode":"47170"},{"statNm":"황성공원 주차장","statId":"ME18C222","addr":"경상북도 경주시 황성동 435-4","location":"null","lat":"35.863698","lng":"129.211949","zcode":"47","zscode":"47130"},{"statNm":"화물자동차 공영차고지(차량등록사업소)","statId":"ME18C223","addr":"경상북도 경주시 천북면 신당리 150-1번지 일원","location":"null","lat":"35.897245","lng":"129.250773","zcode":"47","zscode":"47130"},{"statNm":"안강운동장","statId":"ME18C224","addr":"경상북도 경주시 안강읍 구부랑두림길 59-14","location":"null","lat":"36.003878","lng":"129.192738","zcode":"47","zscode":"47130"},{"statNm":"고령군농업기술센터","statId":"ME18C225","addr":"경상북도 고령군 대가야읍 일량본길 137","location":"null","lat":"35.696705","lng":"128.281509","zcode":"47","zscode":"47830"},{"statNm":"가야국역사루트 주차장","statId":"ME18C226","addr":"경상북도 고령군 대가야읍 고아리 517-12","location":"null","lat":"35.714415","lng":"128.268658","zcode":"47","zscode":"47830"},{"statNm":"고령경찰서 주차장","statId":"ME18C227","addr":"경상북도 고령군 대가야읍 대가야로 1411","location":"null","lat":"35.734751","lng":"128.272526","zcode":"47","zscode":"47830"},{"statNm":"광평천 제2공영주차장","statId":"ME18C228","addr":"경상북도 구미시 송정동 505","location":"null","lat":"36.115964","lng":"128.349710","zcode":"47","zscode":"47190"},{"statNm":"군위휴게소(춘천방향)","statId":"ME18C229","addr":"경상북도 군위군 군위읍 경북대로 4082","location":"null","lat":"36.264836","lng":"128.576084","zcode":"47","zscode":"47720"},{"statNm":"군위국민체육센터 주차장","statId":"ME18C230","addr":"경상북도 군위군 군위읍 군청로 158","location":"null","lat":"36.237","lng":"128.573","zcode":"47","zscode":"47720"},{"statNm":"직지 공영주차장","statId":"ME18C231","addr":"경상북도 김천시 대항면 향천리 356-5","location":"null","lat":"36.117150","lng":"128.018110","zcode":"47","zscode":"47150"},{"statNm":"종합스포츠타운","statId":"ME18C232","addr":"경상북도 김천시 운동장길 1","location":"null","lat":"36.140","lng":"128.089","zcode":"47","zscode":"47150"},{"statNm":"한국수목원관리원 국립백두대간수목원","statId":"ME18C233","addr":"경상북도 봉화군 봉화군 춘양면 서벽리 485","location":"null","lat":"37.009444","lng":"128.829722","zcode":"47","zscode":"47920"},{"statNm":"청리면 복지회관","statId":"ME18C234","addr":"경상북도 상주시 청리면 원장1길 10","location":"null","lat":"36.338609","lng":"128.129556","zcode":"47","zscode":"47250"},{"statNm":"동성동행정복지센터","statId":"ME18C235","addr":"경상북도 상주시 성동새싹길 42","location":"null","lat":"36.415308","lng":"128.169628","zcode":"47","zscode":"47250"},{"statNm":"장사해수욕장 주차장","statId":"ME18C236","addr":"경상북도 영덕군 남정면 장사리 74-1","location":"null","lat":"36.282014","lng":"129.375015","zcode":"47","zscode":"47770"},{"statNm":"경상북도개발공사 주차장","statId":"ME18C237","addr":"경상북도 예천군 호명면 행복로 35","location":"null","lat":"36.577946","lng":"128.467778","zcode":"47","zscode":"47900"},{"statNm":"예천군청(신청사)","statId":"ME18C238","addr":"경상북도 예천군 예천읍 충효로 111","location":"null","lat":"36.648","lng":"128.438","zcode":"47","zscode":"47900"},{"statNm":"예천군문화체육센터 양궁장 주차장","statId":"ME18C239","addr":"경상북도 예천군 예천읍 양궁장길 38","location":"null","lat":"36.634","lng":"128.47","zcode":"47","zscode":"47900"},{"statNm":"울진군청","statId":"ME18C240","addr":"경상북도 울진군 울진읍 울진중앙로 121","location":"null","lat":"36.992521","lng":"129.400825","zcode":"47","zscode":"47930"},{"statNm":"왕피천유역 생태탐방안내소","statId":"ME18C241","addr":"경상북도 울진군 금강송면 불영계곡로 1710","location":"null","lat":"36.935151","lng":"129.249298","zcode":"47","zscode":"47930"},{"statNm":"봉평신라비전시관","statId":"ME18C242","addr":"경상북도 울진군 죽변면 봉화길 15","location":"null","lat":"37.044732","lng":"129.408902","zcode":"47","zscode":"47930"},{"statNm":"의성종합운동장","statId":"ME18C243","addr":"경상북도 의성군 의성읍 충효로 88","location":"null","lat":"36.356839","lng":"128.701283","zcode":"47","zscode":"47730"},{"statNm":"달기약수탕 공영주차장","statId":"ME18C244","addr":"경상북도 청송군 청송읍 부곡리 271","location":"null","lat":"36.439841","lng":"129.080424","zcode":"47","zscode":"47750"},{"statNm":"해병대1사단면회소","statId":"ME18C245","addr":"경상북도 포항시 남구 오천읍 용덕리 2-15","location":"null","lat":"35.976387","lng":"129.417496","zcode":"47","zscode":"47110"},{"statNm":"포항공과대학교","statId":"ME18C246","addr":"경상북도 포항시 남구 지곡동 166-29","location":"null","lat":"36.01438","lng":"129.32513","zcode":"47","zscode":"47110"},{"statNm":"포항중앙교회","statId":"ME18C247","addr":"경상북도 포항시 북구 대해로 27","location":"null","lat":"36.025716","lng":"129.35737","zcode":"47","zscode":"47110"},{"statNm":"포항실내사격장","statId":"ME18C248","addr":"경상북도 포항시 북구 용흥동 4-9","location":"null","lat":"36.045917","lng":"129.358665","zcode":"47","zscode":"47110"},{"statNm":"평생학습관 주차장","statId":"ME18C249","addr":"경상북도 경주시 북성로 87","location":"null","lat":"35.847376","lng":"129.211979","zcode":"47","zscode":"47130"},{"statNm":"대가면 보건지소","statId":"ME18C250","addr":"경상북도 성주군 대가면 참별로 2257","location":"null","lat":"35.909795","lng":"128.229516","zcode":"47","zscode":"47840"},{"statNm":"삼국유사 군위휴게소(서울방향)","statId":"ME18C251","addr":"경상북도 군위군 부계면 치산효령로 989-23","location":"null","lat":"36.079040","lng":"128.697565","zcode":"47","zscode":"47720"},{"statNm":"남부경찰서","statId":"ME18C252","addr":"경상북도 포항시 연일로 55","location":"null","lat":"36.008888","lng":"129.34584","zcode":"47","zscode":"47110"},{"statNm":"환호3공영주차장","statId":"ME18C253","addr":"경상북도 포항시 북구 환호동 365","location":"null","lat":"36.067331","lng":"129.389726","zcode":"47","zscode":"47110"},{"statNm":"(재)문화엑스포","statId":"ME18C304","addr":"null","location":"null","lat":"35.832188","lng":"129.289609","zcode":"47","zscode":"47130"},{"statNm":"구미시청","statId":"ME18C305","addr":"경상북도 구미시 송정대로 55","location":"null","lat":"36.119428","lng":"128.342939","zcode":"47","zscode":"47190"},{"statNm":"문경새재도립공원 제1주차장","statId":"ME18C401","addr":"경상북도 문경시 문경읍 상초리 517-2","location":"null","lat":"36.759164","lng":"128.076845","zcode":"47","zscode":"47280"},{"statNm":"상주시한방산업단지관리사업소","statId":"ME18C402","addr":"경상북도 상주시 은척면 성주봉로 91","location":"null","lat":"36.537478","lng":"128.040842","zcode":"47","zscode":"47250"},{"statNm":"포항 해병 청림관사 (청림대)","statId":"ME18C403","addr":"경상북도 포항시 남구 동해안로 6001","location":"null","lat":"35.994167","lng":"129.409164","zcode":"47","zscode":"47110"},{"statNm":"동국대학교 경주캠퍼스","statId":"ME18C404","addr":"경상북도 경주시 동대로 123","location":"null","lat":"35.861668","lng":"129.19722","zcode":"47","zscode":"47130"},{"statNm":"포항종합경기장","statId":"ME18C407","addr":"경상북도 포항시 남구 희망대로 810","location":"null","lat":"36.009181","lng":"129.360388","zcode":"47","zscode":"47110"},{"statNm":"용흥공영주차장","statId":"ME18C408","addr":"경상북도 포항시 북구 용흥동 산 24-3","location":"null","lat":"36.046982","lng":"129.340513","zcode":"47","zscode":"47110"},{"statNm":"문화누리관","statId":"ME190432","addr":"경상북도 고령군 대가야읍 왕릉로 30","location":"null","lat":"35.7242002","lng":"128.2630355","zcode":"47","zscode":"47830"},{"statNm":"다산면 행정복합타운","statId":"ME190433","addr":"경상북도 고령군 다산면 다산로 681","location":"null","lat":"35.8219087","lng":"128.4272761","zcode":"47","zscode":"47830"},{"statNm":"영덕군청","statId":"ME190434","addr":"경상북도 영덕군 영덕읍 군청길 116","location":"null","lat":"36.414722","lng":"129.366367","zcode":"47","zscode":"47770"},{"statNm":"영천시청","statId":"ME190435","addr":"경상북도 영천시 시청로 16","location":"null","lat":"35.9732063","lng":"128.9386614","zcode":"47","zscode":"47230"},{"statNm":"금호읍사무소","statId":"ME190436","addr":"경상북도 영천시 금호읍 금호로 153","location":"null","lat":"35.9331099","lng":"128.8775713","zcode":"47","zscode":"47230"},{"statNm":"안계면사무소","statId":"ME190437","addr":"경상북도 의성군 안계면 안계길 114","location":"null","lat":"36.3839638","lng":"128.4401794","zcode":"47","zscode":"47730"},{"statNm":"봉양면사무소","statId":"ME190438","addr":"경상북도 의성군 봉양면 도리원3길 31","location":"null","lat":"36.300627","lng":"128.5762558","zcode":"47","zscode":"47730"},{"statNm":"호미곶해맞이광장","statId":"ME190439","addr":"경상북도 포항시 남구 호미곶면 해맞이로 136","location":"null","lat":"36.0764050","lng":"129.5672781","zcode":"47","zscode":"47110"},{"statNm":"오천읍복지회관","statId":"ME190440","addr":"경상북도 포항시 남구 오천읍 냉천로 320번길 4-11","location":"null","lat":"35.9668240","lng":"129.4087050","zcode":"47","zscode":"47110"},{"statNm":"포항시농산물도매시장","statId":"ME190441","addr":"경상북도 포항시 북구 흥해읍 동해대로 1182","location":"null","lat":"36.0810106","lng":"129.3361003","zcode":"47","zscode":"47110"},{"statNm":"죽장면사무소","statId":"ME190442","addr":"경상북도 포항시 북구 죽장면 새마을로 3610","location":"null","lat":"36.1599011","lng":"129.0952310","zcode":"47","zscode":"47110"},{"statNm":"효자아트홀주차장","statId":"ME19C120","addr":"경상북도 포항시 남구 대잠동 780-196","location":"null","lat":"36.012639","lng":"129.332250","zcode":"47","zscode":"47110"},{"statNm":"오류고아라해변 주차장","statId":"ME19C127","addr":"경상북도 경주시 현곡면 오류리 277-9","location":"null","lat":"35.821889","lng":"129.508611","zcode":"47","zscode":"47130"},{"statNm":"감포읍 공설시장 주차장","statId":"ME19C128","addr":"경상북도 경주시 감포읍 감포리 441","location":"null","lat":"35.803611","lng":"129.501833","zcode":"47","zscode":"47130"},{"statNm":"옥계2택지개발지구 주차장","statId":"ME19C129","addr":"경상북도 구미시 거의동 612-4","location":"null","lat":"36.137500","lng":"128.412250","zcode":"47","zscode":"47190"},{"statNm":"소보면사무소 주차장","statId":"ME19C130","addr":"경상북도 군위군 소보면 송원리 615-3","location":"null","lat":"36.255139","lng":"128.475417","zcode":"47","zscode":"47720"},{"statNm":"시립도서관 주차장","statId":"ME19C132","addr":"경상북도 김천시 평화동 374-1","location":"null","lat":"36.123889","lng":"128.109667","zcode":"47","zscode":"47150"},{"statNm":"벽진면사무소","statId":"ME19C133","addr":"경상북도 성주군 벽진면 수촌리 810","location":"null","lat":"35.948333","lng":"128.216694","zcode":"47","zscode":"47840"},{"statNm":"금수면보건지소","statId":"ME19C134","addr":"경상북도 성주군 금수면 광산리 105-6","location":"null","lat":"35.918278","lng":"128.177278","zcode":"47","zscode":"47840"},{"statNm":"가천면사무소","statId":"ME19C135","addr":"경상북도 성주군 가천면 창천리 513-1","location":"null","lat":"35.884111","lng":"128.166278","zcode":"47","zscode":"47840"},{"statNm":"영천시립도서관 부설주차장","statId":"ME19C137","addr":"경상북도 영천시 문외동 245-3","location":"null","lat":"35.975833","lng":"128.932889","zcode":"47","zscode":"47230"},{"statNm":"영해보건지소","statId":"ME19C138","addr":"경상북도 영덕군 영해면 성내리 497","location":"null","lat":"36.541556","lng":"129.405333","zcode":"47","zscode":"47770"},{"statNm":"호미곶해맞이 광장 주차장","statId":"ME19C139","addr":"경상북도 포항시 남구 호미곶면 대보리 292-5","location":"null","lat":"36.076333","lng":"129.566333","zcode":"47","zscode":"47110"},{"statNm":"웰빙아울렛주차장","statId":"ME19C142","addr":"경상북도 포항시 남구 대잠동 780-78","location":"null","lat":"36.011167","lng":"129.335917","zcode":"47","zscode":"47110"},{"statNm":"진보생활체육공원","statId":"ME19C154","addr":"경상북도 청송군 진보면 각산리 622-6","location":"null","lat":"36.532167","lng":"129.051556","zcode":"47","zscode":"47750"},{"statNm":"선남면사무소","statId":"ME19C164","addr":"경상북도 성주군 선남면 관화리 658-1","location":"null","lat":"35.900750","lng":"128.351972","zcode":"47","zscode":"47840"},{"statNm":"한국산림복지진흥원 국립산림치유원","statId":"ME19C168","addr":"경상북도 영주시 봉현면 두산리 1384","location":"null","lat":"36.860417","lng":"128.477639","zcode":"47","zscode":"47210"},{"statNm":"포항수협죽도위판장공영주차장","statId":"ME19C169","addr":"경상북도 포항시 북구 죽도동 557-7","location":"null","lat":"36.036389","lng":"129.369417","zcode":"47","zscode":"47110"},{"statNm":"금오공과대학교","statId":"ME19C201","addr":"경상북도 구미시 거의동 468","location":"null","lat":"36.145139","lng":"128.393028","zcode":"47","zscode":"47190"},{"statNm":"한국수력원자력(본사)","statId":"ME19C209","addr":"경상북도 경주시 양북면 장항리 1274","location":"null","lat":"35.792278","lng":"129.391000","zcode":"47","zscode":"47130"},{"statNm":"용장공용주차장","statId":"ME19C210","addr":"경상북도 경주시 내남면 용장리 428-6","location":"null","lat":"35.776139","lng":"129.205056","zcode":"47","zscode":"47130"},{"statNm":"대가야박물관(주차장 내)","statId":"ME19C211","addr":"경상북도 고령군 대가야읍 지산리 465-18","location":"null","lat":"35.722139","lng":"128.258111","zcode":"47","zscode":"47830"},{"statNm":"운수면사무소(주차장 내)","statId":"ME19C212","addr":"경상북도 고령군 운수면 봉평리 601-1","location":"null","lat":"35.769083","lng":"128.290750","zcode":"47","zscode":"47830"},{"statNm":"구미시승마장","statId":"ME19C213","addr":"경상북도 구미시 옥성면 옥관리 14-5","location":"null","lat":"36.324833","lng":"128.277167","zcode":"47","zscode":"47190"},{"statNm":"김천시농업기술센터 주차장","statId":"ME19C214","addr":"경상북도 김천시 구성면 하강리 20","location":"null","lat":"36.081194","lng":"128.101389","zcode":"47","zscode":"47150"},{"statNm":"문경약돌한우타운 주차장","statId":"ME19C215","addr":"경상북도 문경시 문경읍 진안리 350-5","location":"null","lat":"36.741444","lng":"128.082972","zcode":"47","zscode":"47280"},{"statNm":"청량산도립공원 주차장","statId":"ME19C216","addr":"경상북도 봉화군 명호면 관창리 1729","location":"null","lat":"36.787306","lng":"128.893222","zcode":"47","zscode":"47920"},{"statNm":"봉화군 신시장 주차장","statId":"ME19C217","addr":"경상북도 봉화군 봉화읍 내성리 396-20","location":"null","lat":"36.889417","lng":"128.735","zcode":"47","zscode":"47920"},{"statNm":"성주도서관","statId":"ME19C218","addr":"경상북도 성주군 성주읍 예산리 612","location":"null","lat":"35.927833","lng":"128.284056","zcode":"47","zscode":"47840"},{"statNm":"국립청소년해양센터","statId":"ME19C219","addr":"경상북도 영덕군 영덕읍 창포리 산 42","location":"null","lat":"36.420611","lng":"129.425000","zcode":"47","zscode":"47770"},{"statNm":"근남면사무소","statId":"ME19C220","addr":"경상북도 울진군 근남면 노음리 331-1","location":"null","lat":"36.962556","lng":"129.394583","zcode":"47","zscode":"47930"},{"statNm":"현서면체육공원","statId":"ME19C221","addr":"경상북도 청송군 현서면 구산리 45-3","location":"null","lat":"36.2765","lng":"128.89625","zcode":"47","zscode":"47750"},{"statNm":"석적읍사무소","statId":"ME19C222","addr":"경상북도 칠곡군 석적읍 남율리 895","location":"null","lat":"36.066056","lng":"128.401056","zcode":"47","zscode":"47850"},{"statNm":"시설관리사업소","statId":"ME19C223","addr":"경상북도 칠곡군 석적읍 중지리 342-3","location":"null","lat":"36.019750","lng":"128.402917","zcode":"47","zscode":"47850"},{"statNm":"지곡 공영주차장","statId":"ME19C224","addr":"경상북도 포항시 남구 지곡동 964-12","location":"null","lat":"36.033556","lng":"129.314111","zcode":"47","zscode":"47110"},{"statNm":"영일대 연못주차장","statId":"ME19C225","addr":"경상북도 포항시 남구 대잠동 780-230","location":"null","lat":"36.014917","lng":"129.335167","zcode":"47","zscode":"47110"},{"statNm":"청림 문화복지회관","statId":"ME19C226","addr":"경상북도 포항시 남구 청림동 517-1","location":"null","lat":"35.997861","lng":"129.406611","zcode":"47","zscode":"47110"},{"statNm":"시립민속박물관","statId":"ME19C269","addr":"경상북도 안동시 성곡동 781","location":"null","lat":"36.579439","lng":"128.765685","zcode":"47","zscode":"47170"},{"statNm":"일직면행정복지센터","statId":"ME19C270","addr":"경상북도 안동시 일직면 운산리 97-4","location":"null","lat":"36.474417","lng":"128.659917","zcode":"47","zscode":"47170"},{"statNm":"임동면행정복지센터","statId":"ME19C271","addr":"경상북도 안동시 임동면 중평리 840","location":"null","lat":"36.568806","lng":"128.918056","zcode":"47","zscode":"47170"},{"statNm":"도산면행정복지센터","statId":"ME19C272","addr":"경상북도 안동시 도산면 퇴계로 2547","location":"null","lat":"36.741472","lng":"128.833472","zcode":"47","zscode":"47170"},{"statNm":"동북지방통계청 구미사무소","statId":"ME19C273","addr":"경상북도 구미시 봉곡동 419 ","location":"null","lat":"36.146889","lng":"128.311444","zcode":"47","zscode":"47190"},{"statNm":"청소년수련관 주차장","statId":"ME19C274","addr":"경상북도 예천군 예천읍 동본리 434-1","location":"null","lat":"36.656833","lng":"128.463583","zcode":"47","zscode":"47900"},{"statNm":"풍천면행정복지센터","statId":"ME19C277","addr":"경상북도 안동시 풍천면 갈전리 555","location":"null","lat":"36.555944","lng":"128.506472","zcode":"47","zscode":"47170"},{"statNm":"남후면행정복지센터","statId":"ME19C278","addr":"경상북도 안동시 남후면 무릉리 363-1","location":"null","lat":"36.523222","lng":"128.690167","zcode":"47","zscode":"47170"},{"statNm":"남선면행정복지센터","statId":"ME19C279","addr":"경상북도 안동시 남선면 구미리 126-1","location":"null","lat":"36.526056","lng":"128.769528","zcode":"47","zscode":"47170"},{"statNm":"녹전면행정복지센터","statId":"ME19C280","addr":"경상북도 안동시 녹전면 신평리 716","location":"null","lat":"36.742611","lng":"128.773917","zcode":"47","zscode":"47170"},{"statNm":"풍산읍행정복지센터","statId":"ME19C281","addr":"경상북도 안동시 풍산읍 안교리 122-4","location":"null","lat":"36.579861","lng":"128.571944","zcode":"47","zscode":"47170"},{"statNm":"파천면사무소","statId":"ME19C282","addr":"경상북도 청송군 파천면 청송로5544","location":"null","lat":"36.463056","lng":"129.037667","zcode":"47","zscode":"47750"},{"statNm":"부남면사무소","statId":"ME19C284","addr":"경상북도 청송군 부남면 대전리 638-2","location":"null","lat":"36.344694","lng":"129.063750","zcode":"47","zscode":"47750"},{"statNm":"현동면사무소","statId":"ME19C285","addr":"경상북도 청송군 현동면 도평리 793","location":"null","lat":"36.290528","lng":"129.016944","zcode":"47","zscode":"47750"},{"statNm":"봉화군 농업기술센터","statId":"ME19C286","addr":"경상북도 봉화군 봉성면 금봉리 906","location":"null","lat":"36.903611","lng":"128.772611","zcode":"47","zscode":"47920"},{"statNm":"봉화한약우프라자,로컬푸드","statId":"ME19C287","addr":"경상북도 봉화군 봉성면 금봉리 916","location":"null","lat":"36.901220","lng":"128.771797","zcode":"47","zscode":"47920"},{"statNm":"영주2동행정복지센터","statId":"ME19C288","addr":"경상북도 영주시 가흥동 3-19","location":"null","lat":"36.820639","lng":"128.618750","zcode":"47","zscode":"47210"},{"statNm":"군위군 종합운동장","statId":"ME19C289","addr":"경상북도 군위군 군위읍 내량리 10","location":"null","lat":"36.2465","lng":"128.55675","zcode":"47","zscode":"47720"},{"statNm":"칠곡군보건소","statId":"ME19C301","addr":"경상북도 칠곡군 왜관읍 석전리 254","location":"null","lat":"35.990472","lng":"128.416694","zcode":"47","zscode":"47850"},{"statNm":"구미칠곡축협","statId":"ME19C402","addr":"경상북도 구미시 선기동 458-1","location":"null","lat":"36.139000","lng":"128.311361","zcode":"47","zscode":"47190"},{"statNm":"한국전력기술","statId":"ME19C407","addr":"경상북도 김천시 혁신로 269","location":"null","lat":"36.124446","lng":"128.176487","zcode":"47","zscode":"47150"},{"statNm":"안동휴게소(부산방향)","statId":"ME19D102","addr":"경상북도 안동시 풍산읍 풍산태사로 1903-27","location":"null","lat":"36.55248791","lng":"128.64213245","zcode":"47","zscode":"47170"},{"statNm":"청도새마을휴게소(부산) 하행","statId":"ME19D106","addr":"경상북도 청도군 청도읍 하지길 59-49","location":"null","lat":"35.5947225","lng":"128.7671389","zcode":"47","zscode":"47820"},{"statNm":"문흥졸음쉼터","statId":"ME19D113","addr":"경상북도 의성군 봉양면 문흥리 산83-2","location":"null","lat":"36.31757326","lng":"128.62265674","zcode":"47","zscode":"47730"},{"statNm":"장군졸음쉼터","statId":"ME19D114","addr":"경상북도 군위군 효령면 장군리 1071-68","location":"null","lat":"36.13611137","lng":"128.58024202","zcode":"47","zscode":"47720"},{"statNm":"마성졸음쉼터상행","statId":"ME19D115","addr":"경상북도 문경시 마성면 신현리 231-8","location":"null","lat":"36.67040208","lng":"128.12650376","zcode":"47","zscode":"47280"},{"statNm":"마성졸음쉼터하행","statId":"ME19D116","addr":"경상북도 문경시 마성면 신현리 233-1","location":"null","lat":"36.67059408","lng":"128.12573474","zcode":"47","zscode":"47280"},{"statNm":"보현산천문과학관","statId":"ME19D122","addr":"경상북도 영천시 화북면 별빛로 681-32","location":"null","lat":"36.13996635","lng":"128.99714883","zcode":"47","zscode":"47230"},{"statNm":"장기면사무소","statId":"ME19D123","addr":"경상북도 포항시 남구 장기면 읍내길 99","location":"null","lat":"35.89575597","lng":"129.49290688","zcode":"47","zscode":"47110"},{"statNm":"종합스포츠센터 주차장","statId":"ME19D124","addr":"경상북도 영천시 운동장로 94","location":"null","lat":"35.97055135","lng":"128.92358865","zcode":"47","zscode":"47230"},{"statNm":"망양휴게소","statId":"ME19D202","addr":"경상북도 울진군 매화면 망양북로 30","location":"null","lat":"36.87299782","lng":"129.42008578","zcode":"47","zscode":"47930"},{"statNm":"안포졸음쉼터","statId":"ME19D209","addr":"경상북도 성주군 월항면 안포리 8-1","location":"null","lat":"35.95149909","lng":"128.31975115","zcode":"47","zscode":"47840"},{"statNm":"제1정문 면회실 주차장","statId":"ME19D217","addr":"경상북도 예천군 유천면 연천리 62-3","location":"null","lat":"36.62598444","lng":"128.35756814","zcode":"47","zscode":"47900"},{"statNm":"신녕면행정복지센터","statId":"ME19D226","addr":"경상북도 영천시 신녕면 화성중앙길 30","location":"null","lat":"36.04515138","lng":"128.78934431","zcode":"47","zscode":"47230"},{"statNm":"양포보건진료소","statId":"ME19D227","addr":"경상북도 포항시 장기면 양포항길12","location":"null","lat":"35.87787919","lng":"129.51747092","zcode":"47","zscode":"47110"},{"statNm":"유배문화체험관","statId":"ME19D228","addr":"경상북도 포항시 장기면 장기로 452","location":"null","lat":"35.90276107","lng":"129.48606697","zcode":"47","zscode":"47110"},{"statNm":"월성원자력본부 홍보관 주차장","statId":"ME19E133","addr":"경상북도 경주시 양남면 나아리 965","location":"null","lat":"35.702154","lng":"129.470112","zcode":"47","zscode":"47130"},{"statNm":"우곡면사무소(주차장 내)","statId":"ME19E134","addr":"경상북도 고령군 우곡면 도진리 199","location":"null","lat":"35.677843","lng":"128.341844","zcode":"47","zscode":"47830"},{"statNm":"고령2일반산업단지 주차장","statId":"ME19E135","addr":"경상북도 고령군 다산면 송곡리 1819","location":"null","lat":"35.791339","lng":"128.380264","zcode":"47","zscode":"47830"},{"statNm":"구미에코랜드","statId":"ME19E136","addr":"경상북도 구미시 산동면 인덕리 260-1","location":"null","lat":"36.170561","lng":"128.465771","zcode":"47","zscode":"47190"},{"statNm":"해마루공원 관리사무소","statId":"ME19E137","addr":"경상북도 구미시 옥계동 941","location":"null","lat":"36.143332","lng":"128.439368","zcode":"47","zscode":"47190"},{"statNm":"우보면사무소 주차장","statId":"ME19E138","addr":"경상북도 군위군 우보면 이화리 1196-7","location":"null","lat":"36.194544","lng":"128.661596","zcode":"47","zscode":"47720"},{"statNm":"장곡휴양림 주차장","statId":"ME19E139","addr":"경상북도 군위군 고로면 장곡리 37","location":"null","lat":"36.131691","lng":"128.836069","zcode":"47","zscode":"47720"},{"statNm":"자산동 주민센터","statId":"ME19E140","addr":"경상북도 김천시 모암동 187-11","location":"null","lat":"36.12004","lng":"128.127592","zcode":"47","zscode":"47150"},{"statNm":"대신동 주민센터(주차면수:1개)","statId":"ME19E141","addr":"경상북도 김천시 신음동 1015-2","location":"null","lat":"36.135627","lng":"128.11625","zcode":"47","zscode":"47150"},{"statNm":"지례면 주민공동이용시설 주차장","statId":"ME19E142","addr":"경상북도 김천시 지례면 교리 565-3","location":"null","lat":"35.984887","lng":"128.027551","zcode":"47","zscode":"47150"},{"statNm":"대곡동 주민센터(주차면수:1개)","statId":"ME19E143","addr":"경상북도 김천시 부곡동 1330","location":"null","lat":"36.124366","lng":"128.089481","zcode":"47","zscode":"47150"},{"statNm":"월항주차공원","statId":"ME19E144","addr":"경상북도 성주군 월항면 안포리 167-2","location":"null","lat":"35.943","lng":"128.314501","zcode":"47","zscode":"47840"},{"statNm":"용암면사무소","statId":"ME19E145","addr":"경상북도 성주군 용암면 용정리 302-1","location":"null","lat":"35.835964","lng":"128.337026","zcode":"47","zscode":"47840"},{"statNm":"가야산생태탐방원","statId":"ME19E146","addr":"경상북도 성주군 수륜면 봉양리 1241-2","location":"null","lat":"35.834445","lng":"128.153308","zcode":"47","zscode":"47840"},{"statNm":"영덕 읍사무소 공공주차장","statId":"ME19E147","addr":"경상북도 영덕군 영덕읍 우곡리 523","location":"null","lat":"36.408402","lng":"129.373193","zcode":"47","zscode":"47770"},{"statNm":"영양군생태공원사업소","statId":"ME19E148","addr":"경상북도 영양군 수비면 수하리 240","location":"null","lat":"36.83755","lng":"129.271131","zcode":"47","zscode":"47760"},{"statNm":"석보면지역활성화센터","statId":"ME19E149","addr":"경상북도 영양군 석보면 원리리 478","location":"null","lat":"36.558397","lng":"129.122115","zcode":"47","zscode":"47760"},{"statNm":"예천곤충생태원 주차장","statId":"ME19E150","addr":"경상북도 예천군 효자면 고항리 585","location":"null","lat":"36.825951","lng":"128.458973","zcode":"47","zscode":"47900"},{"statNm":"농업기술센터","statId":"ME19E151","addr":"경상북도 울진군 매화면 매화리 1030-11","location":"null","lat":"36.917992","lng":"129.379685","zcode":"47","zscode":"47930"},{"statNm":"구산해수욕장 주차장","statId":"ME19E152","addr":"경상북도 울진군 기성면 구산리 333-11","location":"null","lat":"36.751644","lng":"129.464605","zcode":"47","zscode":"47930"},{"statNm":"금성면사무소","statId":"ME19E153","addr":"경상북도 의성군 금성면 대리리 93","location":"null","lat":"36.260997","lng":"128.681054","zcode":"47","zscode":"47730"},{"statNm":"점곡면사무소","statId":"ME19E154","addr":"경상북도 의성군 점곡면 서변리 119","location":"null","lat":"36.424703","lng":"128.768599","zcode":"47","zscode":"47730"},{"statNm":"진보문화체육센터","statId":"ME19E155","addr":"경상북도 청송군 진보면 각산리 508-9","location":"null","lat":"36.529126","lng":"129.051846","zcode":"47","zscode":"47750"},{"statNm":"송라면 행정복지센터","statId":"ME19E156","addr":"경상북도 포항시 북구 송라면 광천리 30-1","location":"null","lat":"36.228612","lng":"129.357229","zcode":"47","zscode":"47110"},{"statNm":"장량동행정복지센터","statId":"ME19E157","addr":"경상북도 포항시 북구 장성동 335-3","location":"null","lat":"36.08251","lng":"129.385942","zcode":"47","zscode":"47110"},{"statNm":"오어사입구 공영주차장","statId":"ME19E158","addr":"경상북도 포항시 남구 오천읍 항사리 87-15","location":"null","lat":"35.92894","lng":"129.382207","zcode":"47","zscode":"47110"},{"statNm":"구룡포과메기문화관 주차장","statId":"ME19E159","addr":"경상북도 포항시 남구 구룡포읍 구룡포리 353","location":"null","lat":"35.992729","lng":"129.562247","zcode":"47","zscode":"47110"},{"statNm":"경산산업단지관리공단","statId":"ME19E207","addr":"경상북도 경산시 진량읍 신상리 1201","location":"null","lat":"35.870604","lng":"128.827697","zcode":"47","zscode":"47290"},{"statNm":"생활체육공원(주차장 내)","statId":"ME19E208","addr":"경상북도 고령군 대가야읍 장기리 331","location":"null","lat":"35.722315","lng":"128.280122","zcode":"47","zscode":"47830"},{"statNm":"대가야국악당","statId":"ME19E209","addr":"경상북도 고령군 대가야읍 지산리 192","location":"null","lat":"35.726677","lng":"128.264307","zcode":"47","zscode":"47830"},{"statNm":"에코랄라 주차장","statId":"ME19E210","addr":"경상북도 문경시 가은읍 왕능리 515-7","location":"null","lat":"36.650506","lng":"128.061188","zcode":"47","zscode":"47280"},{"statNm":"초전면사무소","statId":"ME19E211","addr":"경상북도 성주군 초전면 대장리 619","location":"null","lat":"35.974678","lng":"128.264326","zcode":"47","zscode":"47840"},{"statNm":"강구 해파랑공원 공공주차장","statId":"ME19E212","addr":"경상북도 영덕군 강구면 강구리 585","location":"null","lat":"36.362364","lng":"129.39376","zcode":"47","zscode":"47770"},{"statNm":"예천온천 주차장","statId":"ME19E213","addr":"경상북도 예천군 감천면 관현리 126-3","location":"null","lat":"36.825951","lng":"128.458972","zcode":"47","zscode":"47900"},{"statNm":"한마당체육관 주차장","statId":"ME19E214","addr":"경상북도 포항시 남구 지곡동 482","location":"null","lat":"36.027525","lng":"129.325565","zcode":"47","zscode":"47110"},{"statNm":"운문산생태탐방안내센터","statId":"ME19F104","addr":"경상북도 청도군 운문면 운문사길 55","location":"null","lat":"35.678853493791","lng":"128.959929578","zcode":"47","zscode":"47820"},{"statNm":"기북면 다목적 복지회관","statId":"ME19F110","addr":"경상북도 포항시 북구 기북면 용기리 765-161 ","location":"null","lat":"36.1307124","lng":"129.16551","zcode":"47","zscode":"47110"},{"statNm":"풍기읍사무소","statId":"ME19F111","addr":"경상북도 영주시 풍기읍 남원로 80","location":"null","lat":"36.867281166563","lng":"128.52627075","zcode":"47","zscode":"47210"},{"statNm":"풍기인삼농협 유통센터","statId":"ME19F112","addr":"경상북도 영주시 본현면 소백로 1809","location":"null","lat":"36.860096","lng":"128.530748","zcode":"47","zscode":"47210"},{"statNm":"비안면사무소","statId":"ME19F113","addr":"경상북도 의성군 비안면 강변길59","location":"null","lat":"36.337379465606","lng":"128.49025262","zcode":"47","zscode":"47730"},{"statNm":"용궁 현청","statId":"ME19F114","addr":"경상북도 예천군 용궁면 읍부리 188-7","location":"null","lat":"36.6060933","lng":"128.2760527","zcode":"47","zscode":"47900"},{"statNm":"법전면사무소","statId":"ME19F115","addr":"경상북도 봉화군 법전면 법전로 100","location":"null","lat":"36.9107423","lng":"128.8769895","zcode":"47","zscode":"47920"},{"statNm":"아화졸음쉼터","statId":"ME19F118","addr":"경상북도 경주시 서면 아화리 산23-3","location":"null","lat":"35.9017558","lng":"129.0358815","zcode":"47","zscode":"47130"},{"statNm":"용성면행정복지센터","statId":"ME19F123","addr":"경상북도 경산시 용성면 원효로 1423","location":"null","lat":"35.793307937731","lng":"128.87569600","zcode":"47","zscode":"47290"},{"statNm":"산내면행정복지센터","statId":"ME19F227","addr":"경상북도 경주시 산내면 문복로1822","location":"null","lat":"35.755122793942","lng":"129.04464402","zcode":"47","zscode":"47130"},{"statNm":"화남북농협청과물종합유통센터","statId":"ME19F228","addr":"경상북도 영천시 화남면 삼창리 854","location":"null","lat":"36.058371503632","lng":"128.89059704","zcode":"47","zscode":"47230"},{"statNm":"고경면행정복지센터앞 공원 주차장","statId":"ME19F229","addr":"경상북도 영천시 고경면 호국로 1065-4","location":"null","lat":"36.001231438415","lng":"129.04630609","zcode":"47","zscode":"47230"},{"statNm":"차세대 차량융합부품 거점센터 인근 주차장","statId":"ME19F230","addr":"경상북도 경산시 진량읍 신제리 554-1","location":"null","lat":"35.862262579827","lng":"128.83556032","zcode":"47","zscode":"47290"},{"statNm":"다인면종합복지센터","statId":"ME19F231","addr":"경상북도 의성군 다인면 자미로 30","location":"null","lat":"36.450027426098","lng":"128.35739334","zcode":"47","zscode":"47730"},{"statNm":"각남면사무소","statId":"ME19F232","addr":"경상북도 청도군 각남면 각남로 74","location":"null","lat":"35.641725137578","lng":"128.65871932","zcode":"47","zscode":"47820"},{"statNm":"한국농어촌공사 고령지사 주차장","statId":"ME19F233","addr":"경상북도 고령군 대가야읍 가야금길 3","location":"null","lat":"35.739399","lng":"128.270502","zcode":"47","zscode":"47830"},{"statNm":"약목면사무소","statId":"ME19F234","addr":"경상북도 칠곡군 약목면 복성리 1023-5","location":"null","lat":"36.032743771107","lng":"128.36320265","zcode":"47","zscode":"47850"},{"statNm":"송산3리","statId":"ME19F235","addr":"경상북도 칠곡군 동명면 송산리 909","location":"null","lat":"35.9977275","lng":"128.5315145","zcode":"47","zscode":"47850"},{"statNm":"천지인(영주전통사상체험관)","statId":"ME19F259","addr":"경상북도 영주시 영주시 문수면 탄산리 577-2","location":"null","lat":"36.732640","lng":"128.614442","zcode":"47","zscode":"47210"},{"statNm":"아미산 주차장","statId":"ME19F260","addr":"경상북도 군위군 고로면 양지리 59-2","location":"null","lat":"36.168723164873","lng":"128.83799137","zcode":"47","zscode":"47720"},{"statNm":"옥산면사무소","statId":"ME19F261","addr":"경상북도 의성군 옥산면 구성리 449-3","location":"null","lat":"36.392648845922","lng":"128.80989952","zcode":"47","zscode":"47730"},{"statNm":"구미시복합스포츠센터","statId":"ME19F268","addr":"경상북도 구미시 광평동 366-4","location":"null","lat":"36.110531","lng":"128.3562777","zcode":"47","zscode":"47190"},{"statNm":"위천수변 테마공원","statId":"ME19F410","addr":"경상북도 군위군 효령면 간동길 3-17","location":"null","lat":"36.176537943709","lng":"128.58439852","zcode":"47","zscode":"47720"},{"statNm":"포항시청 동문 야외주차장","statId":"ME19X407","addr":"경상북도 포항시 남구 대잠동","location":"null","lat":"36.018283","lng":"129.344209","zcode":"47","zscode":"47110"},{"statNm":"포항양덕한마음체육관","statId":"ME19X408","addr":"경상북도 포항시 북구 새천년대로 ","location":"null","lat":"36.078089","lng":"129.406422","zcode":"47","zscode":"47110"},{"statNm":"성산공영주차장","statId":"ME19X409","addr":"경상북도 성주군 성주읍 성주로","location":"null","lat":"35.918025","lng":"128.293519","zcode":"47","zscode":"47840"},{"statNm":"동락공원 제4주차장","statId":"ME19X439","addr":"경상북도 구미시 3공단1로","location":"null","lat":"36.092964","lng":"128.402875","zcode":"47","zscode":"47190"},{"statNm":"구미시농산물도매시장 농협공판장 앞","statId":"ME19X440","addr":"경상북도 구미시 고아읍 선산대로 ","location":"null","lat":"36.157846","lng":"128.349500","zcode":"47","zscode":"47190"},{"statNm":"풍기 수삼인삼홍삼센터","statId":"ME19X452","addr":"경상북도 영주시 풍기읍 기주로 ","location":"null","lat":"36.867890","lng":"128.534261","zcode":"47","zscode":"47210"},{"statNm":"김천시 의회","statId":"ME19X455","addr":"경상북도 김천시 시청1길 ","location":"null","lat":"36.139142","lng":"128.112566","zcode":"47","zscode":"47150"},{"statNm":"경북 성주일반산업단지","statId":"ME19X456","addr":"경상북도 성주군 성주읍 학산리","location":"null","lat":"35.941257","lng":"128.289619","zcode":"47","zscode":"47840"},{"statNm":"이마트 동구미점","statId":"ME19Z224","addr":"경상북도 구미시 이계북로 23","location":"null","lat":"36.106087","lng":"128.404088","zcode":"47","zscode":"47190"},{"statNm":"임당 공영주차장","statId":"ME20C143","addr":"경상북도 경산시 임당동 860","location":"null","lat":"35.835464","lng":"128.741315","zcode":"47","zscode":"47290"},{"statNm":"계양 공영주차장","statId":"ME20C144","addr":"경상북도 경산시 계양동 732","location":"null","lat":"35.832969","lng":"128.742773","zcode":"47","zscode":"47290"},{"statNm":"경산시 문화회관","statId":"ME20C145","addr":"경상북도 경산시 하양읍 문화로 24","location":"null","lat":"35.9113392","lng":"128.8126454","zcode":"47","zscode":"47290"},{"statNm":"강동면 충전소","statId":"ME20C146","addr":"경상북도 경주시 강동면 인동리 35-6","location":"null","lat":"35.9873591","lng":"129.2737402","zcode":"47","zscode":"47130"},{"statNm":"한국원자력환경공단 본사사옥 옥외주차장","statId":"ME20C147","addr":"경상북도 경주시 충효천길 19","location":"null","lat":"35.839993194","lng":"129.19592546","zcode":"47","zscode":"47130"},{"statNm":"경주국립공원 사무소","statId":"ME20C148","addr":"경상북도 경주시 천북남로 12","location":"null","lat":"35.8441160","lng":"129.2891284","zcode":"47","zscode":"47130"},{"statNm":"육부촌 주차장","statId":"ME20C149","addr":"경상북도 경주시 신평동 375-7","location":"null","lat":"35.8441537","lng":"129.2870148","zcode":"47","zscode":"47130"},{"statNm":"서라벌공원 주차장","statId":"ME20C150","addr":"경상북도 경주시 신평동 480-1","location":"null","lat":"35.85199980","lng":"129.27782750","zcode":"47","zscode":"47130"},{"statNm":"사랑공원 주차장","statId":"ME20C151","addr":"경상북도 경주시 북군동 8-28","location":"null","lat":"35.8538185","lng":"129.2706351","zcode":"47","zscode":"47130"},{"statNm":"성건동 주민자치센터","statId":"ME20C152","addr":"경상북도 경주시 북문로 15","location":"null","lat":"35.8504849","lng":"129.2035236","zcode":"47","zscode":"47130"},{"statNm":"유금3리 공영주차장","statId":"ME20C153","addr":"경상북도 경주시 강동면 유금리 1215","location":"null","lat":"35.9967676","lng":"129.2771178","zcode":"47","zscode":"47130"},{"statNm":"장천면종합복지회관","statId":"ME20C154","addr":"경상북도 구미시 장천면 상장4길 18-16 ","location":"null","lat":"36.127570","lng":"128.492253","zcode":"47","zscode":"47190"},{"statNm":"해평면행정복지센터","statId":"ME20C155","addr":"경상북도 구미시 해평면 강동로 1672","location":"null","lat":"36.199695","lng":"128.391215","zcode":"47","zscode":"47190"},{"statNm":"선산휴게소(창원방향)","statId":"ME20C156","addr":"경상북도 구미시 옥성면 중부내륙고속도로 129","location":"null","lat":"36.274946926","lng":"128.24976824","zcode":"47","zscode":"47190"},{"statNm":"주차장(부곡동 899-2)","statId":"ME20C157","addr":"경상북도 김천시 부곡동 899-2","location":"null","lat":"36.1282188","lng":"128.0953495","zcode":"47","zscode":"47150"},{"statNm":"문경읍 행정복지센터","statId":"ME20C158","addr":"경상북도 문경시 청운로 55","location":"null","lat":"36.7373252","lng":"128.1076181","zcode":"47","zscode":"47280"},{"statNm":"가은읍 행정복지센터","statId":"ME20C159","addr":"경상북도 문경시 가은읍 가은로 123","location":"null","lat":"36.642381","lng":"128.0624138","zcode":"47","zscode":"47280"},{"statNm":"석포행복 지역아동센터주차장","statId":"ME20C160","addr":"경상북도 봉화군 석포면 석포리 385-1","location":"null","lat":"37.04590920","lng":"129.06322900","zcode":"47","zscode":"47920"},{"statNm":"창천리 복지회관","statId":"ME20C161","addr":"경상북도 성주군 가천면 창천2길 13","location":"null","lat":"35.885925","lng":"128.166641","zcode":"47","zscode":"47840"},{"statNm":"안동시청점","statId":"ME20C162","addr":"경상북도 안동시 퇴계로 115","location":"null","lat":"36.5678619","lng":"128.7301074","zcode":"47","zscode":"47170"},{"statNm":"안동호반자연휴양림","statId":"ME20C163","addr":"경상북도 안동시 도산면 동부리 36","location":"null","lat":"36.76390830","lng":"128.82846810","zcode":"47","zscode":"47170"},{"statNm":"서안동IC주유소","statId":"ME20C164","addr":"경상북도 안동시 풍산읍 노리 215-3","location":"null","lat":"36.59062570","lng":"128.63114170","zcode":"47","zscode":"47170"},{"statNm":"단산면행정복지센터","statId":"ME20C165","addr":"경상북도 영주시 옥대로 36","location":"null","lat":"36.9510038","lng":"128.6194755","zcode":"47","zscode":"47210"},{"statNm":"영주소방서","statId":"ME20C166","addr":"경상북도 영주시 문수면 적동리 125-4","location":"null","lat":"36.7920946","lng":"128.6327235","zcode":"47","zscode":"47210"},{"statNm":"부석면행정복지센터","statId":"ME20C167","addr":"경상북도 영주시 부석로 49","location":"null","lat":"36.9787335","lng":"128.6541674","zcode":"47","zscode":"47210"},{"statNm":"영주시 농업기술센터","statId":"ME20C168","addr":"경상북도 영주시 안정면 안심리 131-6","location":"null","lat":"36.8477153","lng":"128.5589838","zcode":"47","zscode":"47210"},{"statNm":"경북여성가족플라자","statId":"ME20C169","addr":"경상북도 예천군 호명면 도청대로 53","location":"null","lat":"36.57583040","lng":"128.4706032","zcode":"47","zscode":"47900"},{"statNm":"강문화전시관","statId":"ME20C170","addr":"경상북도 예천군 풍양면 삼강리 149","location":"null","lat":"36.5629528","lng":"128.2991827","zcode":"47","zscode":"47900"},{"statNm":"예천군제1공영주차장","statId":"ME20C171","addr":"경상북도 예천군 호명면 산합리 1411","location":"null","lat":"36.57598892","lng":"128.48931514","zcode":"47","zscode":"47900"},{"statNm":"기성면사무소","statId":"ME20C172","addr":"경상북도 울진군 기성면 척산2길 8","location":"null","lat":"36.7979627","lng":"129.4510417","zcode":"47","zscode":"47930"},{"statNm":"남울진 민원센터","statId":"ME20C173","addr":"경상북도 울진군 평해읍 평해리 855-2","location":"null","lat":"36.7244716","lng":"129.4411549","zcode":"47","zscode":"47930"},{"statNm":"울진군 맑은물사업소","statId":"ME20C174","addr":"경상북도 울진군 울진읍 울진중앙로 121","location":"null","lat":"36.953853","lng":"129.387557","zcode":"47","zscode":"47930"},{"statNm":"희망주유소 ","statId":"ME20C175","addr":"경상북도 의성군 단일면 낙동대로 3962","location":"null","lat":"36.345064","lng":"128.303039","zcode":"47","zscode":"47730"},{"statNm":"이서면사무소","statId":"ME20C176","addr":"경상북도 청도군 이서면 이서로 145-18","location":"null","lat":"35.662946","lng":"128.6702855","zcode":"47","zscode":"47820"},{"statNm":"문화체육사업시설소","statId":"ME20C177","addr":"경상북도 청도군 화양읍 청려로 1846","location":"null","lat":"35.6483852","lng":"128.7186823","zcode":"47","zscode":"47820"},{"statNm":"국립칠곡숲체원","statId":"ME20C178","addr":"경상북도 칠곡군 석적읍 유학로 532","location":"null","lat":"36.064521","lng":"128.463985","zcode":"47","zscode":"47850"},{"statNm":"호미곶면행정복지센터","statId":"ME20C179","addr":"경상북도 포항시 남구 호미곶면 해맞이로 242","location":"null","lat":"36.0807369","lng":"129.5556052","zcode":"47","zscode":"47110"},{"statNm":"송도 노외주차장(동성조선 앞 임시공영주차장)","statId":"ME20C180","addr":"경상북도 포항시 남구 운하로 238","location":"null","lat":"36.04409","lng":"129.3743585","zcode":"47","zscode":"47110"},{"statNm":"흥해 다목적재난대피시설","statId":"ME20C181","addr":"경상북도 포항시 북구 흥해읍 초곡리 1430","location":"null","lat":"36.096292723","lng":"129.33732509","zcode":"47","zscode":"47110"},{"statNm":"금호주유소","statId":"ME20C1b3","addr":"경상북도 봉화군 봉성면 파인토피아로 1652","location":"null","lat":"36.91049610","lng":"128.80627300","zcode":"47","zscode":"47920"},{"statNm":"산내면 충전소","statId":"ME20C245","addr":"경상북도 경주시 산내면 의곡리 163-1","location":"null","lat":"35.7576579","lng":"129.0456708","zcode":"47","zscode":"47130"},{"statNm":"한국도로공사 경주지사","statId":"ME20C246","addr":"경상북도 경주시 양북면 척현길 1","location":"null","lat":"35.7801101","lng":"129.4447921","zcode":"47","zscode":"47130"},{"statNm":"감포읍복지회관","statId":"ME20C247","addr":"경상북도 경주시 감포읍 전촌리 221","location":"null","lat":"35.7987672","lng":"129.4926471","zcode":"47","zscode":"47130"},{"statNm":"건천읍 행정복지센터(신축)","statId":"ME20C248","addr":"경상북도 경주시 건천읍 내서로 1106","location":"null","lat":"35.84986925","lng":"129.10202293","zcode":"47","zscode":"47130"},{"statNm":"외동2일반산업단지주차장","statId":"ME20C249","addr":"경상북도 경주시 외동읍 문산리 956","location":"null","lat":"35.6706673","lng":"129.3233249","zcode":"47","zscode":"47130"},{"statNm":"선산출장소","statId":"ME20C250","addr":"경상북도 구미시 선산읍 선산중앙로83-2","location":"null","lat":"36.2431795","lng":"128.30013","zcode":"47","zscode":"47190"},{"statNm":"금오테크노밸리","statId":"ME20C251","addr":"경상북도 구미시 구미대로 350-27","location":"null","lat":"36.120309","lng":"128.363387","zcode":"47","zscode":"47190"},{"statNm":"청정부항 레인보우 짚와이어 ","statId":"ME20C252","addr":"경상북도 김천시 부항면 신옥리 산23-2","location":"null","lat":"35.980554","lng":"127.997163","zcode":"47","zscode":"47150"},{"statNm":"봉화국민체육센터","statId":"ME20C253","addr":"경상북도 봉화군 봉화읍 해저리 산 4-7","location":"null","lat":"36.89429510","lng":"128.7294184","zcode":"47","zscode":"47920"},{"statNm":"상주시 농업 기술센터","statId":"ME20C254","addr":"경상북도 상주시 발산로 71","location":"null","lat":"36.45312700","lng":"128.16850440","zcode":"47","zscode":"47250"},{"statNm":"상주시화서농공단지","statId":"ME20C255","addr":"경상북도 상주시 화서면 영남제일로 4287-6","location":"null","lat":"36.44329940","lng":"127.94006330","zcode":"47","zscode":"47250"},{"statNm":"상주시청 부설주차장","statId":"ME20C256","addr":"경상북도 상주시 상산로 223","location":"null","lat":"36.4102283","lng":"128.1588966","zcode":"47","zscode":"47250"},{"statNm":"성주군농업기술센터","statId":"ME20C257","addr":"경상북도 성주군 대가면 참별로 2479","location":"null","lat":"35.91494193","lng":"128.25281490","zcode":"47","zscode":"47840"},{"statNm":"성주문화예술회관","statId":"ME20C258","addr":"경상북도 성주군 성주읍 성산9길 45","location":"null","lat":"35.9188316","lng":"128.300969","zcode":"47","zscode":"47840"},{"statNm":"한국국학진흥원","statId":"ME20C259","addr":"null","location":"null","lat":"36.7012264","lng":"128.8118812","zcode":"47","zscode":"47170"},{"statNm":"한국산업인력공단 경북지사","statId":"ME20C260","addr":"경상북도 안동시 학가산온천길42","location":"null","lat":"36.5902473","lng":"128.6494229","zcode":"47","zscode":"47170"},{"statNm":"산림과학박물관","statId":"ME20C261","addr":"경상북도 안동시 도산면 퇴계로 2189","location":"null","lat":"36.7121274","lng":"128.8245937","zcode":"47","zscode":"47170"},{"statNm":"축산출장소","statId":"ME20C262","addr":"경상북도 영덕군 축산면 영덕대게로 2053","location":"null","lat":"36.5058119","lng":"129.4420273","zcode":"47","zscode":"47770"},{"statNm":"고래불해수욕장주차장","statId":"ME20C263","addr":"경상북도 영덕군 병곡면 병곡리 72-7","location":"null","lat":"36.600722798","lng":"129.41112727","zcode":"47","zscode":"47770"},{"statNm":"고래불국민야영장","statId":"ME20C264","addr":"경상북도 영덕군 병곡면 덕천리 1-59","location":"null","lat":"36.5727709","lng":"129.4179938","zcode":"47","zscode":"47770"},{"statNm":"달산면 (옥산공용주차장)","statId":"ME20C265","addr":"경상북도 영덕군 달산면 옥산리 529-4","location":"null","lat":"36.34760525","lng":"129.27642294","zcode":"47","zscode":"47770"},{"statNm":"소백산마을","statId":"ME20C266","addr":"경상북도 영주시 옥대리 164-4","location":"null","lat":"36.9502846","lng":"128.6162782","zcode":"47","zscode":"47210"},{"statNm":"영천시 농업기술센터","statId":"ME20C267","addr":"경상북도 영천시 천문로 622-13","location":"null","lat":"35.991045","lng":"128.925527","zcode":"47","zscode":"47230"},{"statNm":" 한국생산기술연구원 대경본부바이오메디칼생산기술센터","statId":"ME20C268","addr":"경상북도 영천시 양호길 59","location":"null","lat":"36.001066711","lng":"128.91197142","zcode":"47","zscode":"47230"},{"statNm":"금강송치유센터","statId":"ME20C269","addr":"경상북도 울진군 금강송면 십이령로 552","location":"null","lat":"36.974611","lng":"129.2109626","zcode":"47","zscode":"47930"},{"statNm":"울진군 장애인종합복지관","statId":"ME20C270","addr":"경상북도 울진군 울진읍 울진북로 496-12","location":"null","lat":"36.9925728","lng":"129.3945511","zcode":"47","zscode":"47930"},{"statNm":"죽변 등대공원","statId":"ME20C271","addr":"경상북도 울진군 죽변면 등대길 63","location":"null","lat":"37.0580078","lng":"129.4283129","zcode":"47","zscode":"47930"},{"statNm":"울진군 엑스포공원","statId":"ME20C272","addr":"경상북도 울진군 근남면 엑스포로 25","location":"null","lat":"36.9692932","lng":"129.4012165","zcode":"47","zscode":"47930"},{"statNm":"온정면사무소","statId":"ME20C273","addr":"경상북도 울진군 온정면 소태로 23","location":"null","lat":"36.7238169","lng":"129.3450401","zcode":"47","zscode":"47930"},{"statNm":"조문국박물관 주차장","statId":"ME20C274","addr":"경상북도 의성군 금성면  초전1길 83","location":"null","lat":"36.2762832","lng":"128.6686787","zcode":"47","zscode":"47730"},{"statNm":"청송보건의료원 충전소","statId":"ME20C275","addr":"경상북도 청송군 청송읍 의료원길 19","location":"null","lat":"36.4309339","lng":"129.0523818","zcode":"47","zscode":"47750"},{"statNm":"왜관일반산업단지 공용 주차장","statId":"ME20C276","addr":"경상북도 칠곡군 왜관읍 공단4길 18-26","location":"null","lat":"35.966448357","lng":"128.41745920","zcode":"47","zscode":"47850"},{"statNm":"문화예술회관","statId":"ME20C277","addr":"경상북도 포항시 남구 희망대로 850","location":"null","lat":"36.0092146","lng":"129.3654087","zcode":"47","zscode":"47110"},{"statNm":"호미곶면민복지회관","statId":"ME20C278","addr":"경상북도 포항시 남구 호미곶면 해맞이로 153","location":"null","lat":"36.0764933","lng":"129.5640076","zcode":"47","zscode":"47110"},{"statNm":"장량동 평생학습원","statId":"ME20C279","addr":"경상북도 포항시 북구 장성동 1365","location":"null","lat":"36.07010732","lng":"129.37874064","zcode":"47","zscode":"47110"},{"statNm":"포항시농업기술센터","statId":"ME20C280","addr":"경상북도 포항시 북구 흥해읍 신흥로 572","location":"null","lat":"36.1135155","lng":"129.3057967","zcode":"47","zscode":"47110"},{"statNm":"농업인교육복지관","statId":"ME20C281","addr":"경상북도 포항시 북구 흥해읍 성곡서로32번길 7","location":"null","lat":"36.0832337","lng":"129.3387067","zcode":"47","zscode":"47110"},{"statNm":"오천읍민 복지회관","statId":"ME20C282","addr":"경상북도 포항시 남구 오천읍 원리 940","location":"null","lat":"35.966380964","lng":"129.40825403","zcode":"47","zscode":"47110"},{"statNm":"제철동민복지회관 (인덕오아이스)","statId":"ME20C283","addr":"경상북도 포항시 남구 냉천로 82","location":"null","lat":"35.985361","lng":"129.4012635","zcode":"47","zscode":"47110"},{"statNm":"포항 구룡포 과메기 문화관","statId":"ME20C284","addr":"경상북도 포항시 남구 구룡포읍 구룡포길117번길 28-8","location":"null","lat":"35.9927602","lng":"129.5620755","zcode":"47","zscode":"47110"},{"statNm":"경주시청주차장","statId":"ME20C301","addr":"경상북도 경주시 동천동 800","location":"null","lat":"35.8556288","lng":"129.2246527","zcode":"47","zscode":"47130"},{"statNm":"안동문화관광단지 주차장5","statId":"ME20C302","addr":"경상북도 안동시 성곡동 1560","location":"null","lat":"36.5691278","lng":"128.7775457","zcode":"47","zscode":"47170"},{"statNm":"연오랑세오녀테마공원","statId":"ME20C303","addr":"경상북도 포항시 남구 동해면 임곡리 123","location":"null","lat":"36.00362874","lng":"129.4621916","zcode":"47","zscode":"47110"},{"statNm":"경상북도경제진흥원","statId":"ME20C409","addr":"경상북도 구미시 이계북로 7","location":"null","lat":"36.1065012","lng":"128.4026506","zcode":"47","zscode":"47190"},{"statNm":"경북도청사","statId":"ME20C410","addr":"경상북도 안동시 풍천면 도청대로 455","location":"null","lat":"36.5759477","lng":"128.501462","zcode":"47","zscode":"47170"},{"statNm":"국립생태원 멸종위기종복원센터","statId":"ME20C411","addr":"경상북도 영양군 영양읍 고월길 23","location":"null","lat":"36.6486332","lng":"129.1541403","zcode":"47","zscode":"47760"},{"statNm":"청송군청 충전소","statId":"ME20C412","addr":"경상북도 청송군 청송읍 군청로 51","location":"null","lat":"36.4347297","lng":"129.0561718","zcode":"47","zscode":"47750"},{"statNm":"포항시청","statId":"ME20C413","addr":"경상북도 포항시 남구 시청로 1","location":"null","lat":"36.020043","lng":"129.3431292","zcode":"47","zscode":"47110"},{"statNm":"구미시농업기술센터","statId":"ME20D123","addr":"경상북도 구미시 선산읍 김선로963","location":"null","lat":"36.233813","lng":"128.29001","zcode":"47","zscode":"47190"},{"statNm":"도개면행정복지센터","statId":"ME20D124","addr":"경상북도 구미시 도개면 도안로103","location":"null","lat":"36.299565","lng":"128.330654","zcode":"47","zscode":"47190"},{"statNm":"한국도로공사 구미영업소 (나들목쉼터)","statId":"ME20D125","addr":"경상북도 구미시 경부고속도로172","location":"null","lat":"36.113637","lng":"128.360567","zcode":"47","zscode":"47190"},{"statNm":"형곡2동행정복지센터","statId":"ME20D126","addr":"경상북도 구미시 형곡로180","location":"null","lat":"36.106332","lng":"128.335521","zcode":"47","zscode":"47190"},{"statNm":"박정희대통령생가 방문객주차장","statId":"ME20D127","addr":"경상북도 구미시 박정희로107","location":"null","lat":"36.088475","lng":"128.34903","zcode":"47","zscode":"47190"},{"statNm":"한국생산기술연구원 대경본부 하이테크베어링기술센터","statId":"ME20D128","addr":"경상북도 영주시 장수면 용주로88-42","location":"null","lat":"36.782512","lng":"128.570614","zcode":"47","zscode":"47210"},{"statNm":"가산산성 공영주차장","statId":"ME20D129","addr":"경상북도 칠곡군 동명면 남원로5길77","location":"null","lat":"36.01943","lng":"128.59012","zcode":"47","zscode":"47850"},{"statNm":"안덕녹색길","statId":"ME20D136","addr":"경상북도 청송군 안덕면 방호정로50","location":"null","lat":"36.321927","lng":"128.989079","zcode":"47","zscode":"47750"},{"statNm":"안덕면행정복지센터","statId":"ME20D137","addr":"경상북도 청송군 안덕면 안덕로82","location":"null","lat":"36.289059","lng":"128.959779","zcode":"47","zscode":"47750"},{"statNm":"야송미술관","statId":"ME20D138","addr":"경상북도 청송군 진보면 신촌리 46-7","location":"null","lat":"36.506078","lng":"129.119129","zcode":"47","zscode":"47750"},{"statNm":"진보면 이촌리 충전소","statId":"ME20D139","addr":"경상북도 청송군 진보면 이촌1길23-1","location":"null","lat":"36.529792","lng":"129.036709","zcode":"47","zscode":"47750"},{"statNm":"청송자연휴양림","statId":"ME20D140","addr":"경상북도 청송군 부남면 청송로3478-96","location":"null","lat":"36.318027","lng":"129.053672","zcode":"47","zscode":"47750"},{"statNm":"광평동행정복지센터 ","statId":"ME20D141","addr":"경상북도 구미시 광평길55","location":"null","lat":"36.1042697","lng":"128.3661879","zcode":"47","zscode":"47190"},{"statNm":"상운면사무소","statId":"ME20D157","addr":"경상북도 봉화군 상운면 예봉로1281","location":"null","lat":"36.833867","lng":"128.755135","zcode":"47","zscode":"47920"},{"statNm":"춘양면사무소","statId":"ME20D158","addr":"경상북도 봉화군 춘양면 의양로5길19","location":"null","lat":"36.935177","lng":"128.91477","zcode":"47","zscode":"47920"},{"statNm":"장계면문화체험교육원","statId":"ME20D160","addr":"경상북도 영양군 석보면 원리리 산 7-6","location":"null","lat":"36.5610652","lng":"129.1274682","zcode":"47","zscode":"47760"},{"statNm":"영양군청","statId":"ME20D161","addr":"경상북도 영양군 영양읍 군청길37","location":"null","lat":"36.667104","lng":"129.112288","zcode":"47","zscode":"47760"},{"statNm":"생활체육공원(군민회관)","statId":"ME20D162","addr":"경상북도 영양군 영양읍 군민회관길46","location":"null","lat":"36.660113","lng":"129.116888","zcode":"47","zscode":"47760"},{"statNm":"울진군립추모원","statId":"ME20D163","addr":"경상북도 울진군 대흥신림로1046-280","location":"null","lat":"36.9933874","lng":"129.3522836","zcode":"47","zscode":"47930"},{"statNm":"국립산림치유원","statId":"ME20D164","addr":"경상북도 영주시 봉현면 두산리 1373","location":"null","lat":"36.8541054","lng":"128.4743142","zcode":"47","zscode":"47210"},{"statNm":"대동다숲 앞 공용주차장","statId":"ME20D167","addr":"경상북도 칠곡군 왜관읍 평장3길47","location":"null","lat":"35.983947","lng":"128.407585","zcode":"47","zscode":"47850"},{"statNm":"사곡보건지소","statId":"ME20D170","addr":"경상북도 의성군 사곡면 의성사곡로966 ","location":"null","lat":"36.306262","lng":"128.786397","zcode":"47","zscode":"47730"},{"statNm":"안사면사무소","statId":"ME20D171","addr":"경상북도 의성군 안사면 안신로645","location":"null","lat":"36.430987","lng":"128.461709","zcode":"47","zscode":"47730"},{"statNm":"울진군청소년수련관","statId":"ME20D173","addr":"경상북도 울진군 온정면 백암온천로1185","location":"null","lat":"36.9975055","lng":"129.4084012","zcode":"47","zscode":"47930"},{"statNm":"성주소방서","statId":"ME20D203","addr":"경상북도 성주군 성주읍 주산로193","location":"null","lat":"35.93412","lng":"128.305241","zcode":"47","zscode":"47840"},{"statNm":"휴그린골프클럽 주차장 ","statId":"ME20D204","addr":"경상북도 안동시 관광단지로316","location":"null","lat":"36.568033","lng":"128.773442","zcode":"47","zscode":"47170"},{"statNm":"풍기선비골인삼시장 ","statId":"ME20D205","addr":"경상북도 영주시 풍기읍 소백로2156","location":"null","lat":"36.886884","lng":"128.540624","zcode":"47","zscode":"47210"},{"statNm":"월정리 ","statId":"ME20D212","addr":"경상북도 청송군 현서면 달정길9","location":"null","lat":"36.203993","lng":"128.906625","zcode":"47","zscode":"47750"},{"statNm":"임업인연수원 ","statId":"ME20D213","addr":"경상북도 청송군 주왕산면 주왕산로698-35","location":"null","lat":"36.381326","lng":"129.130627","zcode":"47","zscode":"47750"},{"statNm":"주왕산우체국 ","statId":"ME20D214","addr":"경상북도 청송군 주왕산면 부동로1008","location":"null","lat":"36.356333","lng":"129.159286","zcode":"47","zscode":"47750"},{"statNm":"청송객주문학관 ","statId":"ME20D215","addr":"경상북도 청송군 진보면 청송로6359","location":"null","lat":"36.523321","lng":"129.039438","zcode":"47","zscode":"47750"},{"statNm":"청송교육지원청 ","statId":"ME20D216","addr":"경상북도 청송군 청송읍 군청로25","location":"null","lat":"36.436718","lng":"129.055246","zcode":"47","zscode":"47750"},{"statNm":"청송군 농업기술센터 ","statId":"ME20D217","addr":"경상북도 청송군 청송읍 주왕산로177","location":"null","lat":"36.391789","lng":"129.078914","zcode":"47","zscode":"47750"},{"statNm":"청송버스터미널 ","statId":"ME20D218","addr":"경상북도 청송군 청송읍 중앙로184 ","location":"null","lat":"36.437602","lng":"129.050511","zcode":"47","zscode":"47750"},{"statNm":"청송예술문화회관 ","statId":"ME20D219","addr":"경상북도 청송군 청송읍 금월로244-30","location":"null","lat":"36.429533","lng":"129.059114","zcode":"47","zscode":"47750"},{"statNm":"경산시 근로자복지회관 ","statId":"ME20D224","addr":"경상북도 경산시 진량읍 공단7로126","location":"null","lat":"35.864108","lng":"128.835469","zcode":"47","zscode":"47290"},{"statNm":"점촌2동행정복지센터 ","statId":"ME20D225","addr":"경상북도 문경시 중앙로50","location":"null","lat":"36.59015","lng":"128.196437","zcode":"47","zscode":"47280"},{"statNm":"파천면 덕천1리 신축주차장 ","statId":"ME20D232","addr":"경상북도 청송군 파천면 안파로1244 ","location":"null","lat":"36.435595","lng":"129.029389","zcode":"47","zscode":"47750"},{"statNm":"선바위관광지","statId":"ME20D233","addr":"경상북도 영양군 입암면 영양로883-5 ","location":"null","lat":"36.607822","lng":"129.081352","zcode":"47","zscode":"47760"},{"statNm":"영양군 로컬푸드직매장","statId":"ME20D234","addr":"경상북도 영양군 영양읍 중앙로55","location":"null","lat":"36.658734","lng":"129.111004","zcode":"47","zscode":"47760"},{"statNm":"주왕산면 생활체육센터 ","statId":"ME20D235","addr":"경상북도 청송군 주왕산면 이전앞길27","location":"null","lat":"36.356264","lng":"129.159715","zcode":"47","zscode":"47750"},{"statNm":"구미시문화예술회관","statId":"ME20D236","addr":"경상북도 구미시 송정대로89","location":"null","lat":"36.118482","lng":"128.348886","zcode":"47","zscode":"47190"},{"statNm":"구미전자정보기술원","statId":"ME20D237","addr":"경상북도 구미시 산동면 첨단기업1로17","location":"null","lat":"36.1411308","lng":"128.4386049","zcode":"47","zscode":"47190"},{"statNm":"예천 국립산림치유원","statId":"ME20D238","addr":"경상북도 예천군 효자면 은풍로1154","location":"null","lat":"36.8339471","lng":"128.4617456","zcode":"47","zscode":"47900"},{"statNm":"근로자문화센터","statId":"ME20D239","addr":"경상북도 구미시 해마루공원로24","location":"null","lat":"36.1343394","lng":"128.429551","zcode":"47","zscode":"47190"},{"statNm":"문경시 농업기술센터","statId":"ME20D241","addr":"경상북도 문경시 중앙로280","location":"null","lat":"36.608213","lng":"128.208258","zcode":"47","zscode":"47280"},{"statNm":"백암온천생태공원","statId":"ME20D242","addr":"경상북도 울진군 온정면 소태리 478","location":"null","lat":"36.7159965","lng":"129.354282","zcode":"47","zscode":"47930"},{"statNm":"빙계군립공원","statId":"ME20D243","addr":"경상북도 의성군 가음면 빙계계곡길 51","location":"null","lat":"36.2278711","lng":"128.7501855","zcode":"47","zscode":"47730"},{"statNm":"영주시 (공영주차장)","statId":"ME20D244","addr":"경상북도 영주시 중앙로63번길41-11","location":"null","lat":"36.8228896","lng":"128.621605","zcode":"47","zscode":"47210"},{"statNm":"영주시(영주시 종합터미널 주차장)","statId":"ME20D245","addr":"경상북도 영주시 대학로352","location":"null","lat":"36.8275916","lng":"128.6053002","zcode":"47","zscode":"47210"},{"statNm":"영주시청 (영주365시장 공영주차장)","statId":"ME20D246","addr":"경상북도 영주시 영주로204","location":"null","lat":"36.8256634","lng":"128.6225868","zcode":"47","zscode":"47210"},{"statNm":"온정면생활체육공원","statId":"ME20D247","addr":"경상북도 울진군 온정면 백암온천로1308","location":"null","lat":"36.7199875","lng":"129.3472206","zcode":"47","zscode":"47930"},{"statNm":"봉화 정자문화센터 ","statId":"ME20D402","addr":"경상북도 봉화군 봉성면 부랭이길88","location":"null","lat":"36.901628","lng":"128.810978","zcode":"47","zscode":"47920"},{"statNm":"하양꿈바우시장(A)","statId":"ME21A101","addr":"경상북도 경산시 하양읍 대학로 1544","location":"null","lat":"35.9153913","lng":"128.8204614","zcode":"47","zscode":"47290"},{"statNm":"하양꿈바우시장(B)","statId":"ME21A102","addr":"경상북도 경산시 하양읍 금락리 374-42","location":"null","lat":"35.9153595","lng":"128.8200484","zcode":"47","zscode":"47290"},{"statNm":"한국농어촌공사 칠곡지사","statId":"ME21A104","addr":"경상북도 칠곡군 왜관읍 관문로 99","location":"null","lat":"35.9888283","lng":"128.4054432","zcode":"47","zscode":"47850"},{"statNm":"남성주참외휴게소(창원)","statId":"ME21A105","addr":"경상북도 성주군 선남면 명포리 883","location":"null","lat":"35.8687455","lng":"128.3168752","zcode":"47","zscode":"47840"},{"statNm":"화진해수욕장","statId":"ME21A112","addr":"경상북도 포항시 북구 송라면 동해대로3218번길 34","location":"null","lat":"36.2510066","lng":"129.3735903","zcode":"47","zscode":"47110"},{"statNm":"매실 주차장","statId":"ME21A124","addr":"경상북도 경주시 신평동 391-2","location":"null","lat":"35.8450727","lng":"129.2823608","zcode":"47","zscode":"47130"},{"statNm":"물레방아광장 주차장","statId":"ME21A125","addr":"경상북도 경주시 신평동 417-6","location":"null","lat":"35.8454605","lng":"129.2863721","zcode":"47","zscode":"47130"},{"statNm":"호반광장 주차장","statId":"ME21A126","addr":"경상북도 경주시 신평동 719-216","location":"null","lat":"35.842255","lng":"129.2847649","zcode":"47","zscode":"47130"},{"statNm":"경주시 청소년수련관","statId":"ME21A127","addr":"경상북도 경주시 황성동 1053-231","location":"null","lat":"35.8547634","lng":"129.2158021","zcode":"47","zscode":"47130"},{"statNm":"한국국토정보공사 군위지사","statId":"ME21A140","addr":"경상북도 군위군 군위읍 동서1길 13","location":"null","lat":"36.2371534","lng":"128.5676506","zcode":"47","zscode":"47720"},{"statNm":"국민건강보험공단 울진영덕지사 주차장","statId":"ME21A141","addr":"경상북도 영덕군 영덕읍 영덕로 135","location":"null","lat":"36.4070606","lng":"129.3752052","zcode":"47","zscode":"47770"},{"statNm":"수상공연장 주차장","statId":"ME21A150","addr":"경상북도 경주시 신평동 485-4","location":"null","lat":"35.8510964","lng":"129.2757567","zcode":"47","zscode":"47130"},{"statNm":"와촌휴게소(포항)","statId":"ME21A201","addr":"경상북도 경산시 와촌면 강학길 103","location":"null","lat":"35.9519105","lng":"128.7754773","zcode":"47","zscode":"47290"},{"statNm":"금오공과대학교 신평동캠퍼스","statId":"ME21A202","addr":"경상북도 구미시 구미대로 350-27","location":"null","lat":"36.1198058","lng":"128.3650598","zcode":"47","zscode":"47190"},{"statNm":"금오공과대학교 본원","statId":"ME21A203","addr":"경상북도 구미시 대학로 61","location":"null","lat":"36.1421415","lng":"128.3940546","zcode":"47","zscode":"47190"},{"statNm":"건천휴게소(서울)","statId":"ME21A204","addr":"경상북도 경주시 건천읍 경부고속도로 76-1","location":"null","lat":"35.8316843","lng":"129.1091921","zcode":"47","zscode":"47130"},{"statNm":"한국산업단지공단 경북지역본부","statId":"ME21A205","addr":"경상북도 구미시 수출대로 127","location":"null","lat":"36.1118","lng":"128.3784","zcode":"47","zscode":"47190"},{"statNm":"의성휴게소(청주)","statId":"ME21A208","addr":"경상북도 의성군 안계면 양곡리 새못안길 45-49","location":"null","lat":"36.4106398","lng":"128.4450048","zcode":"47","zscode":"47730"},{"statNm":"성동쌈지 공영주차장","statId":"ME21A213","addr":"경상북도 상주시 성동동 67-1","location":"null","lat":"36.4151815","lng":"128.1689082","zcode":"47","zscode":"47250"},{"statNm":"영천휴게소(포항)","statId":"ME21A301","addr":"경상북도 영천시 임고면 금대리 140-1","location":"null","lat":"36.0518329","lng":"129.0420418","zcode":"47","zscode":"47230"},{"statNm":"경산휴게소(서울)","statId":"ME21A302","addr":"경상북도 경산시 진량읍 대학로 1089","location":"null","lat":"35.8789092","lng":"128.8105778","zcode":"47","zscode":"47290"},{"statNm":"청통휴게소(대구)","statId":"ME21A303","addr":"경상북도 영천시 청통면 우천리 산177-1","location":"null","lat":"35.993661","lng":"128.8594079","zcode":"47","zscode":"47230"},{"statNm":"건천휴게소(부산)","statId":"ME21A304","addr":"경상북도 경주시 건천읍 방내리 12-5","location":"null","lat":"35.8303092","lng":"129.109341","zcode":"47","zscode":"47130"},{"statNm":"동명휴게소(부산)","statId":"ME21A305","addr":"경상북도 칠곡군 동명면 중앙고속도로 123","location":"null","lat":"36.0066103","lng":"128.5467896","zcode":"47","zscode":"47850"},{"statNm":"칠곡휴게소(부산)","statId":"ME21A306","addr":"경상북도 칠곡군 석적읍 반계리 272-1","location":"null","lat":"36.0195419","lng":"128.4288993","zcode":"47","zscode":"47850"},{"statNm":"안동대학교","statId":"ME21A310","addr":"경상북도 안동시 경동로 1375","location":"null","lat":"36.5394497","lng":"128.7948951","zcode":"47","zscode":"47170"},{"statNm":"김천휴게소(부산)","statId":"ME21A312","addr":"경상북도 김천시 농소면 경부고속도로 193","location":"null","lat":"36.129568","lng":"128.1631719","zcode":"47","zscode":"47150"},{"statNm":"화서휴게소(영덕)","statId":"ME21A404","addr":"경상북도 상주시 화서면 상용리 396-9","location":"null","lat":"36.4446042","lng":"127.9210743","zcode":"47","zscode":"47250"},{"statNm":"안동휴게소(춘천)","statId":"ME21A405","addr":"경상북도 안동시 풍산읍 풍산태사로 1913-54","location":"null","lat":"36.5532363","lng":"128.6448096","zcode":"47","zscode":"47170"},{"statNm":"선산휴게소(창원)","statId":"ME21A406","addr":"경상북도 구미시 옥성면 중부내륙고속도로 129-1","location":"null","lat":"36.2745132","lng":"128.2508434","zcode":"47","zscode":"47190"},{"statNm":"추풍령휴게소(서울)","statId":"ME21A901","addr":"경상북도 김천시 봉산면 경부고속도로 214-1","location":"null","lat":"36.1997564","lng":"128.0030465","zcode":"47","zscode":"47150"},{"statNm":"추풍령휴게소(부산)","statId":"ME21A902","addr":"경상북도 김천시 봉산면 경부고속도로 213","location":"null","lat":"36.2005525","lng":"128.0007442","zcode":"47","zscode":"47150"},{"statNm":"성주휴게소(양평)","statId":"ME21A911","addr":"경상북도 성주군 초전면 중부내륙고속도로 98","location":"null","lat":"36.008719","lng":"128.2609458","zcode":"47","zscode":"47840"},{"statNm":"거의졸음쉼터","statId":"ME21B137","addr":"경상북도 구미시 구포동 1168","location":"null","lat":"36.1312138","lng":"128.4010715","zcode":"47","zscode":"47190"},{"statNm":"원리졸음쉼터","statId":"ME21B138","addr":"경상북도 구미시 선산읍 원리 1057-80","location":"null","lat":"36.2151945","lng":"128.3511025","zcode":"47","zscode":"47190"},{"statNm":"부구졸음쉼터(상)","statId":"ME21B149","addr":"경상북도 울진군 북면 부구리 산103-5(상)","location":"null","lat":"37.0928131","lng":"129.3677642","zcode":"47","zscode":"47930"},{"statNm":"화수졸음쉼터","statId":"ME21B150","addr":"경상북도 영덕군 영덕읍 화수리 산24-3(상)","location":"null","lat":"36.434503","lng":"129.3851046","zcode":"47","zscode":"47770"},{"statNm":"고곡졸음쉼터","statId":"ME21B151","addr":"경상북도 영덕군 축산면 고곡리 산92-1(하)","location":"null","lat":"36.4812453","lng":"129.4092024","zcode":"47","zscode":"47770"},{"statNm":"소방장비관리센터","statId":"ME21B1D2","addr":"경상북도 군위군 효령면 중리길 7-34","location":"null","lat":"36.154101","lng":"128.5832387","zcode":"47","zscode":"47720"},{"statNm":"학전졸음쉼터(상)","statId":"ME21B1F6","addr":"경상북도 포항시 남구 연일읍 학전리 산44-13","location":"null","lat":"36.0316453","lng":"129.3106468","zcode":"47","zscode":"47110"},{"statNm":"영주시청","statId":"ME21B231","addr":"경상북도 영주시 봉현면 오현리 725","location":"null","lat":"36.8672813","lng":"128.5211279","zcode":"47","zscode":"47210"},{"statNm":"경산경찰서","statId":"ME21B249","addr":"경상북도 경산시 원효로 68","location":"null","lat":"35.8229116","lng":"128.7451016","zcode":"47","zscode":"47290"},{"statNm":"백암다목적운동장","statId":"ME21B258","addr":"경상북도 울진군 온정면 소태리 1208","location":"null","lat":"36.7279899","lng":"129.3366664","zcode":"47","zscode":"47930"},{"statNm":"군위휴게소(춘천)","statId":"ME21B262","addr":"경상북도 군위군 군위읍 경북대로 4082","location":"null","lat":"36.2658005","lng":"128.5768088","zcode":"47","zscode":"47720"},{"statNm":"상주경찰서","statId":"ME21B315","addr":"경상북도 상주시 중앙로 230","location":"null","lat":"36.4157133","lng":"128.1639584","zcode":"47","zscode":"47250"},{"statNm":"국민연금공단 문경지사","statId":"ME21C217","addr":"경상북도 문경시 매봉로 45","location":"null","lat":"36.588711","lng":"128.180331","zcode":"47","zscode":"47280"},{"statNm":"안동유리한방병원","statId":"ME21C224","addr":"경상북도 안동시 남후면 남일로 1463","location":"null","lat":"36.522708","lng":"128.689128","zcode":"47","zscode":"47170"},{"statNm":"함창농공단지","statId":"ME21C225","addr":"경상북도 상주시 함창읍 오동리 854","location":"null","lat":"36.56329","lng":"128.194353","zcode":"47","zscode":"47250"},{"statNm":"문경경찰서","statId":"ME21C237","addr":"경상북도 문경시 매봉로 35","location":"null","lat":"36.587736","lng":"128.180739","zcode":"47","zscode":"47280"},{"statNm":"영양경찰서","statId":"ME21C264","addr":"경상북도 영양군 영양읍 영양창수로 135","location":"null","lat":"36.661772","lng":"129.127658","zcode":"47","zscode":"47760"},{"statNm":"포항남부경찰서","statId":"ME21C266","addr":"경상북도 포항시 남구 연일로 55","location":"null","lat":"36.006625","lng":"129.346917","zcode":"47","zscode":"47110"},{"statNm":"성주군농업기술센터 서부분소","statId":"ME21C280","addr":"경상북도 성주군 수륜면 참별로 1363","location":"null","lat":"35.868472","lng":"128.183144","zcode":"47","zscode":"47840"},{"statNm":"안동시치매안심센터","statId":"ME21C282","addr":"경상북도 안동시 보현로 12","location":"null","lat":"36.550308","lng":"128.758161","zcode":"47","zscode":"47170"},{"statNm":"라한호텔경주","statId":"ME21C405","addr":"경상북도 경주시 보문로 338","location":"null","lat":"35.849247","lng":"129.278692","zcode":"47","zscode":"47130"},{"statNm":"청도새마을휴게소(부산방향)","statId":"ME21D022","addr":"경상북도 청도군 청도읍 하지길 59-49","location":"null","lat":"35.5947583","lng":"128.7672347","zcode":"47","zscode":"47820"},{"statNm":"흥해읍사무소","statId":"ME21D023","addr":"경상북도 포항시 북구 흥해읍 동해대로 1511","location":"null","lat":"36.107327","lng":"129.3421669","zcode":"47","zscode":"47110"},{"statNm":"포은도서관","statId":"ME21D090","addr":"경상북도 포항시 북구 삼호로 31","location":"null","lat":"36.0434092","lng":"129.3673984","zcode":"47","zscode":"47110"},{"statNm":"영천 상수도사업소","statId":"BNGA0102","addr":"경상북도 영천시 임고면 신방로 50-35","location":"null","lat":"36.055894","lng":"129.018361","zcode":"47","zscode":"47230"},{"statNm":"경주시 환경복지회관","statId":"BNGA0401","addr":"경상북도 경주시 양정로 155-16","location":"환경복지회관 앞","lat":"35.848749717","lng":"129.22068860","zcode":"47","zscode":"47130"},{"statNm":"안동의료원","statId":"BNGH3601","addr":"경상북도 안동시 태사2길 55","location":"안동의료원 앞","lat":"36.568176278","lng":"128.73185263","zcode":"47","zscode":"47170"},{"statNm":"의성경찰서","statId":"BNGH3901","addr":"경상북도 의성군 의성읍 홍술로 71-5","location":"의성경찰서 주차장","lat":"36.355358","lng":"128.686800","zcode":"47","zscode":"47730"},{"statNm":"언콴타이레스토랑","statId":"CSAQ0001","addr":"경상북도 김천시 부거리길 348","location":"주차장","lat":"36.134242","lng":"128.098511","zcode":"47","zscode":"47150"},{"statNm":"빽다방 경북고령다산점","statId":"CSBB0001","addr":"경상북도 고령군 다산면 평리6길 8","location":"주차장","lat":"35.829893","lng":"128.455107","zcode":"47","zscode":"47830"},{"statNm":"씨엔242 펜션","statId":"CSCN0001","addr":"경상북도 포항시 북구 청하면 해안로1918번길 34","location":"주차장","lat":"36.175743","lng":"129.394929","zcode":"47","zscode":"47110"},{"statNm":"카페소백산","statId":"CSCS0001","addr":"경상북도 영주시 풍기읍 금계로64번길 57","location":"카페소백산","lat":"36.882289","lng":"128.527290","zcode":"47","zscode":"47210"},{"statNm":"캠프1530","statId":"CSCS2012","addr":"경상북도 청도군 운문면 운북로 235","location":"주차장","lat":"35.788146183","lng":"128.96519460","zcode":"47","zscode":"47820"},{"statNm":"광덕1리 마을회","statId":"CSGD0001","addr":"경상북도 안동시 풍천면 장수길 70","location":"주차장","lat":"36.547417","lng":"128.508137","zcode":"47","zscode":"47170"},{"statNm":"하나개러지","statId":"CSHN0001","addr":"경상북도 칠곡군 왜관읍 현대로 128","location":"주차장","lat":"35.986062","lng":"128.435389","zcode":"47","zscode":"47850"},{"statNm":"아이세상 풀빌라","statId":"CSII0001","addr":"경상북도 포항시 남구 호미곶면 해맞이로208번길 59","location":"주차장","lat":"36.084249","lng":"129.557148","zcode":"47","zscode":"47110"},{"statNm":"오렌지골프랜드","statId":"CSOR0001","addr":"경상북도 상주시 연원2길 45-12","location":"주차장","lat":"36.421935","lng":"128.134442","zcode":"47","zscode":"47250"},{"statNm":"프리웨이 2 카워시","statId":"CSPW0001","addr":"경상북도 구미시 3공단2로 307","location":"프리웨이 2 카워시","lat":"36.107899","lng":"128.405613","zcode":"47","zscode":"47190"},{"statNm":"리버스","statId":"CSRV0001","addr":"경상북도 성주군 성주읍 참별로 2503","location":"주차장","lat":"35.915071","lng":"128.255508","zcode":"47","zscode":"47840"},{"statNm":"보라보라커피","statId":"CSSA0001","addr":"경상북도 포항시 북구 청하면 해안로 2266","location":"보라보라커피","lat":"36.195389","lng":"129.372392","zcode":"47","zscode":"47110"},{"statNm":"스톤앤비치풀빌라","statId":"CSSB0002","addr":"경상북도 경주시 감포읍 감포로 250","location":"주차장","lat":"35.810333","lng":"129.509964","zcode":"47","zscode":"47130"},{"statNm":"쉴만한물가 펜션","statId":"CSSMH001","addr":"경상북도 성주군 가천면 포천계곡로 383","location":"주차장","lat":"35.873080","lng":"128.140341","zcode":"47","zscode":"47840"},{"statNm":"삼사리아침","statId":"CSSS0001","addr":"경상북도 영덕군 강구면 삼사길 59-3","location":"주차장","lat":"36.342316","lng":"129.381801","zcode":"47","zscode":"47770"},{"statNm":"스테이포르","statId":"CSSTP001","addr":"경상북도 포항시 남구 구룡포읍 일출로 14","location":"주차장","lat":"35.999155","lng":"129.567958","zcode":"47","zscode":"47110"},{"statNm":"의성각마늘오리식당","statId":"CSUI0001","addr":"경상북도 의성군 의성읍 경북대로 5644","location":"주차장","lat":"36.349295","lng":"128.673429","zcode":"47","zscode":"47730"},{"statNm":"(주)거상","statId":"CU540001","addr":"경상북도 구미시 산호대로24길 9-45","location":"지상주차장","lat":"36.136602","lng":"128.416092","zcode":"47","zscode":"47190"},{"statNm":"태원슈퍼","statId":"CU540002","addr":"경상북도 상주시 사벌국면 목가1길 75","location":"입구 주차장","lat":"36.49932","lng":"128.19282","zcode":"47","zscode":"47250"},{"statNm":"하양코아루3차","statId":"CU540003","addr":"경상북도 경산시 하양읍 하양로37길 33","location":"null","lat":"35.9206861","lng":"128.827500","zcode":"47","zscode":"47290"},{"statNm":"인터불고코아루아파트","statId":"CU540004","addr":"경상북도 영천시 창신1길 42","location":"null","lat":"35.9901784","lng":"128.955012","zcode":"47","zscode":"47230"},{"statNm":"경산하양LH천년나무4단지","statId":"CU540005","addr":"경상북도 경산시 하양읍 서사도리4로 22","location":"null","lat":"35.9208732","lng":"128.809193","zcode":"47","zscode":"47290"},{"statNm":"펜타힐즈 서한이다음","statId":"CU540006","addr":"경상북도 경산시 옥산로 217","location":"null","lat":"35.8337178","lng":"128.717678","zcode":"47","zscode":"47290"},{"statNm":"금호우방타운","statId":"CU540007","addr":"경상북도 영천시 금호읍 덕성길 20","location":"null","lat":"35.9325780","lng":"128.868658","zcode":"47","zscode":"47230"},{"statNm":"경산중방e-편한세상2단지","statId":"CU540008","addr":"경상북도 경산시 대학로28길 31","location":"null","lat":"35.8313461","lng":"128.738486","zcode":"47","zscode":"47290"},{"statNm":"경산사동1차부영아파트","statId":"CU540009","addr":"경상북도 경산시 백자로20길 51","location":"null","lat":"35.8127581","lng":"128.762486","zcode":"47","zscode":"47290"},{"statNm":"사동2지구화성파크드림","statId":"CU540010","addr":"경상북도 경산시 삼성현로91길 45","location":"null","lat":"35.8108501","lng":"128.752454","zcode":"47","zscode":"47290"},{"statNm":"경일대학교(제1공학관)","statId":"CV000020","addr":"경상북도 경산시 하양읍 가마실길 50","location":"null","lat":"35.908331","lng":"128.802491","zcode":"47","zscode":"47290"},{"statNm":"용천사","statId":"CV000038","addr":"경상북도 청도군 각북면 오산리","location":"용천사에서 약 300m 거리의 주차장","lat":"35.7172255","lng":"128.5559017","zcode":"47","zscode":"47820"},{"statNm":"GS수퍼마켓 포항창포점","statId":"CV000040","addr":"경상북도 포항시 북구 새천년대로1076번길 4","location":"null","lat":"36.06371300000","lng":"129.3718629999","zcode":"47","zscode":"47110"},{"statNm":"왜관병원 장례식장","statId":"CV000094","addr":"경상북도 칠곡군 왜관읍 군청2길 10","location":"null","lat":"35.996124","lng":"128.4015229","zcode":"47","zscode":"47850"},{"statNm":"오태명당 풀리비에 아파트","statId":"CV000096","addr":"경상북도 구미시 지주중류4길 18","location":"104동 옆 코너주차장","lat":"36.0810139","lng":"128.3756439","zcode":"47","zscode":"47190"},{"statNm":"대구한의대학교 삼성캠퍼스(한학촌 주차장)","statId":"CV000098","addr":"경상북도 경산시 점촌동 266-1","location":"null","lat":"35.793452","lng":"128.775059","zcode":"47","zscode":"47290"},{"statNm":"대구가톨릭대학교 효성캠퍼스(성마르타관 주차장)","statId":"CV000101","addr":"경상북도 경산시 하양읍 하양로 13-13","location":"null","lat":"35.911204","lng":"128.804614","zcode":"47","zscode":"47290"},{"statNm":"청도프로방스포토랜드(출구 주차장)","statId":"CV000102","addr":"경상북도 청도군 화양읍 삼신리 829","location":"null","lat":"35.687247","lng":"128.716413","zcode":"47","zscode":"47820"},{"statNm":"청도 용암온천","statId":"CV000115","addr":"경상북도 청도군 화양읍 온천길 13","location":"null","lat":"35.688705","lng":"128.720964","zcode":"47","zscode":"47820"},{"statNm":"포항 오션힐스(동해리조트)","statId":"CV000116","addr":"경상북도 포항시 북구 송라면 대전길 7-1","location":"null","lat":"36.243785","lng":"129.359381","zcode":"47","zscode":"47110"},{"statNm":"경일대학교(야외 농구장 주차장)","statId":"CV000150","addr":"경상북도 경산시 하양읍 가마실길 50","location":"null","lat":"35.907635","lng":"128.800163","zcode":"47","zscode":"47290"},{"statNm":"(폐업)갓바위 워터피아 온천","statId":"CV000153","addr":"경상북도 경산시 와촌면 팔공로 237-14","location":"null","lat":"35.961864","lng":"128.769125","zcode":"47","zscode":"47290"},{"statNm":"파스쿠찌 가산산성점","statId":"CV000161","addr":"경상북도 칠곡군 동명면 한티로 535","location":"null","lat":"36.0036644","lng":"128.5937373","zcode":"47","zscode":"47850"},{"statNm":"한우리숯불갈비","statId":"CV000162","addr":"경상북도 경산시 박물관로 29","location":"지상주차장 1층","lat":"35.8202303","lng":"128.7355839","zcode":"47","zscode":"47290"},{"statNm":"대경대학교","statId":"CV000167","addr":"경상북도 경산시 자인면 단북1길 65","location":"null","lat":"35.835523","lng":"128.823263","zcode":"47","zscode":"47290"},{"statNm":"해마루1급정비공장","statId":"CV000171","addr":"경상북도 구미시 4공단로 79","location":"null","lat":"36.1280544","lng":"128.4204532","zcode":"47","zscode":"47190"},{"statNm":"로즈모텔","statId":"CV000176","addr":"경상북도 경주시 태종로711번길 25-3","location":"null","lat":"35.8410736","lng":"129.2055904","zcode":"47","zscode":"47130"},{"statNm":"김천대학교","statId":"CV000181","addr":"경상북도 김천시 대학로 214","location":"null","lat":"36.137214","lng":"128.079578","zcode":"47","zscode":"47150"},{"statNm":"성주군청","statId":"CV000182","addr":"경상북도 성주군 성주읍 성주로 3200","location":"군청 맞은편 제1주차장","lat":"35.919172","lng":"128.282983","zcode":"47","zscode":"47840"},{"statNm":"포항시립미술관","statId":"CV000187","addr":"경상북도 포항시 북구 환호공원길 10","location":"null","lat":"36.06641","lng":"129.390998","zcode":"47","zscode":"47110"},{"statNm":"영진전문대 영어마을","statId":"CV000192","addr":"경상북도 칠곡군 지천면 송정중리1길 195","location":"영진전문대 영어마을","lat":"35.9584563","lng":"128.4600315","zcode":"47","zscode":"47850"},{"statNm":"서라벌대학교","statId":"CV000193","addr":"경상북도 경주시 태종로 516","location":"null","lat":"35.839895","lng":"129.1842832","zcode":"47","zscode":"47130"},{"statNm":"민)(청도군)각북면 사무소","statId":"CV000205","addr":"경상북도 청도군 각북면 헐티로 801","location":"null","lat":"35.687327","lng":"128.589781","zcode":"47","zscode":"47820"},{"statNm":"민)맑은길 주차장","statId":"CV000206","addr":"경상북도 청도군 청도읍 청화로 205","location":"null","lat":"35.640784","lng":"128.746677","zcode":"47","zscode":"47820"},{"statNm":"민)청도풍각면사무소","statId":"CV000207","addr":"경상북도 청도군 풍각면 송서로 70","location":"null","lat":"35.639128","lng":"128.61837","zcode":"47","zscode":"47820"},{"statNm":"민)(청도군)금천면 사무소","statId":"CV000208","addr":"경상북도 청도군 금천면 선암로 575","location":"null","lat":"35.686922","lng":"128.892916","zcode":"47","zscode":"47820"},{"statNm":"민)청도소싸움테마파크","statId":"CV000209","addr":"경상북도 청도군 화양읍 남성현로 346","location":"null","lat":"35.684996","lng":"128.724209","zcode":"47","zscode":"47820"},{"statNm":"민)청도박물관","statId":"CV000210","addr":"경상북도 청도군 이서면 이서로 567","location":"null","lat":"35.69376","lng":"128.687086","zcode":"47","zscode":"47820"},{"statNm":"경일대학교(컬처그라운드)","statId":"CV000220","addr":"경상북도 경산시 하양읍 가마실길 50","location":"null","lat":"35.904526","lng":"128.800493","zcode":"47","zscode":"47290"},{"statNm":"대구예술대학교","statId":"CV000221","addr":"경상북도 칠곡군 가산면 다부거문1길 202","location":"null","lat":"36.032121","lng":"128.509298","zcode":"47","zscode":"47850"},{"statNm":"태형고기마을","statId":"CV000254","addr":"경상북도 문경시 문경읍 여우목로 2","location":"null","lat":"36.730661","lng":"128.10811","zcode":"47","zscode":"47280"},{"statNm":"김천 생명과학고등학교","statId":"CV000278","addr":"경상북도 김천시 부거리길 310","location":"null","lat":"36.1355559999","lng":"128.100347","zcode":"47","zscode":"47150"},{"statNm":"닛산 구미 서비스센터","statId":"CV000282","addr":"경상북도 구미시 광평동 61-1","location":"null","lat":"36.110635","lng":"128.365901","zcode":"47","zscode":"47190"},{"statNm":"감꽃요양병원","statId":"CV000287","addr":"경상북도 청도군 각북면 헐티로 1229","location":"null","lat":"35.714384","lng":"128.566312","zcode":"47","zscode":"47820"},{"statNm":"영진전문대학 글로벌캠퍼스","statId":"CV000292","addr":"경상북도 칠곡군 지천면 금송로 60","location":"입구 야외주차장","lat":"35.946303","lng":"128.4645694","zcode":"47","zscode":"47850"},{"statNm":"구디 브런치 레스토랑","statId":"CV000313","addr":"경상북도 포항시 남구 오천읍 중원로 93-82","location":"null","lat":"35.971906","lng":"129.39709","zcode":"47","zscode":"47110"},{"statNm":"포항테크노파크","statId":"CV000314","addr":"경상북도 포항시 남구 지곡로 394","location":"null","lat":"36.036036","lng":"129.313946","zcode":"47","zscode":"47110"},{"statNm":"경주 괘릉휴게소","statId":"CV000317","addr":"경상북도 경주시 외동읍 산업로 2762-3","location":"null","lat":"35.757306","lng":"129.314388","zcode":"47","zscode":"47130"},{"statNm":"문경 대야산 자연휴양림","statId":"CV000325","addr":"경상북도 문경시 가은읍 용추길 31-35","location":"null","lat":"36.670905","lng":"127.961979","zcode":"47","zscode":"47280"},