[{"statNm":"마장동사무소 앞(공중전화부스)","statId":"ME000006","addr":"서울특별시 성동구 마장동 808","location":"null","lat":"37.5660935","lng":"127.0455256","zcode":"11","zscode":"11200"},{"statNm":"성북벤처빌딩 공영주차장","statId":"ME000012","addr":"서울특별시 성북구 장위2동 65-154","location":"null","lat":"37.60936","lng":"127.053263","zcode":"11","zscode":"11290"},{"statNm":"해맞이공영주차장","statId":"ME000022","addr":"서울특별시 양천구 지양로 47","location":"null","lat":"37.520062","lng":"126.834854","zcode":"11","zscode":"11470"},{"statNm":"구로리공원 앞(공중전화부스)","statId":"ME000028","addr":"서울특별시 구로구 구로동 136-14","location":"null","lat":"37.4912466","lng":"126.8919514","zcode":"11","zscode":"11530"},{"statNm":"영등포구 대신시장(공중전화부스)","statId":"ME000032","addr":"서울특별시 영등포구 신길1동 116-15","location":"null","lat":"37.5113404","lng":"126.9176919","zcode":"11","zscode":"11560"},{"statNm":"조원동 제1공영주차장","statId":"ME000036","addr":"서울특별시 관악구 신림동 571-6","location":"null","lat":"37.481069","lng":"126.905703","zcode":"11","zscode":"11620"},{"statNm":"노보텔","statId":"ME174001","addr":"서울특별시 강남구 봉은사로 130","location":"null","lat":"37.5052721","lng":"127.0289991","zcode":"11","zscode":"11680"},{"statNm":"암사1동 공영주차장","statId":"ME174003","addr":"서울특별시 강동구 고덕로28길 36","location":"null","lat":"37.5529087","lng":"127.1372547","zcode":"11","zscode":"11740"},{"statNm":"천호유수지 공영주차장","statId":"ME174004","addr":"서울특별시 강동구 선사로 70","location":"null","lat":"37.5448122","lng":"127.1218396","zcode":"11","zscode":"11740"},{"statNm":"천호3동 제1공영주차장","statId":"ME174005","addr":"서울특별시 강동구 진황도로29길 34","location":"null","lat":"37.5387951","lng":"127.1333987","zcode":"11","zscode":"11740"},{"statNm":"가로공원로 지하공영주차장","statId":"ME174006","addr":"서울특별시 강서구 가로공원로 189","location":"null","lat":"37.5372628","lng":"126.8383789","zcode":"11","zscode":"11500"},{"statNm":"곰달래문화복지센터 공영주차장","statId":"ME174007","addr":"서울특별시 강서구 강서로5길 50","location":"null","lat":"37.5289561","lng":"126.8490887","zcode":"11","zscode":"11500"},{"statNm":"볏골공원 지하공영주차장","statId":"ME174008","addr":"서울특별시 강서구 까치산로4길 22","location":"null","lat":"37.5419747","lng":"126.8444499","zcode":"11","zscode":"11500"},{"statNm":"화곡6-1 공영주차장","statId":"ME174009","addr":"서울특별시 강서구 우장산로 114","location":"null","lat":"37.5530457","lng":"126.8488169","zcode":"11","zscode":"11500"},{"statNm":"홈플러스 강서점","statId":"ME174010","addr":"서울특별시 강서구 화곡로 398","location":"null","lat":"37.5591218","lng":"126.8549199","zcode":"11","zscode":"11500"},{"statNm":"신림동 제1공영주차장","statId":"ME174011","addr":"서울특별시 관악구 관천로 98","location":"null","lat":"37.4874046","lng":"126.9235075","zcode":"11","zscode":"11620"},{"statNm":"난곡동 제1공영주차장","statId":"ME174012","addr":"서울특별시 관악구 난곡로34나길 14","location":"null","lat":"37.4722977","lng":"126.9231169","zcode":"11","zscode":"11620"},{"statNm":"낙성대동주민센터","statId":"ME174013","addr":"서울특별시 관악구 낙성대로4가길 5","location":"null","lat":"37.476296","lng":"126.9583876","zcode":"11","zscode":"11620"},{"statNm":"보라매 제1공영주차장","statId":"ME174014","addr":"서울특별시 관악구 봉천로21길 38","location":"null","lat":"37.488301","lng":"126.9346119","zcode":"11","zscode":"11620"},{"statNm":"보라매 제1공영주차장","statId":"ME174014","addr":" 입구좌측, 지하 각 1기","location":"null","lat":"37.488301","lng":"126.9346119","zcode":"11","zscode":"11620"},{"statNm":"원신 공영주차장","statId":"ME174015","addr":"서울특별시 관악구 양지길 63","location":"null","lat":"37.470038","lng":"126.9292421","zcode":"11","zscode":"11620"},{"statNm":"어린이대공원 후문주차장","statId":"ME174016","addr":"서울특별시 광진구 능동로 216","location":"null","lat":"37.5515067","lng":"127.0869275","zcode":"11","zscode":"11215"},{"statNm":"홈플러스 신도림점","statId":"ME174017","addr":"서울특별시 구로구 경인로 661","location":"null","lat":"37.5099693","lng":"126.888413","zcode":"11","zscode":"11530"},{"statNm":"롯데마트 중계점","statId":"ME174018","addr":"서울특별시 노원구 노원로 330","location":"null","lat":"37.6466673","lng":"127.0715514","zcode":"11","zscode":"11350"},{"statNm":"홈플러스 중계점","statId":"ME174019","addr":"서울특별시 노원구 동일로204가길 12","location":"null","lat":"37.6400856","lng":"127.0685413","zcode":"11","zscode":"11350"},{"statNm":"실증용 Mock-up 주택 홍보관","statId":"ME174020","addr":"서울특별시 노원구 하계동 251-8","location":"null","lat":"37.6381803","lng":"127.0737876","zcode":"11","zscode":"11350"},{"statNm":"동대문구청","statId":"ME174021","addr":"서울특별시 동대문구 천호대로 145","location":"null","lat":"37.5746807","lng":"127.0401814","zcode":"11","zscode":"11230"},{"statNm":"중앙대학교병원 다정관 주차장","statId":"ME174022","addr":"서울특별시 동작구 흑석로 102","location":"null","lat":"37.5055471","lng":"126.9607195","zcode":"11","zscode":"11590"},{"statNm":"양화진공영주차장","statId":"ME174023","addr":"서울특별시 마포구 토정로 2","location":"null","lat":"37.5457992","lng":"126.9117265","zcode":"11","zscode":"11440"},{"statNm":"공덕1-1공영주차장","statId":"ME174024","addr":" 옥상","location":"null","lat":"37.5471234","lng":"126.9612454","zcode":"11","zscode":"11440"},{"statNm":"홍제견인차량보관소 주차장","statId":"ME174025","addr":"서울특별시 서대문구 홍제내길 227","location":"null","lat":"37.5905929","lng":"126.9407564","zcode":"11","zscode":"11410"},{"statNm":"서울시인재개발원","statId":"ME174026","addr":"서울특별시 서초구 남부순환로 340길 58","location":"null","lat":"37.481369","lng":"127.0238502","zcode":"11","zscode":"11650"},{"statNm":"서울추모공원","statId":"ME174027","addr":"서울특별시 서초구 양재대로12길 74","location":"null","lat":"37.4536062","lng":"127.0428005","zcode":"11","zscode":"11650"},{"statNm":"아시아공원 공영주차장","statId":"ME174028","addr":"서울특별시 송파구 잠실동 84","location":"null","lat":"37.5102969","lng":"127.0788121","zcode":"11","zscode":"11710"},{"statNm":"롯데마트 송파점","statId":"ME174029","addr":"서울특별시 송파구 중대로 80","location":"null","lat":"37.4918392","lng":"127.1178931","zcode":"11","zscode":"11710"},{"statNm":"홈플러스 영등포점","statId":"ME174030","addr":"서울특별시 영등포구 당산로 42","location":"null","lat":"37.5190208","lng":"126.8957999","zcode":"11","zscode":"11560"},{"statNm":"신길6동 공영노외주차장(구 신길 제5동 주민센터)","statId":"ME174031","addr":"서울특별시 영등포구 신길동 3203","location":"null","lat":"37.502512989","lng":"126.9110497","zcode":"11","zscode":"11560"},{"statNm":"신길4동1마을공원 공영주차장","statId":"ME174032","addr":"서울특별시 영등포구 신길로40길 5","location":"null","lat":"37.507122","lng":"126.9116817","zcode":"11","zscode":"11560"},{"statNm":"당산에스에이치빌 아파트 앞","statId":"ME174033","addr":"서울특별시 영등포구 영신로 183","location":"null","lat":"37.524217","lng":"126.9019801","zcode":"11","zscode":"11560"},{"statNm":"영등포 제3공영","statId":"ME174034","addr":"서울특별시 영등포구 영중로3길 7","location":"null","lat":"37.5180087","lng":"126.9030865","zcode":"11","zscode":"11560"},{"statNm":"신창동 공영주차장","statId":"ME174035","addr":"서울특별시 용산구 원효로35길 53","location":"null","lat":"37.5353568","lng":"126.9552587","zcode":"11","zscode":"11170"},{"statNm":"한남동 공영주차장","statId":"ME174036","addr":"서울특별시 용산구 이태원로 224-19","location":"null","lat":"37.5349284","lng":"127.0002489","zcode":"11","zscode":"11170"},{"statNm":"현대자동차 수색대리점","statId":"ME174037","addr":"서울특별시 은평구 수색로 342-1","location":"null","lat":"37.5867665","lng":"126.8880299","zcode":"11","zscode":"11380"},{"statNm":"은평구민체육센터","statId":"ME174038","addr":"서울특별시 은평구 진관1로 40","location":"null","lat":"37.6310603","lng":"126.9246413","zcode":"11","zscode":"11380"},{"statNm":"태화빌딩","statId":"ME174039","addr":"서울특별시 종로구 인사동5길 29","location":"null","lat":"37.5718148","lng":"126.9850443","zcode":"11","zscode":"11110"},{"statNm":"한국예술종합학교(종로)","statId":"ME174040","addr":"서울특별시 종로구 창경궁로 215","location":"null","lat":"37.5824318","lng":"126.9974047","zcode":"11","zscode":"11110"},{"statNm":"국립극장","statId":"ME174041","addr":" 국립극장 좌측 출구 주차장","location":"null","lat":"37.5517908","lng":"127.0002167","zcode":"11","zscode":"11140"},{"statNm":"홈플러스 상봉점","statId":"ME174042","addr":"서울특별시 중랑구 망우로 353","location":"null","lat":"37.5983156","lng":"127.0905669","zcode":"11","zscode":"11260"},{"statNm":"홈플러스 신내점","statId":"ME174043","addr":"서울특별시 중랑구 신내로 201","location":"null","lat":"37.6159847","lng":"127.0939656","zcode":"11","zscode":"11260"},{"statNm":"용마폭포공원 공영주차장","statId":"ME174044","addr":"서울특별시 중랑구 용마산로 250-12","location":"null","lat":"37.5745068","lng":"127.089592","zcode":"11","zscode":"11260"},{"statNm":"서울만남휴게소(부산방향)","statId":"ME178009","addr":"서울특별시 서초구 양재대로12길 73-71 (원지동)","location":"null","lat":"37.4600218","lng":"127.0420378","zcode":"11","zscode":"11650"},{"statNm":"파크하얏트서울호텔","statId":"ME181101","addr":"서울특별시 강남구 테헤란로606","location":"null","lat":"37.508834","lng":"127.064114","zcode":"11","zscode":"11680"},{"statNm":"스위스그랜드호텔(구 그랜드힐튼호텔)","statId":"ME181102","addr":"서울특별시 서대문구 연희로 353","location":"null","lat":"37.590003","lng":"126.934744","zcode":"11","zscode":"11410"},{"statNm":"롯데 VIC마켓 금천점","statId":"ME181133","addr":"null","location":"null","lat":"37.470581","lng":"126.895698","zcode":"11","zscode":"11545"},{"statNm":"우리은행본점","statId":"ME181150","addr":"서울특별시 중구 소공로 51번지","location":"null","lat":"37.559534","lng":"126.981817","zcode":"11","zscode":"11140"},{"statNm":"마곡레포츠센터 ","statId":"ME183001","addr":"서울특별시 강서구 양천로 251, 입구 우측","location":"null","lat":"37.5728411","lng":"126.8323738","zcode":"11","zscode":"11500"},{"statNm":"창2동 제4공영주차장","statId":"ME183002","addr":"서울특별시 도봉구 창2동 582-22","location":"null","lat":"37.6413031","lng":"127.0364035","zcode":"11","zscode":"11320"},{"statNm":"창3동 제1공영주차장","statId":"ME183003","addr":"서울특별시 도봉구 창3동 504-21, 좌측 안쪽","location":"null","lat":"37.6332558","lng":"127.0412125","zcode":"11","zscode":"11320"},{"statNm":"창천공영주차장","statId":"ME183004","addr":"서울특별시 마포구 노고산동 33-1, B3 28","location":"null","lat":"37.55493","lng":"126.9389738","zcode":"11","zscode":"11440"},{"statNm":"번동햇살 공영주차장","statId":"ME183005","addr":"서울특별시 강북구 오현로 21길 84, 옥상 주차장","location":"null","lat":"37.6249449","lng":"127.0334805","zcode":"11","zscode":"11305"},{"statNm":"난향동 주민센터","statId":"ME183006","addr":"서울특별시 관악구 난곡로 67","location":"null","lat":"37.4616153","lng":"126.9189711","zcode":"11","zscode":"11620"},{"statNm":"시흥제4동공영주차장","statId":"ME183007","addr":"서울특별시 금천구 독산로 36나길 21, B1 18","location":"null","lat":"37.4589664","lng":"126.9084827","zcode":"11","zscode":"11545"},{"statNm":"쌍문3동 제2공영주차장","statId":"ME183008","addr":"서울특별시 도봉구 쌍문3동 315-62, 지하 1층 안쪽","location":"null","lat":"37.6493531","lng":"127.0293841","zcode":"11","zscode":"11320"},{"statNm":"스탠포드호텔코리아","statId":"ME183009","addr":"서울특별시 마포구 상암동 월드컵북로 58길 15, 지하4층 18","location":"null","lat":"37.5823581","lng":"126.886648","zcode":"11","zscode":"11440"},{"statNm":"국회도서관","statId":"ME183103","addr":"서울특별시 영등포구 의사당대로1, 국회도서관 앞","location":"null","lat":"37.5300002","lng":"126.9169991","zcode":"11","zscode":"11560"},{"statNm":"국회의원회관","statId":"ME183219","addr":"서울특별시 영등포구 의사당대로1, 국회의원회관 주차장 우측","location":"null","lat":"37.5284644","lng":"126.9149198","zcode":"11","zscode":"11560"},{"statNm":"노원에코센터","statId":"ME184075","addr":"서울특별시 노원구 덕릉로 450","location":"null","lat":"37.644779","lng":"127.059382","zcode":"11","zscode":"11350"},{"statNm":"영등포구청 환승공영주차장","statId":"ME184076","addr":"서울특별시 영등포구 양산로111","location":"null","lat":"37.524521","lng":"126.895436","zcode":"11","zscode":"11560"},{"statNm":"서울의료원","statId":"ME184077","addr":"서울특별시 중랑구 신내로 156","location":"null","lat":"37.6128457","lng":"127.0993409","zcode":"11","zscode":"11260"},{"statNm":"롯데 빅마켓","statId":"ME18A002","addr":"서울특별시 영등포구 영중로 125, 지상주차장(외부 1F)","location":"null","lat":"37.528123","lng":"126.904080","zcode":"11","zscode":"11560"},{"statNm":"성애병원","statId":"ME18B159","addr":"서울특별시 영등포구 여의대방로 53길 22","location":"null","lat":"37.51202","lng":"126.92238","zcode":"11","zscode":"11560"},{"statNm":"냉천길 공영주차장","statId":"ME18B160","addr":"서울특별시 강북구 삼양로 230-12","location":"null","lat":"37.62393","lng":"127.01953","zcode":"11","zscode":"11305"},{"statNm":"미아동 공영주차장","statId":"ME18B161","addr":"서울특별시 강북구 도봉로 61길 46","location":"null","lat":"37.62851","lng":"127.02233","zcode":"11","zscode":"11305"},{"statNm":"수유마을시장 공영주차장","statId":"ME18B162","addr":"서울특별시 강북구 도봉로 69길 29","location":"null","lat":"37.62047","lng":"127.02679","zcode":"11","zscode":"11305"},{"statNm":"개봉1동 주민센터 옆 공영주차장","statId":"ME18B163","addr":"서울특별시 구로구 개봉동 134-8","location":"null","lat":"37.50016","lng":"126.85106","zcode":"11","zscode":"11530"},{"statNm":"하늘공원주차장","statId":"ME18B164","addr":"서울특별시 구로구 벚꽃로 370 ","location":"null","lat":"37.48739","lng":"126.88051","zcode":"11","zscode":"11530"},{"statNm":"쌍문2동 제3공영주차장","statId":"ME18B165","addr":"서울특별시 도봉구 쌍문2동 710-4","location":"null","lat":"37.66116","lng":"127.03864","zcode":"11","zscode":"11320"},{"statNm":"서초구청","statId":"ME18B166","addr":"서울특별시 서초구 남부순환로 2584","location":"null","lat":"37.48358","lng":"127.03269","zcode":"11","zscode":"11650"},{"statNm":"북한산국립공원 정릉탐방지원센터","statId":"ME18B167","addr":"서울특별시 성북구 정릉동 829-1","location":"null","lat":"37.61846","lng":"126.99690","zcode":"11","zscode":"11290"},{"statNm":"북한산국립공원주차장","statId":"ME18B168","addr":"서울특별시 은평구 진관동 278","location":"null","lat":"37.65584","lng":"126.94885","zcode":"11","zscode":"11380"},{"statNm":"부암동 주민센터","statId":"ME18B169","addr":"서울특별시 종로구 창의문로 145","location":"null","lat":"37.59246","lng":"126.96412","zcode":"11","zscode":"11110"},{"statNm":"SETEC","statId":"ME18B170","addr":"서울특별시 강남구 남부순환로3104","location":"null","lat":"37.49584","lng":"127.07223","zcode":"11","zscode":"11680"},{"statNm":"논현로22길 공영주차장","statId":"ME18B171","addr":"서울특별시 강남구 개포로 25길 32","location":"null","lat":"37.48151","lng":"127.04851","zcode":"11","zscode":"11680"},{"statNm":"대청역 공영주차장","statId":"ME18B172","addr":"서울특별시 강남구 개포동 13-2","location":"null","lat":"37.49491","lng":"127.07928","zcode":"11","zscode":"11680"},{"statNm":"압구정로29길 공영노상주차장","statId":"ME18B173","addr":"서울특별시 강남구 압구정동 453","location":"null","lat":"37.52968","lng":"127.02782","zcode":"11","zscode":"11680"},{"statNm":"가오리 공영주차장","statId":"ME18B174","addr":"서울특별시 강북구 삼양로107길 30","location":"null","lat":"37.64152","lng":"127.01495","zcode":"11","zscode":"11305"},{"statNm":"가양레포츠센터","statId":"ME18B175","addr":"서울특별시 강서구 양천로61길 101","location":"null","lat":"37.56198","lng":"126.86373","zcode":"11","zscode":"11500"},{"statNm":"강서구민올림픽체육센터","statId":"ME18B176","addr":"null","location":"null","lat":"37.55962","lng":"126.85057","zcode":"11","zscode":"11500"},{"statNm":"상계2동 공영주차장","statId":"ME18B177","addr":"서울특별시 노원구 상계2동 373-13","location":"null","lat":"37.65668","lng":"127.06751","zcode":"11","zscode":"11350"},{"statNm":"DMC 산학협력연구센터","statId":"ME18B178","addr":"서울특별시 마포구 매봉산로 37","location":"null","lat":"37.57600","lng":"126.89053","zcode":"11","zscode":"11440"},{"statNm":"마천동2공영주차장","statId":"ME18B179","addr":"서울특별시 송파구 성내천로299-7","location":"null","lat":"37.49427","lng":"127.15624","zcode":"11","zscode":"11710"},{"statNm":"거여동공영주차장","statId":"ME18B180","addr":"서울특별시 송파구 오금로68길8","location":"null","lat":"37.49223","lng":"127.15033","zcode":"11","zscode":"11710"},{"statNm":"천마공영주차장","statId":"ME18B181","addr":"서울특별시 송파구 성내천로33가길20","location":"null","lat":"37.50028","lng":"127.15482","zcode":"11","zscode":"11710"},{"statNm":"이태원2동공영주차장","statId":"ME18B182","addr":"서울특별시 용산구 회나무로 55？ ","location":"null","lat":"37.54034","lng":"126.99267","zcode":"11","zscode":"11170"},{"statNm":"이마트 은평점","statId":"ME18B183","addr":"null","location":"null","lat":"37.60077","lng":"126.92049","zcode":"11","zscode":"11380"},{"statNm":"신월5동 주민센터","statId":"ME18B184","addr":"서울특별시 양천구 화곡로4길 10","location":"null","lat":"37.53852","lng":"126.82716","zcode":"11","zscode":"11470"},{"statNm":"신정1동 주민센터","statId":"ME18B185","addr":"서울특별시 양천구 중앙로 32길 1","location":"null","lat":"37.51855","lng":"126.85429","zcode":"11","zscode":"11470"},{"statNm":"목2동 주민센터","statId":"ME18B186","addr":"서울특별시 양천구 목동 중앙본로 120","location":"null","lat":"37.54610","lng":"126.87168","zcode":"11","zscode":"11470"},{"statNm":"송정동 공영주차장","statId":"ME18B187","addr":"서울특별시 성동구 동일로 199","location":"null","lat":"37.54988","lng":"127.06804","zcode":"11","zscode":"11200"},{"statNm":"sh서울주택도시공사","statId":"ME18B278","addr":"서울특별시 강남구 개포로 621","location":"null","lat":"37.49414","lng":"127.07879","zcode":"11","zscode":"11680"},{"statNm":"강동구청","statId":"ME18B279","addr":"서울특별시 강동구 성내로 25","location":"null","lat":"37.53025","lng":"127.12379","zcode":"11","zscode":"11740"},{"statNm":"홈플러스 금천점","statId":"ME18B280","addr":"서울특별시 금천구 시흥대로 391","location":"null","lat":"37.46864","lng":"126.89681","zcode":"11","zscode":"11545"},{"statNm":"도봉산환승주차장","statId":"ME18B281","addr":"서울특별시 도봉구 도봉동 341-1","location":"null","lat":"37.69000","lng":"127.04325","zcode":"11","zscode":"11320"},{"statNm":"도봉구청","statId":"ME18B282","addr":"서울특별시 도봉구 마들로 656","location":"null","lat":"37.66862","lng":"127.04704","zcode":"11","zscode":"11320"},{"statNm":"마장축산물시장 서문 공영주차장","statId":"ME18B283","addr":"서울특별시 성동구 고산자로 26길 6","location":"null","lat":"37.57041","lng":"127.03833","zcode":"11","zscode":"11200"},{"statNm":"서울약령시 공영주차장","statId":"ME18B284","addr":"서울특별시 동대문구 약령중앙로 26","location":"null","lat":"37.58051","lng":"127.03715","zcode":"11","zscode":"11230"},{"statNm":"롯데마트 서울양평점","statId":"ME18B285","addr":"서울특별시 영등포구 선유로 138","location":"null","lat":"37.52604","lng":"126.89173","zcode":"11","zscode":"11560"},{"statNm":"도봉기적의도서관","statId":"ME18B286","addr":"서울특별시 도봉구 마들로 797","location":"null","lat":"37.68090660","lng":"127.05034377","zcode":"11","zscode":"11215"},{"statNm":"구파발광역환승센터 주차장","statId":"ME18B287","addr":"지상 3층","location":"null","lat":"37.637968","lng":"126.91937","zcode":"11","zscode":"11380"},{"statNm":"서울역사박물관","statId":"ME18B288","addr":"서울특별시 종로구 새문안로 55","location":"null","lat":"37.57005","lng":"126.97053","zcode":"11","zscode":"11110"},{"statNm":"신정3동 넓은들 민원센터","statId":"ME18B289","addr":"서울특별시 양천구 남부순환로 88길 5-7","location":"null","lat":"37.51130","lng":"126.84145","zcode":"11","zscode":"11470"},{"statNm":"용답동 공영주차장","statId":"ME18B290","addr":"서울특별시 성동구 용답동 4-1","location":"null","lat":"37.56452","lng":"127.05429","zcode":"11","zscode":"11200"},{"statNm":"마포공영주차장","statId":"ME18B406","addr":"서울특별시 마포구 마포대로1길 9","location":"null","lat":"37.53853862","lng":"126.94344032","zcode":"11","zscode":"11440"},{"statNm":"롯데백화점 본점","statId":"ME18B407","addr":"서울특별시 중구 을지로 30","location":"null","lat":"37.56499","lng":"126.98136","zcode":"11","zscode":"11140"},{"statNm":"성수2가 공영주차장","statId":"ME18B408","addr":"서울특별시 성동구 광나루로4가길 23","location":"null","lat":"37.54909","lng":"127.05516","zcode":"11","zscode":"11200"},{"statNm":"충현동 제1공영주차장","statId":"ME19A149","addr":"서울특별시 서대문구 충정로2가 78-13","location":"null","lat":"37.5646084","lng":"126.964361","zcode":"11","zscode":"11410"},{"statNm":"남가좌2동 공영주차장","statId":"ME19A150","addr":"서울특별시 서대문구 남가좌2동 3-75","location":"null","lat":"37.583014499999","lng":"126.9231095","zcode":"11","zscode":"11410"},{"statNm":"미도아파트 앞 공영주차장","statId":"ME19A151","addr":"서울특별시 서초구 반포동 49-8","location":"null","lat":"37.499812075338","lng":"127.010502727","zcode":"11","zscode":"11650"},{"statNm":"올림픽공원","statId":"ME19A152","addr":"서울특별시 송파구 올림픽로 424 ","location":"null","lat":"37.5171577","lng":"127.115847","zcode":"11","zscode":"11710"},{"statNm":"구민회관","statId":"ME19A153","addr":"서울특별시 송파구 백제고분로 242","location":"null","lat":"37.502451999999","lng":"127.093104199","zcode":"11","zscode":"11710"},{"statNm":"문화회관동측 주차장","statId":"ME19A154","addr":"서울특별시 양천구 신정6동 322-5","location":"null","lat":"37.516768299999","lng":"126.863562699","zcode":"11","zscode":"11470"},{"statNm":"곰달래공영주차장","statId":"ME19A155","addr":"서울특별시 양천구 곰달래로10길 4","location":"null","lat":"37.5295552","lng":"126.83577059999","zcode":"11","zscode":"11470"},{"statNm":"다락골공영주차장","statId":"ME19A156","addr":"서울특별시 양천구 중앙로29길 41","location":"null","lat":"37.5163711","lng":"126.8492558","zcode":"11","zscode":"11470"},{"statNm":"일원2동 주민센터","statId":"ME19A157","addr":"서울특별시 강남구 개포로 607","location":"null","lat":"37.4919959","lng":"127.0738859","zcode":"11","zscode":"11680"},{"statNm":"목4동주민센터","statId":"ME19A158","addr":"서울특별시 양천구 목동중앙로 25 ","location":"null","lat":"37.5324277","lng":"126.8686162","zcode":"11","zscode":"11470"},{"statNm":"한국장애인개발원 본사","statId":"ME19A159","addr":"서울특별시 영등포구 의사당대로 22","location":"null","lat":"37.5269301","lng":"126.91793819999","zcode":"11","zscode":"11560"},{"statNm":"영등포본동제1(공영주차장)","statId":"ME19A160","addr":"서울특별시 영등포구 영신로 10길 15","location":"null","lat":"37.514279899999","lng":"126.9093244","zcode":"11","zscode":"11560"},{"statNm":"마포중앙도서관","statId":"ME19A164","addr":"서울특별시 마포구 성산로 128","location":"null","lat":"37.563642399999","lng":"126.908286399","zcode":"11","zscode":"11440"},{"statNm":"강남구청 삼성로 별관 부설 주차장","statId":"ME19A166","addr":"서울특별시 강남구 삼성로 628","location":"null","lat":"37.516178906156","lng":"127.052003282","zcode":"11","zscode":"11680"},{"statNm":"국방부 서문 주차장","statId":"ME19A170","addr":"서울특별시 용산구 한강대로 62다길 42","location":"null","lat":"37.5331513","lng":"126.975461","zcode":"11","zscode":"11170"},{"statNm":"일원본동 주민센터","statId":"ME19A171","addr":"서울특별시 강남구 광평로 126","location":"null","lat":"37.483375399999","lng":"127.086393199","zcode":"11","zscode":"11680"},{"statNm":"탄천물재생센터","statId":"ME19A243","addr":"서울특별시 강남구 개포로 625","location":"null","lat":"37.4959067","lng":"127.0799979","zcode":"11","zscode":"11680"},{"statNm":"한국원자력의학원 본사","statId":"ME19A244","addr":"서울특별시 노원구 노원로75","location":"null","lat":"37.628190798088","lng":"127.083195864","zcode":"11","zscode":"11350"},{"statNm":"상암1 공영주차장","statId":"ME19A245","addr":"서울특별시 마포구 성암로 197","location":"null","lat":"37.577011200000","lng":"126.8973596","zcode":"11","zscode":"11440"},{"statNm":"Park M (주차복합빌딩)","statId":"ME19A246","addr":"서울특별시 마포구 매봉산로 80","location":"null","lat":"37.57852958","lng":"126.89428612","zcode":"11","zscode":"11440"},{"statNm":"시민의숲동측 공영주차장2","statId":"ME19A247","addr":"서울특별시 서초구 양재동 237","location":"null","lat":"37.471742268","lng":"127.0382062","zcode":"11","zscode":"11650"},{"statNm":"시민의숲동측 공영주차장","statId":"ME19A248","addr":"서울특별시 서초구 양재동 237","location":"null","lat":"37.471742268304","lng":"127.038053030","zcode":"11","zscode":"11650"},{"statNm":"성수 2가1동 공영주차장","statId":"ME19A249","addr":"서울특별시 성동구 성덕정길 115","location":"null","lat":"37.5370292","lng":"127.0563866","zcode":"11","zscode":"11200"},{"statNm":"하왕십리 공영주차장","statId":"ME19A250","addr":"서울특별시 성동구 무학봉15길 48","location":"null","lat":"37.5602689","lng":"127.0278376","zcode":"11","zscode":"11200"},{"statNm":"강변 공영주차장","statId":"ME19A251","addr":"서울특별시 성동구 둘레길 47-5","location":"null","lat":"37.5369369","lng":"127.0491411","zcode":"11","zscode":"11200"},{"statNm":"응봉동 공영주차장","statId":"ME19A252","addr":"서울특별시 성동구 독서당로63길 40","location":"null","lat":"37.5544151","lng":"127.03102999999","zcode":"11","zscode":"11200"},{"statNm":"해누리타운","statId":"ME19A253","addr":"서울특별시 양천구 목동동로81","location":"null","lat":"37.5160286","lng":"126.8639009","zcode":"11","zscode":"11470"},{"statNm":"예금보험공사","statId":"ME19A254","addr":"서울특별시 중구 청계천로 30","location":"null","lat":"37.568494701606","lng":"126.980793568","zcode":"11","zscode":"11140"},{"statNm":"양화진 공영주차장","statId":"ME19A265","addr":"서울특별시 마포구 토정로 2","location":"null","lat":"37.545502369555","lng":"126.911413488","zcode":"11","zscode":"11440"},{"statNm":"롯데마트 은평점","statId":"ME19A274","addr":"서울특별시 은평구 통일로 1050","location":"null","lat":"37.6374578","lng":"126.9175874","zcode":"11","zscode":"11380"},{"statNm":"논현초교 공영노외주차장","statId":"ME19A277","addr":"서울특별시 강남구 강남대로120길 33","location":"null","lat":"37.5082482","lng":"127.02676569999","zcode":"11","zscode":"11680"},{"statNm":"강남치매지원센터 공영노외주차장","statId":"ME19A278","addr":"서울특별시 강남구 선릉로108길 27","location":"null","lat":"37.5100034","lng":"127.04605179999","zcode":"11","zscode":"11680"},{"statNm":"망원동 공영주차장1","statId":"ME19A601","addr":"서울특별시 마포구 동교로1길 39","location":"null","lat":"37.55503247","lng":"126.89778505","zcode":"11","zscode":"11440"},{"statNm":"압구정 428 공영주차장1","statId":"ME19A801","addr":"서울특별시 강남구 압구정로 161","location":"null","lat":"37.526628658353","lng":"127.0264263189","zcode":"11","zscode":"11680"},{"statNm":"서울 해군회관","statId":"ME19D118","addr":"서울특별시 영등포구 가마산로 540","location":"null","lat":"37.50421956","lng":"126.91605451","zcode":"11","zscode":"11560"},{"statNm":"서울올림픽공원 남2문주차장","statId":"ME19X403","addr":"서울특별시 송파구 올림픽로","location":"null","lat":"37.514973","lng":"127.123837","zcode":"11","zscode":"11710"},{"statNm":"롯데마트 중계점 야외주차장","statId":"ME19X417","addr":"서울특별시 노원구 노원로 ","location":"null","lat":"37.646872","lng":"127.070993","zcode":"11","zscode":"11350"},{"statNm":"서울 농수산식품공사 강서지부","statId":"ME19Y284","addr":"서울특별시 강서구 발산로 40","location":"null","lat":"37.551206","lng":"126.817967","zcode":"11","zscode":"11500"},{"statNm":"가락시장","statId":"ME19Y601","addr":"null","location":"null","lat":"37.494161","lng":"127.113843","zcode":"11","zscode":"11710"},{"statNm":"포이초교 공영노외주차장","statId":"ME20A193","addr":"서울특별시 강남구 개포동 1273","location":"null","lat":"37.475064","lng":"127.051703","zcode":"11","zscode":"11680"},{"statNm":"언주초교 공영노외주차장","statId":"ME20A194","addr":"서울특별시 강남구 도곡동 922","location":"null","lat":"37.486856","lng":"127.037584","zcode":"11","zscode":"11680"},{"statNm":"강남스포츠문화센터","statId":"ME20A195","addr":"서울특별시 강남구 수서동 718","location":"null","lat":"37.48871435","lng":"127.10522824","zcode":"11","zscode":"11680"},{"statNm":"압구정로29길 노상주차장","statId":"ME20A196","addr":"서울특별시 강남구 압구정동 453","location":"null","lat":"37.531468","lng":"127.027407","zcode":"11","zscode":"11680"},{"statNm":"길동복합청사","statId":"ME20A197","addr":"서울특별시 강동구 천호대로 1183","location":"null","lat":"37.5345623","lng":"127.1426858","zcode":"11","zscode":"11740"},{"statNm":"오동골프클럽","statId":"ME20A198","addr":"서울특별시 강북구 오현로 117","location":"null","lat":"37.623253","lng":"127.037312","zcode":"11","zscode":"11305"},{"statNm":"노원문화원","statId":"ME20A199","addr":"서울특별시 노원구 동일로197길 24","location":"null","lat":"37.628789","lng":"127.070204","zcode":"11","zscode":"11350"},{"statNm":"반포4동주민센터 공영주차장","statId":"ME20A1a0","addr":"서울특별시 서초구 사평대로28길 70","location":"null","lat":"37.496299","lng":"127.002285","zcode":"11","zscode":"11650"},{"statNm":"방배1동 공영주차장","statId":"ME20A1a1","addr":"서울특별시 서초구 방배로23길 31-6","location":"null","lat":"37.485166","lng":"126.992489","zcode":"11","zscode":"11650"},{"statNm":"무궁화 공영주차장","statId":"ME20A1a2","addr":"서울특별시 서초구 서초대로54길 45","location":"null","lat":"37.492899","lng":"127.01638","zcode":"11","zscode":"11650"},{"statNm":"청계산근린광장 공영주차장","statId":"ME20A1a3","addr":"서울특별시 서초구 원지동 361-1","location":"null","lat":"37.446130","lng":"127.056479","zcode":"11","zscode":"11650"},{"statNm":"양재근린공원 공영주차장","statId":"ME20A1a4","addr":"서울특별시 서초구 동산로 35","location":"null","lat":"37.475064","lng":"127.051703","zcode":"11","zscode":"11650"},{"statNm":"영등포본동제2공영주차장","statId":"ME20A1a5","addr":"서울특별시 영등포구 신길로60길 34","location":"null","lat":"37.513514","lng":"126.9139","zcode":"11","zscode":"11560"},{"statNm":"한국상하수도협회","statId":"ME20A1a6","addr":"서울특별시 영등포구 대림로 244","location":"null","lat":"37.502455","lng":"126.897106","zcode":"11","zscode":"11560"},{"statNm":"면목2동공영주차장","statId":"ME20A1a7","addr":"서울특별시 중랑구 겸재로23길 27","location":"null","lat":"37.58793511","lng":"127.0808933","zcode":"11","zscode":"11260"},{"statNm":"중화제1공영주차장","statId":"ME20A1a8","addr":"서울특별시 중랑구 중화동 73-5","location":"null","lat":"37.59871","lng":"127.072706","zcode":"11","zscode":"11260"},{"statNm":"중화제4공영주차장","statId":"ME20A1a9","addr":"서울특별시 중랑구 중화동 73-10","location":"null","lat":"37.595670","lng":"127.079469","zcode":"11","zscode":"11260"},{"statNm":"중랑역제1공영주차장","statId":"ME20A1b0","addr":"서울특별시 중랑구 중화동 73-6","location":"null","lat":"37.595325","lng":"127.077539","zcode":"11","zscode":"11260"},{"statNm":"광진문화예술회관","statId":"ME20A278","addr":"서울특별시 광진구 능동로 76","location":"null","lat":"37.5375337","lng":"127.0705319","zcode":"11","zscode":"11215"},{"statNm":"한국과학기술원 서울캠퍼스","statId":"ME20A279","addr":"서울특별시 동대문구 회기로 85","location":"null","lat":"37.5921192","lng":"127.0473764","zcode":"11","zscode":"11230"},{"statNm":"서울시설공단","statId":"ME20A280","addr":"서울특별시 성동구 청계천로 540","location":"null","lat":"37.571579","lng":"127.036101","zcode":"11","zscode":"11200"},{"statNm":"현대백화점 목동점","statId":"ME20A301","addr":"서울특별시 양천구 목동동로 257","location":"null","lat":"37.526755","lng":"126.875324","zcode":"11","zscode":"11470"},{"statNm":"마포구청","statId":"ME20A409","addr":"서울특별시 마포구 월드컵로 212","location":"null","lat":"37.567121","lng":"126.9017038","zcode":"11","zscode":"11440"},{"statNm":"국회 서편 주차장","statId":"ME20A410","addr":"서울특별시 영등포구 여의도동 1","location":"null","lat":"37.5318027","lng":"126.9127433","zcode":"11","zscode":"11560"},{"statNm":"국회 헌정기념관 주차장","statId":"ME20A411","addr":"서울특별시 영등포구 여의도동 1","location":"null","lat":"37.53175","lng":"126.919483","zcode":"11","zscode":"11560"},{"statNm":"한국교통안전공단 구로자동차검사소","statId":"ME21A114","addr":"서울특별시 구로구 경인로 113","location":"null","lat":"37.4923673","lng":"126.8345242","zcode":"11","zscode":"11530"},{"statNm":"금천종합복지타운","statId":"ME21A128","addr":"서울특별시 금천구 금하로 764","location":"null","lat":"37.4498682","lng":"126.914594","zcode":"11","zscode":"11545"},{"statNm":"화곡6-1 공영주차장","statId":"ME21B131","addr":"서울특별시 강서구 우장산로 114","location":"null","lat":"37.5529955","lng":"126.8484225","zcode":"11","zscode":"11500"},{"statNm":"볏골공원 공영주차장","statId":"ME21B132","addr":"서울특별시 강서구 까치산로4길 22","location":"null","lat":"37.5413318","lng":"126.8444607","zcode":"11","zscode":"11500"},{"statNm":"화곡8-2 공영주차장","statId":"ME21B133","addr":"서울특별시 강서구 초록마을로 126","location":"null","lat":"37.5376322","lng":"126.8504106","zcode":"11","zscode":"11500"},{"statNm":"쌍문1동 2공영주차장","statId":"ME21B157","addr":"서울특별시 도봉구 쌍문1동 378-35","location":"null","lat":"37.6485169","lng":"127.02579","zcode":"11","zscode":"11320"},{"statNm":"번동 햇살 공영주차장","statId":"ME21B164","addr":"서울특별시 강북구 오현로21길 84","location":"null","lat":"37.624958","lng":"127.0332077","zcode":"11","zscode":"11305"},{"statNm":"자양2동 유수지 주차장","statId":"ME21B168","addr":"서울특별시 광진구 뚝섬로52길 74-1","location":"null","lat":"37.5299304","lng":"127.0770995","zcode":"11","zscode":"11215"},{"statNm":"서울서부경찰서","statId":"ME21B171","addr":"서울특별시 은평구 진흥로 58","location":"null","lat":"37.6020296","lng":"126.9214743","zcode":"11","zscode":"11380"},{"statNm":"서울마포경찰서","statId":"ME21B180","addr":"서울특별시 마포구 마포대로 183","location":"null","lat":"37.5507749","lng":"126.9545677","zcode":"11","zscode":"11440"},{"statNm":"석관동주민센터","statId":"ME21B1C3","addr":"서울특별시 성북구 화랑로 296","location":"null","lat":"37.6130724","lng":"127.0615437","zcode":"11","zscode":"11290"},{"statNm":"강서소방서","statId":"ME21B211","addr":"서울특별시 강서구 양천로 550","location":"null","lat":"37.5578757","lng":"126.8600664","zcode":"11","zscode":"11500"},{"statNm":"경찰청","statId":"ME21B244","addr":"서울특별시 서대문구 통일로 97","location":"null","lat":"37.5637284","lng":"126.9676791","zcode":"11","zscode":"11410"},{"statNm":"동대문소방서","statId":"ME21B245","addr":"서울특별시 동대문구 장한로 34","location":"null","lat":"37.5639551","lng":"127.0668587","zcode":"11","zscode":"11230"},{"statNm":"남부수도사업소","statId":"ME21B305","addr":"서울특별시 동작구 여의대방로10길 97","location":"null","lat":"37.4921248","lng":"126.914969","zcode":"11","zscode":"11590"},{"statNm":"서울지방경찰청","statId":"ME21B309","addr":"서울특별시 종로구 사직로8길 31","location":"null","lat":"37.5744383","lng":"126.972475","zcode":"11","zscode":"11110"},{"statNm":"우이동교통광장","statId":"ME21B404","addr":"서울특별시 강북구 우이동 산101-5","location":"null","lat":"37.6636517","lng":"127.0129549","zcode":"11","zscode":"11305"},{"statNm":"마포소금나루도서관","statId":"ME21B412","addr":"서울특별시 마포구 염리동 61-4","location":"null","lat":"37.5495525","lng":"126.9460746","zcode":"11","zscode":"11440"},{"statNm":"답십리1동주민센터","statId":"ME21C250","addr":"서울특별시 동대문구 사가정로 30","location":"null","lat":"37.571706","lng":"127.051358","zcode":"11","zscode":"11230"},{"statNm":"서울강서경찰서","statId":"ME21C251","addr":"서울특별시 강서구 화곡로 308","location":"null","lat":"37.5513434","lng":"126.8494797","zcode":"11","zscode":"11500"},{"statNm":"개포동공원 공영주차장","statId":"ME21D045","addr":"서울특별시 강남구 개포로 509","location":"null","lat":"37.4895951","lng":"127.0683327","zcode":"11","zscode":"11680"},{"statNm":"탄천제2호 공영주차장","statId":"ME21D046","addr":"서울특별시 강남구 일원동 4-49","location":"null","lat":"37.493808","lng":"127.0872546","zcode":"11","zscode":"11680"},{"statNm":"독산1동 공영주차장","statId":"ME21D047","addr":"서울특별시 금천구 범안로12가길 65","location":"null","lat":"37.4648944","lng":"126.8947719","zcode":"11","zscode":"11545"},{"statNm":"시설관리공단 마포유수지주차장","statId":"ME21D048","addr":"서울특별시 마포구 마포대로1길 19","location":"null","lat":"37.5394705","lng":"126.9430773","zcode":"11","zscode":"11440"},{"statNm":"은평구 갈현노인복지관","statId":"BNAA0101","addr":"서울특별시 은평구 통일로89길 12-6","location":"갈현노인복지관 주차장","lat":"37.6248739","lng":"126.918642","zcode":"11","zscode":"11380"},{"statNm":"서울 과학수사연구소","statId":"BNAA0102","addr":"서울특별시 양천구 지양로 139","location":"null","lat":"37.522982","lng":"126.826590","zcode":"11","zscode":"11470"},{"statNm":"강서구 등촌2-1공영주차장","statId":"BNAB0501","addr":"서울특별시 강서구 등촌로55길 33-16","location":"공영주차장","lat":"37.550236","lng":"126.862016","zcode":"11","zscode":"11500"},{"statNm":"서울 강북구 수유동 공영주차장","statId":"BNAB0530","addr":"서울특별시 강북구 수유동 294-31","location":"null","lat":"37.644274","lng":"127.012129","zcode":"11","zscode":"11305"},{"statNm":"방화동 승윤노블리안아파트","statId":"BNAG3201","addr":"서울특별시 강서구 방화대로40길 37","location":"승윤노블리안아파트 지하주차장","lat":"37.5710759","lng":"126.8187764","zcode":"11","zscode":"11500"},{"statNm":"생각공장 데시앙플렉스(성수동)","statId":"BNAH3301","addr":"서울특별시 성동구 아차산로17길 49","location":"지하4층 주차장","lat":"37.539479152","lng":"127.08428712","zcode":"11","zscode":"11200"},{"statNm":"한국과학기술원 도곡캠퍼스","statId":"BNAI4401","addr":"서울특별시 강남구 논현로28길 25","location":"도곡캠퍼스 주차장","lat":"37.483542","lng":"127.044011","zcode":"11","zscode":"11680"},{"statNm":"서울관악초등학교","statId":"BNAI4404","addr":"서울특별시 관악구 청룡4길 49","location":"null","lat":"37.480976","lng":"126.943665","zcode":"11","zscode":"11620"},{"statNm":"KBS 별관 주차장","statId":"BNAJ5401","addr":"서울특별시 영등포구 여의대방로 359","location":"주차장","lat":"37.518587","lng":"126.929428","zcode":"11","zscode":"11560"},{"statNm":"서울본부세관","statId":"BNAJ5402","addr":"서울특별시 강남구 언주로 721","location":"주차장","lat":"37.518303","lng":"127.033965","zcode":"11","zscode":"11680"},{"statNm":"여의도순복음교회","statId":"CSCS1002","addr":"서울특별시 영등포구 은행로 55","location":"주차장","lat":"37.53049","lng":"126.924169","zcode":"11","zscode":"11560"},{"statNm":"현대리버빌","statId":"CSHD0001","addr":"서울특별시 광진구 아차산로78가길 17","location":"주차장","lat":"37.549314","lng":"127.109640","zcode":"11","zscode":"11215"},{"statNm":"한국수출입은행","statId":"CSKS0001","addr":"서울특별시 영등포구 은행로 38","location":"주차장","lat":"37.528570","lng":"126.923396","zcode":"11","zscode":"11560"},{"statNm":"스마트중앙건설","statId":"CSSJ0001","addr":"서울특별시 중랑구 망우로 236","location":"스마트중앙건설","lat":"37.594376","lng":"127.078760","zcode":"11","zscode":"11260"},{"statNm":"여의도순복음교회","statId":"CSYS0001","addr":"서울특별시 영등포구 은행로 55","location":"주차장","lat":"37.530490","lng":"126.924169","zcode":"11","zscode":"11560"},{"statNm":"신일아르디세","statId":"CU020001","addr":"서울특별시 영등포구 선유로17길 24","location":"지하주차장 B1","lat":"37.521086","lng":"126.88698","zcode":"11","zscode":"11560"},{"statNm":"역삼SK리더스뷰","statId":"CU020002","addr":"서울특별시 강남구 봉은사로 302","location":"지하주차장B3","lat":"37.5086636","lng":"127.0394281","zcode":"11","zscode":"11680"},{"statNm":"화온건설","statId":"CU200008","addr":"서울특별시 구로구 오리로22나길 30","location":"궁동136-12 어스빌리지","lat":"37.500397","lng":"126.830558","zcode":"11","zscode":"11530"},{"statNm":"E편한세상서울대1단지","statId":"CU200009","addr":"서울특별시 관악구 청룡10길 45","location":"null","lat":"37.478396","lng":"126.943047","zcode":"11","zscode":"11620"},{"statNm":"E편한세상서울대2단지","statId":"CU200010","addr":"서울특별시 관악구 청룡16길 43","location":"null","lat":"37.476938","lng":"126.943054","zcode":"11","zscode":"11620"},{"statNm":"한성건설","statId":"CU200011","addr":"서울특별시 양천구 오목로11길 19","location":"null","lat":"37.524360","lng":"126.844295","zcode":"11","zscode":"11470"},{"statNm":"솔텍(신월)","statId":"CU200012","addr":"서울특별시 양천구 오목로7길 32","location":"null","lat":"37.5248949","lng":"126.840947","zcode":"11","zscode":"11470"},{"statNm":"솔텍(화곡)","statId":"CU200013","addr":"서울특별시 강서구 가로공원로84길 26","location":"null","lat":"37.5365710","lng":"126.840412","zcode":"11","zscode":"11500"},{"statNm":"태혁종합건설","statId":"CU200014","addr":"서울특별시 중랑구 양원역로8길 25","location":"null","lat":"37.605190","lng":"127.108237","zcode":"11","zscode":"11260"},{"statNm":"보라매롯데낙천대아파트","statId":"CU200015","addr":"서울특별시 동작구 여의대방로10길 38","location":"null","lat":"37.4940583","lng":"126.914141","zcode":"11","zscode":"11590"},{"statNm":"송파삼성래미안","statId":"CU200016","addr":"서울특별시 송파구 오금로32길 14","location":"null","lat":"37.5046640","lng":"127.118821","zcode":"11","zscode":"11710"},{"statNm":"래미안프레비뉴","statId":"CU200017","addr":"서울특별시 영등포구 가마산로 442","location":"null","lat":"37.5049659","lng":"126.909503","zcode":"11","zscode":"11560"},{"statNm":"강북구청","statId":"CU200019","addr":"서울특별시 강북구 도봉로89길 13","location":"null","lat":"37.6391656","lng":"127.025425","zcode":"11","zscode":"11305"},{"statNm":"포레스트힐2차","statId":"CU200020","addr":"서울특별시 구로구 경인로 70","location":"null","lat":"37.4919781","lng":"126.838529","zcode":"11","zscode":"11530"},{"statNm":"강북장애인복지관","statId":"CU200021","addr":"서울특별시 강북구 오현로 189","location":"강북장애인복지관","lat":"37.6287737","lng":"127.039016","zcode":"11","zscode":"11305"},{"statNm":"양천문화회관","statId":"CU201001","addr":"서울특별시 양천구 목동서로 367","location":"도로옆지상주차장","lat":"37.5166513","lng":"126.8633139","zcode":"11","zscode":"11470"},{"statNm":"양천공원","statId":"CU201002","addr":"서울특별시 양천구 목동서로 301-21","location":"공원옆지상도로주차장","lat":"37.5190054","lng":"126.8685376","zcode":"11","zscode":"11470"},{"statNm":"목운중학교","statId":"CU201003","addr":"서울특별시 양천구 목동동로 235","location":"도로옆지상주차장","lat":"37.5272338","lng":"126.8724588","zcode":"11","zscode":"11470"},{"statNm":"목동로데오","statId":"CU201004","addr":"서울특별시 양천구 목동로25길 26","location":"입구 도로옆지상주차장","lat":"37.5283292","lng":"126.8612423","zcode":"11","zscode":"11470"},{"statNm":"양천파리공원","statId":"CU201005","addr":"서울특별시 양천구 목동동로 363","location":"공원옆지상도로주차장","lat":"37.5338904","lng":"126.8761365","zcode":"11","zscode":"11470"},{"statNm":"샤르망오피스텔","statId":"CU201006","addr":"서울특별시 양천구 월정로 101","location":"도로옆지상주차장","lat":"37.5284637","lng":"126.8390009","zcode":"11","zscode":"11470"},{"statNm":"신월 스위트드림","statId":"CU201007","addr":"서울특별시 양천구 곰달래로11길 56","location":"도로옆지상공영주차장","lat":"37.5346227","lng":"126.8344875","zcode":"11","zscode":"11470"},{"statNm":"잠실앙시레이크타워","statId":"CU640001","addr":"서울특별시 송파구 도곡로 450","location":"지하주차장","lat":"37.5054499","lng":"127.0782769","zcode":"11","zscode":"11710"},{"statNm":"용산아스테리움(1주차장)","statId":"CV000109","addr":"서울특별시 용산구 한강대로30길 25","location":"5층","lat":"37.5274013","lng":"126.9688295","zcode":"11","zscode":"11170"},{"statNm":"용산아스테리움(2주차장)","statId":"CV000110","addr":"서울특별시 용산구 한강대로30길 25","location":"2층","lat":"37.5274013","lng":"126.9688295","zcode":"11","zscode":"11170"},{"statNm":"수협중앙회","statId":"CV000111","addr":"서울특별시 송파구 오금로 62","location":"옥외주차장","lat":"37.516223","lng":"127.105749","zcode":"11","zscode":"11710"},{"statNm":"롯데캐슬골드(롯데쇼핑)","statId":"CV000114","addr":"서울특별시 송파구 올림픽로 269","location":"null","lat":"37.514515","lng":"127.100584","zcode":"11","zscode":"11710"},{"statNm":"크로바타워","statId":"CV000136","addr":"서울특별시 서초구 서초대로 347","location":"null","lat":"37.495666","lng":"127.019258","zcode":"11","zscode":"11650"},{"statNm":"이스타빌오피스텔","statId":"CV000178","addr":"서울특별시 강남구 도곡로 225","location":"null","lat":"37.4937143","lng":"127.0431144","zcode":"11","zscode":"11680"},{"statNm":"서울시 상수도사업본부","statId":"CV000183","addr":"서울특별시 서대문구 서소문로 51","location":"null","lat":"37.561949","lng":"126.966732","zcode":"11","zscode":"11410"},{"statNm":"서울시립대학교(100주년 기념관 지하1층)","statId":"CV000204","addr":"서울특별시 동대문구 서울시립대로 163","location":"null","lat":"37.584628","lng":"127.057001","zcode":"11","zscode":"11230"},{"statNm":"한국전기안전공사 서울서부지사","statId":"CV000239","addr":"서울특별시 영등포구 당산로33길 7","location":"null","lat":"37.527059","lng":"126.895874","zcode":"11","zscode":"11560"},{"statNm":"한국전기안전공사 서울북부지사","statId":"CV000240","addr":"서울특별시 도봉구 노해로67길 14","location":"null","lat":"37.652291","lng":"127.049379","zcode":"11","zscode":"11320"},{"statNm":"코위버","statId":"CV000258","addr":"서울특별시 강서구 마곡중앙8로7길 45","location":"null","lat":"37.5764888","lng":"126.8307466","zcode":"11","zscode":"11500"},{"statNm":"서울도시기반시설본부","statId":"CV000259","addr":"서울특별시 중구 청계천로 8","location":"null","lat":"37.568787","lng":"126.9782122","zcode":"11","zscode":"11140"},{"statNm":"샬레코리아","statId":"CV000262","addr":"서울특별시 영등포구 여의대방로65길 17","location":"null","lat":"37.5197067","lng":"126.9292034","zcode":"11","zscode":"11560"},{"statNm":"용산아스테리움","statId":"CV000288","addr":"서울특별시 용산구 한강대로30길 25","location":"null","lat":"37.5274013","lng":"126.9688295","zcode":"11","zscode":"11170"},{"statNm":"아주빌딩(아주산업)","statId":"CV000289","addr":"서울특별시 강남구 테헤란로 201","location":"null","lat":"37.501311","lng":"127.037178","zcode":"11","zscode":"11680"},{"statNm":"한국국토정보공사 서울지역본부 논현","statId":"CV000301","addr":"서울특별시 강남구 언주로 703","location":"null","lat":"37.516043","lng":"127.034881","zcode":"11","zscode":"11680"},{"statNm":"시민생활사박물관","statId":"CV000315","addr":"서울특별시 노원구 동일로174길 27","location":"null","lat":"37.619857","lng":"127.076517","zcode":"11","zscode":"11350"},{"statNm":"서울기상청","statId":"CV000322","addr":"서울특별시 동작구 여의대방로16길 61","location":"null","lat":"37.494192","lng":"126.917608","zcode":"11","zscode":"11590"},{"statNm":"현우모터스","statId":"CV000405","addr":"서울특별시 서초구 서초대로 139","location":"null","lat":"37.489062","lng":"126.9973639","zcode":"11","zscode":"11650"},{"statNm":"한국국토정보공사 강남서초지사","statId":"CV000453","addr":"서울특별시 강남구 봉은사로114길 30","location":"null","lat":"37.513178","lng":"127.065386","zcode":"11","zscode":"11680"},{"statNm":"한국국토정보공사 서울중부지사","statId":"CV000454","addr":"서울특별시 성북구 고려대로7다길 8","location":"null","lat":"37.587772","lng":"127.020761","zcode":"11","zscode":"11290"},{"statNm":"한국국토정보공사 용산마포지사","statId":"CV000455","addr":"서울특별시 마포구 포은로 135","location":"null","lat":"37.558844","lng":"126.9033439","zcode":"11","zscode":"11440"},{"statNm":"한국국토정보공사 강동송파지사","statId":"CV000456","addr":"서울특별시 강동구 풍성로 144","location":"null","lat":"37.530977","lng":"127.127962","zcode":"11","zscode":"11740"},{"statNm":"넥센타이어(주)","statId":"CV000531","addr":"서울특별시 강서구 마곡중앙로 177","location":"지하1층","lat":"37.570016","lng":"126.827498","zcode":"11","zscode":"11500"},{"statNm":"파킹클라우드 주식회사","statId":"CV000572","addr":"서울특별시 구로구 구일로8길 140","location":"null","lat":"37.49822","lng":"126.8772219","zcode":"11","zscode":"11530"},{"statNm":"포르쉐 HPC 데스티네이션 이마트트레이더스 월계점","statId":"CV000582","addr":"서울특별시 노원구 마들로3길 15","location":"지상4층 주차장","lat":"37.626509","lng":"127.0619799","zcode":"11","zscode":"11350"},{"statNm":"진원종합관리주식회사","statId":"CV000589","addr":"서울특별시 노원구 노원로 3","location":"null","lat":"37.621993","lng":"127.086663","zcode":"11","zscode":"11350"},{"statNm":"화곡보람5차아파트","statId":"CV000592","addr":"서울특별시 강서구 월정로16길 38","location":"null","lat":"37.527659","lng":"126.842049","zcode":"11","zscode":"11500"},{"statNm":"아세아타워빌딩2","statId":"CV000605","addr":"서울특별시 강남구 논현로 430","location":"지하4층 실내주차장","lat":"37.499001","lng":"127.038355","zcode":"11","zscode":"11680"},{"statNm":"강동역두산위브센티움아파트","statId":"CV000626","addr":"서울특별시 강동구 성안로 155","location":"null","lat":"37.537236","lng":"127.134759","zcode":"11","zscode":"11740"},{"statNm":"송파호반베르디움더퍼스트","statId":"CV000639","addr":"서울특별시 송파구 동남로 342","location":"null","lat":"37.505558","lng":"127.139866","zcode":"11","zscode":"11710"},{"statNm":"은평구청","statId":"CV000643","addr":"서울특별시 은평구 은평로 195","location":"null","lat":"37.602792","lng":"126.92910299999","zcode":"11","zscode":"11380"},{"statNm":"포르쉐 HPC 데스티네이션 이마트 성수점","statId":"CV000659","addr":"서울특별시 성동구 뚝섬로 379","location":"지상5층 주차장","lat":"37.539929","lng":"127.0534939","zcode":"11","zscode":"11200"},{"statNm":"포르쉐 HPC 데스티네이션 이마트 양재점","statId":"CV000685","addr":"서울특별시 서초구 매헌로 16","location":"지하2층 실내주차장","lat":"37.463481","lng":"127.03696","zcode":"11","zscode":"11650"},{"statNm":"북한산드림시티1차","statId":"CV000691","addr":"서울특별시 도봉구 도봉로110마길 42","location":"null","lat":"37.644465000000","lng":"127.0361929999","zcode":"11","zscode":"11320"},{"statNm":"포르쉐 데스티네이션 그랜드워커힐 서울","statId":"CV000752","addr":"서울특별시 광진구 워커힐로 177","location":"null","lat":"37.557607","lng":"127.110977","zcode":"11","zscode":"11215"},{"statNm":"포르쉐 데스티네이션 비스타워커힐 서울","statId":"CV000753","addr":"서울특별시 광진구 워커힐로 177","location":"null","lat":"37.557607","lng":"127.110977","zcode":"11","zscode":"11215"},{"statNm":"아우디_서초 전시장","statId":"CV000756","addr":"서울특별시 서초구 반포대로12길 3","location":"null","lat":"37.484869000000","lng":"127.0114610000","zcode":"11","zscode":"11650"},{"statNm":"아우디_송파대로 전시장","statId":"CV000762","addr":"서울특별시 송파구 충민로2길 8","location":"null","lat":"37.479005000000","lng":"127.1266380000","zcode":"11","zscode":"11710"},{"statNm":"아우디_성수 서비스센터","statId":"CV000766","addr":"서울특별시 성동구 성수일로6길 10","location":"null","lat":"37.545103","lng":"127.05091999999","zcode":"11","zscode":"11200"},{"statNm":"아우디_영등포 서비스 센터","statId":"CV000767","addr":"서울특별시 영등포구 영신로 224","location":"null","lat":"37.527336","lng":"126.90366100000","zcode":"11","zscode":"11560"},{"statNm":"아우디_도곡로 전시장 150KW","statId":"CV000773","addr":"서울특별시 강남구 도곡로 121","location":"null","lat":"37.490391","lng":"127.03354700000","zcode":"11","zscode":"11680"},{"statNm":"아우디_도산대로 전시장","statId":"CV000775","addr":"서울특별시 강남구 도산대로 306","location":"null","lat":"37.521443999999","lng":"127.0348710000","zcode":"11","zscode":"11680"},{"statNm":"구의3동 공영주차장","statId":"CV000781","addr":"서울특별시 광진구 광나루로52길 83","location":"null","lat":"37.539152000000","lng":"127.0913630000","zcode":"11","zscode":"11215"},{"statNm":"아우디_대치 전시장","statId":"CV000784","addr":"서울특별시 강남구 영동대로 318","location":"null","lat":"37.503019000000","lng":"127.06699","zcode":"11","zscode":"11680"},{"statNm":"신정종합복지관","statId":"CV000788","addr":"서울특별시 양천구 신정중앙로 36","location":"null","lat":"37.527434","lng":"126.85547299999","zcode":"11","zscode":"11470"},{"statNm":"아우디_개포 서비스 센터","statId":"CV000790","addr":"서울특별시 강남구 논현로18길 9","location":"null","lat":"37.478001999999","lng":"127.0455609999","zcode":"11","zscode":"11680"},{"statNm":"아우디_남산 전시장","statId":"CV000793","addr":"서울특별시 중구 동호로 211","location":"null","lat":"37.55671399999","lng":"127.00884100000","zcode":"11","zscode":"11140"},{"statNm":"포르쉐 데스티네이션 반얀트리 클럽앤스파","statId":"CV000820","addr":"서울특별시 중구 장충단로 60","location":"null","lat":"37.550071","lng":"127.000497","zcode":"11","zscode":"11140"},{"statNm":"양천구중앙도서관","statId":"CV000823","addr":"서울특별시 양천구 신정로7길 81","location":"null","lat":"37.513822013387","lng":"126.8333919590","zcode":"11","zscode":"11470"},{"statNm":"대학동주민센터","statId":"CV000825","addr":"서울특별시 관악구 신림로 111","location":"null","lat":"37.47058499999","lng":"126.9369599999","zcode":"11","zscode":"11620"},{"statNm":"서울중구청 전기차 집중충전소","statId":"CV000826","addr":"서울특별시 중구 퇴계로10길 29","location":"null","lat":"37.558435","lng":"126.9811149","zcode":"11","zscode":"11140"},{"statNm":"동화동 공영주차장","statId":"CV000833","addr":"서울특별시 중구 다산로36가길 14-3","location":"null","lat":"37.561612129","lng":"127.01890125","zcode":"11","zscode":"11140"},{"statNm":"행운동 공영주차장","statId":"CV000834","addr":"서울특별시 관악구 행운4길 21","location":"null","lat":"37.479778999","lng":"126.96048500","zcode":"11","zscode":"11620"},{"statNm":"창조융합연구동","statId":"CV000838","addr":"서울특별시 노원구 공릉로 232","location":"null","lat":"37.632288999","lng":"127.07916800","zcode":"11","zscode":"11350"},{"statNm":"EV스테이션강동","statId":"CV000840","addr":"서울특별시 강동구 천호대로 1221","location":"null","lat":"37.536051","lng":"127.146385","zcode":"11","zscode":"11740"},{"statNm":"고척동 제니스 아이스링크장","statId":"CV000842","addr":"서울특별시 구로구 안양천로537길 16","location":"null","lat":"37.503859000","lng":"126.86871600","zcode":"11","zscode":"11530"},{"statNm":"반포복개천공영주차장","statId":"CV000848","addr":"서울특별시 서초구 서초중앙로 255","location":"null","lat":"37.504295093","lng":"127.01008106","zcode":"11","zscode":"11650"},{"statNm":"홈플러스 강서점(본사)","statId":"CV000857","addr":"서울특별시 강서구 화곡로 398","location":"null","lat":"37.5584425","lng":"126.8547893","zcode":"11","zscode":"11500"},{"statNm":"포르쉐 데스티네이션 홈플러스 본사(강서점)","statId":"CV000858","addr":"서울특별시 강서구 화곡로 398","location":"null","lat":"37.5584281","lng":"126.854901","zcode":"11","zscode":"11500"},{"statNm":"현대계동 본사","statId":"CV000860","addr":"서울특별시 종로구 율곡로 75","location":"null","lat":"37.578184","lng":"126.98751","zcode":"11","zscode":"11110"},{"statNm":"효성빌라청담101","statId":"CV000868","addr":"서울특별시 강남구 압구정로71길 28","location":"null","lat":"37.528218","lng":"127.046477","zcode":"11","zscode":"11680"},{"statNm":"마곡엠밸리9단지","statId":"CV000870","addr":"서울특별시 강서구 공항대로 103","location":"null","lat":"37.561907","lng":"126.818609","zcode":"11","zscode":"11500"},{"statNm":"신당동 공공복합청사","statId":"CV000876","addr":"서울특별시 중구 다산로33길 3","location":"null","lat":"37.562018999","lng":"127.01445199","zcode":"11","zscode":"11140"},{"statNm":"밤고개로21길 공영주차장","statId":"CV000883","addr":"서울특별시 강남구 밤고개로21길 71","location":"null","lat":"37.474252000","lng":"127.11416600","zcode":"11","zscode":"11680"},{"statNm":"남부초 공영주차장","statId":"CV000885","addr":"서울특별시 관악구 남부순환로163길 14","location":"null","lat":"37.485083000","lng":"126.92215600","zcode":"11","zscode":"11620"},{"statNm":"염리공영주차장","statId":"CV000887","addr":"서울특별시 마포구 큰우물로 61","location":"null","lat":"37.54199400","lng":"126.94520799","zcode":"11","zscode":"11440"},{"statNm":"포르쉐 HPC 데스티네이션 서울 웨스틴 조선 호텔","statId":"CV000888","addr":"서울특별시 중구 소공로 106","location":"null","lat":"37.564462999","lng":"126.98020500","zcode":"11","zscode":"11140"},{"statNm":"서울특별시 서울시립대","statId":"CV000895","addr":"서울특별시 동대문구 서울시립대로 163","location":"null","lat":"37.583377999","lng":"127.05930899","zcode":"11","zscode":"11230"},{"statNm":"위례지구 18단지","statId":"CV000911","addr":"서울특별시 송파구 위례서이로 25","location":"null","lat":"37.493193","lng":"127.137845","zcode":"11","zscode":"11710"},{"statNm":"위례지구 13단지","statId":"CV000913","addr":"서울특별시 송파구 위례서이로 25","location":"null","lat":"37.48250199","lng":"127.13819199","zcode":"11","zscode":"11710"},{"statNm":"포르쉐 HPC 에스-오일 예술의전당앞주유소","statId":"CV000920","addr":"서울특별시 서초구 남부순환로 2391","location":"null","lat":"37.480557","lng":"127.011981","zcode":"11","zscode":"11650"},{"statNm":"등나무근린공원 공영주차장","statId":"CV000938","addr":"서울특별시 노원구 동일로204가길 41-2","location":"null","lat":"37.640994008","lng":"127.0674399","zcode":"11","zscode":"11350"},{"statNm":"북한산 진관사공영주차장","statId":"CV000939","addr":"서울특별시 은평구 진관길 46","location":"null","lat":"37.64070746","lng":"126.94293086","zcode":"11","zscode":"11380"},{"statNm":"위례포레샤인17단지","statId":"CV000940","addr":"서울특별시 송파구 위례송파로 123","location":"실내","lat":"37.4857471","lng":"127.1479273","zcode":"11","zscode":"11710"},{"statNm":"위례지구 15단지","statId":"CV000941","addr":"서울특별시 송파구 위례송파로 89","location":"실내(부분개방_일부 이용자 제한 가능)","lat":"37.48630833","lng":"127.1446640","zcode":"11","zscode":"11710"},{"statNm":"신월6동복합청사","statId":"CV000949","addr":"서울특별시 양천구 남부순환로83길 47","location":"신월6동복합청사(실외)","lat":"37.517957024","lng":"126.84518294","zcode":"11","zscode":"11470"},{"statNm":"마포 T 타운","statId":"CV000953","addr":"서울특별시 마포구 마포대로 144","location":"실내","lat":"37.54699300","lng":"126.95376300","zcode":"11","zscode":"11440"},{"statNm":"노원에코센터","statId":"CV000963","addr":"서울특별시 노원구 덕릉로 460","location":"null","lat":"37.644399000","lng":"127.05994699","zcode":"11","zscode":"11350"},{"statNm":"청솔프라자","statId":"CV000973","addr":"서울특별시 구로구 서해안로 2096","location":"null","lat":"37.479767662","lng":"126.82311689","zcode":"11","zscode":"11530"},{"statNm":"망원동 공영주차장","statId":"CV000974","addr":"서울특별시 마포구 동교로1길 45","location":"null","lat":"37.555860999","lng":"126.89668400","zcode":"11","zscode":"11440"},{"statNm":"서울특별시 서울시립대학교(법학관주차장)","statId":"CV000993","addr":"서울특별시 동대문구 서울시립대로 163","location":"법학관 주차장 (실외)","lat":"37.583990159","lng":"127.05803226","zcode":"11","zscode":"11230"},{"statNm":"염리동종합사회복지관","statId":"CV000995","addr":"서울특별시 마포구 대흥로24길 50","location":"실외","lat":"37.541854999","lng":"126.95659599","zcode":"11","zscode":"11440"},{"statNm":"서일대학교","statId":"CV001011","addr":"서울특별시 중랑구 용마산로90길 28","location":"null","lat":"37.58610000","lng":"127.09722199","zcode":"11","zscode":"11260"},{"statNm":"광진정보도서관","statId":"CV001017","addr":"서울특별시 광진구 아차산로78길 90","location":"null","lat":"37.550881999","lng":"127.11049899","zcode":"11","zscode":"11215"},{"statNm":"한국타이어 역삼사옥","statId":"CV001027","addr":"서울특별시 강남구 테헤란로 133","location":"null","lat":"37.500138","lng":"127.03345100","zcode":"11","zscode":"11680"},{"statNm":"용산주차빌딩","statId":"CV001043","addr":"서울특별시 용산구 새창로49길 42","location":"null","lat":"37.534272000","lng":"126.96531800","zcode":"11","zscode":"11170"},{"statNm":"KTnG 영등포지사","statId":"CV001049","addr":"서울특별시 영등포구 선유로 11","location":"null","lat":"37.515746","lng":"126.887575","zcode":"11","zscode":"11560"},{"statNm":"종묘공영주차장","statId":"CV001050","addr":"서울특별시 종로구 종로 157","location":"null","lat":"37.57299000","lng":"126.99437000","zcode":"11","zscode":"11110"},{"statNm":"잠실역공영주차장","statId":"CV001061","addr":"서울특별시 송파구 올림픽로 299","location":"null","lat":"37.514970000","lng":"127.10424999","zcode":"11","zscode":"11710"},{"statNm":"사당노외공영주차장","statId":"CV001062","addr":"서울특별시 서초구 과천대로 950-18","location":"null","lat":"37.475251999","lng":"126.983983","zcode":"11","zscode":"11650"},{"statNm":"학여울역 환승공영주차장","statId":"CV001063","addr":"서울특별시 강남구 남부순환로 3104","location":"null","lat":"37.496027","lng":"127.07233600","zcode":"11","zscode":"11680"},{"statNm":"수서역공영주차장","statId":"CV001064","addr":"서울특별시 강남구 광평로 지하270","location":"수서역 1번출구 쪽 공영주차장","lat":"37.487522486","lng":"127.09996851","zcode":"11","zscode":"11680"},{"statNm":"구세군길 공영주차장","statId":"CV001069","addr":"서울특별시 강북구 인수봉로20가길 21","location":"null","lat":"37.626094999","lng":"127.013479","zcode":"11","zscode":"11305"},{"statNm":"한남동공영주차장","statId":"CV001082","addr":"서울특별시 용산구 이태원로 224-19","location":"null","lat":"37.534856","lng":"127.00028700","zcode":"11","zscode":"11170"},{"statNm":"한남유수지 공영주차장","statId":"CV001085","addr":"서울특별시 용산구 독서당로 18","location":"null","lat":"37.530022999","lng":"127.00739699","zcode":"11","zscode":"11170"},{"statNm":"청파동1마을공원 공영주차장","statId":"CV001086","addr":"서울특별시 용산구 원효로97길 50","location":"null","lat":"37.542771","lng":"126.96859500","zcode":"11","zscode":"11170"},{"statNm":"신천유수지주차장","statId":"CV001087","addr":"서울특별시 송파구 오금로2길 22","location":"null","lat":"37.521766487","lng":"127.10225300","zcode":"11","zscode":"11710"},{"statNm":"관악구민종합체육센터","statId":"CV001088","addr":"서울특별시 관악구 낙성대로3길 37","location":"null","lat":"37.473057000","lng":"126.96031899","zcode":"11","zscode":"11620"},{"statNm":"시흥5동 복합청사","statId":"CV001096","addr":"서울특별시 금천구 금하로24길 6","location":"null","lat":"37.450833000","lng":"126.90850299","zcode":"11","zscode":"11545"},{"statNm":"한국토지주택공사 서울지역본부 전기차 충전소","statId":"CV001098","addr":"서울특별시 강남구 선릉로121길 12","location":"null","lat":"37.514331000","lng":"127.04094999","zcode":"11","zscode":"11680"},{"statNm":"계남다목적체육관","statId":"CV001102","addr":"서울특별시 양천구 신정로 273-5","location":"야외주차장","lat":"37.513079999","lng":"126.85052300","zcode":"11","zscode":"11470"},{"statNm":"대림택시","statId":"CV001105","addr":"서울특별시 노원구 공릉로42길 107","location":"차고지","lat":"37.625679","lng":"127.08541700","zcode":"11","zscode":"11350"},{"statNm":"면목유수지 공영주차장","statId":"CV001112","addr":"서울특별시 중랑구 사가정로 332","location":"면목유수지 공영주차장 진입 후 오른쪽 제일 안쪽","lat":"37.580920680","lng":"127.08035780","zcode":"11","zscode":"11260"},{"statNm":"수서역(남)공영주차장","statId":"CV001117","addr":"서울특별시 강남구 광평로 지하270","location":"null","lat":"37.486847225","lng":"127.10102048","zcode":"11","zscode":"11680"},{"statNm":"덕수고등학교 주차장","statId":"CV001139","addr":"서울특별시 송파구 위례북로 10","location":"주차장 지하1층","lat":"37.485445999","lng":"127.14691299","zcode":"11","zscode":"11710"},{"statNm":"신신기업","statId":"CV001143","addr":"서울특별시 강서구 강서로 519-11","location":"null","lat":"37.571656","lng":"126.84127299","zcode":"11","zscode":"11500"},{"statNm":"국립대한민국임시정부기념관","statId":"CV001154","addr":"서울특별시 서대문구 통일로 279-24","location":"지하주차장","lat":"37.575989999","lng":"126.95426299","zcode":"11","zscode":"11410"},{"statNm":"마장축산물시장 공영주차장","statId":"CV001167","addr":"서울특별시 성동구 살곶이길 18","location":"지상2층","lat":"37.571436762","lng":"127.04039074","zcode":"11","zscode":"11200"},{"statNm":"도봉어르신문화센터","statId":"CV001170","addr":"서울특별시 도봉구 마들로 536","location":"null","lat":"37.659869000","lng":"127.05091999","zcode":"11","zscode":"11320"},{"statNm":"효창파크뷰데시앙","statId":"CV001178","addr":"서울특별시 용산구 효창원로 227","location":"지하1층(A10), 지하2층(B35), 지하3층(C40)","lat":"37.547493","lng":"126.96301200","zcode":"11","zscode":"11170"},{"statNm":"세곡복합문화센터","statId":"CV001196","addr":"서울특별시 강남구 자곡로 100","location":"지하주차장","lat":"37.471501999","lng":"127.09450100","zcode":"11","zscode":"11680"},{"statNm":"린스퀘어 빌딩 주차장","statId":"CV001206","addr":"서울특별시 강남구 언주로30길 39","location":"지하5층 실내주차장 B5 10번 구역","lat":"37.48875","lng":"127.053227","zcode":"11","zscode":"11680"},{"statNm":"세운상가","statId":"CV001227","addr":"서울특별시 중구 마른내로 71","location":"PJ호텔 카페베네 앞 1기, 충무로마트 앞 1기","lat":"37.564907999","lng":"126.99570399","zcode":"11","zscode":"11140"},{"statNm":"목동깨비시장 공동주차장","statId":"CV001232","addr":"서울특별시 양천구 등촌로 212","location":"null","lat":"37.548326000","lng":"126.86365999","zcode":"11","zscode":"11470"},{"statNm":"여성가족재단 스페이스 살림","statId":"CV001240","addr":"서울특별시 동작구 노량진로 10","location":"지하주차장","lat":"37.512386","lng":"126.927294","zcode":"11","zscode":"11590"},{"statNm":"수송초등학교","statId":"CV001243","addr":"서울특별시 강북구 한천로124길 14","location":"null","lat":"37.637344000","lng":"127.03322700","zcode":"11","zscode":"11305"},{"statNm":"숭인도담공영주차장","statId":"CV001260","addr":"서울특별시 종로구 숭인동길 81","location":"null","lat":"37.578433000","lng":"127.02156200","zcode":"11","zscode":"11110"},{"statNm":"장미아파트","statId":"CV001272","addr":"서울특별시 영등포구 국제금융로7길 32","location":"지상1층 야외주차장","lat":"37.523550999","lng":"126.934099","zcode":"11","zscode":"11560"},{"statNm":"신길센트럴자이아파트","statId":"CV001275","addr":"서울특별시 영등포구 신길로29길 17","location":"null","lat":"37.503053000","lng":"126.90765700","zcode":"11","zscode":"11560"},{"statNm":"문래 롯데캐슬 아파트","statId":"CV001276","addr":"서울특별시 영등포구 선유로9길 30","location":"null","lat":"37.518106999","lng":"126.88554700","zcode":"11","zscode":"11560"},{"statNm":"무악재 한화아파트","statId":"CV001277","addr":"서울특별시 서대문구 통일로 357","location":"null","lat":"37.582210999","lng":"126.94981899","zcode":"11","zscode":"11410"},{"statNm":"동작세무서","statId":"CV001278","addr":"서울특별시 영등포구 대방천로 259","location":"null","lat":"37.499082000","lng":"126.919795","zcode":"11","zscode":"11560"},{"statNm":"DMC파크뷰자이 1단지","statId":"CV001279","addr":"서울특별시 서대문구 가재울미래로 2","location":"1단지 128동 지하2층 10번기둥","lat":"37.571589312","lng":"126.91978150","zcode":"11","zscode":"11410"},{"statNm":"DMC파크뷰자이 3단지","statId":"CV001280","addr":"서울특별시 서대문구 가재울미래로 2","location":"3단지 301동 지하2층 전기실바로옆","lat":"37.573298514","lng":"126.92180925","zcode":"11","zscode":"11410"},{"statNm":"DMC파크뷰자이 5단지","statId":"CV001281","addr":"서울특별시 서대문구 가재울미래로 2","location":"5단지 지하2층 내려가자마자 좌측","lat":"37.5723259","lng":"126.9141213","zcode":"11","zscode":"11410"},{"statNm":"제영산업","statId":"CV001282","addr":"서울특별시 도봉구 방학로17길 11","location":"null","lat":"37.661147000","lng":"127.02347799","zcode":"11","zscode":"11320"},{"statNm":"우영채움빌","statId":"CV001283","addr":"서울특별시 서대문구 증가로28길 27","location":"null","lat":"37.582933000","lng":"126.91485","zcode":"11","zscode":"11410"},{"statNm":"아세아타워빌딩1","statId":"CV001284","addr":"서울특별시 강남구 논현로 430","location":"지하4층 실내주차장","lat":"37.498997999","lng":"127.03836699","zcode":"11","zscode":"11680"},{"statNm":"서남병원","statId":"CV001286","addr":"서울특별시 양천구 신정이펜1로 20","location":"지하3층","lat":"37.512023000","lng":"126.83313499","zcode":"11","zscode":"11470"},{"statNm":"대청역공영주차장","statId":"CV001287","addr":"서울특별시 강남구 개포로 623-1","location":"1층 실내주차장","lat":"37.494915999","lng":"127.07930799","zcode":"11","zscode":"11680"},{"statNm":"대왕초교 공영주차장","statId":"CV001288","addr":"서울특별시 강남구 헌릉로618길 8","location":"null","lat":"37.464614999","lng":"127.10558399","zcode":"11","zscode":"11680"},{"statNm":"마포 메세나폴리스아파트","statId":"EV000122","addr":"서울특별시 마포구 양화로 45 (서교동, 메세나폴리스)","location":"null","lat":"37.5515012548","lng":"126.9139520503","zcode":"11","zscode":"11440"},{"statNm":"강서보건소","statId":"EV000359","addr":"서울특별시 강서구 공항대로 561","location":"null","lat":"37.5496356","lng":"126.8683307","zcode":"11","zscode":"11500"},{"statNm":"서울산업진흥원","statId":"EV000411","addr":"서울특별시 마포구 월드컵북로 400","location":"null","lat":"37.5805219","lng":"126.8896371","zcode":"11","zscode":"11440"},{"statNm":"동대문구청","statId":"EV000412","addr":"서울특별시 동대문구 천호대로 145","location":"null","lat":"37.5744184","lng":"127.0397475","zcode":"11","zscode":"11230"},{"statNm":"이화여자대학교","statId":"EV000475","addr":"서울특별시 서대문구 이화여대길 52","location":"null","lat":"37.560200268210","lng":"126.9455601587","zcode":"11","zscode":"11410"},{"statNm":"NC백화점-강서","statId":"EV000487","addr":"서울특별시 강서구 강서로56길 17","location":"null","lat":"37.5599339","lng":"126.8404975","zcode":"11","zscode":"11500"},{"statNm":"양천구청","statId":"EV000493","addr":"서울특별시 양천구 목동동로 105","location":"null","lat":"37.517075","lng":"126.8665419","zcode":"11","zscode":"11470"},{"statNm":"가양3동주민센터","statId":"EV000496","addr":"서울특별시 강서구 허준로 202","location":"null","lat":"37.5610873","lng":"126.8605599","zcode":"11","zscode":"11500"},{"statNm":"신월4동주민센터","statId":"EV000497","addr":"서울특별시 양천구 오목로5길 34","location":"null","lat":"37.5246971","lng":"126.8400793","zcode":"11","zscode":"11470"},{"statNm":"마곡동 방화1동주민센터","statId":"EV000498","addr":"서울특별시 강서구 방화대로 330","location":"null","lat":"37.5703442","lng":"126.8170528","zcode":"11","zscode":"11500"},{"statNm":"마장동대성유니드아파트","statId":"EV000499","addr":"서울특별시 성동구 마장로37길 7","location":"null","lat":"37.5669369245","lng":"127.0386840664","zcode":"11","zscode":"11200"},{"statNm":"목1동주민센터","statId":"EV000514","addr":"서울특별시 양천구 목동서로 192","location":"null","lat":"37.5303645","lng":"126.8711885","zcode":"11","zscode":"11470"},{"statNm":"목5동주민센터","statId":"EV000515","addr":"서울특별시 양천구 목동서로 41","location":"null","lat":"37.5371835","lng":"126.8817174","zcode":"11","zscode":"11470"},{"statNm":"신월2동주민센터","statId":"EV000516","addr":"서울특별시 양천구 중앙로53길 47","location":"null","lat":"37.5249734","lng":"126.8445676","zcode":"11","zscode":"11470"},{"statNm":"신월5동주민센터","statId":"EV000517","addr":"서울특별시 양천구 화곡로4길 10","location":"null","lat":"37.5385831","lng":"126.8271734","zcode":"11","zscode":"11470"},{"statNm":"신정1동주민센터","statId":"EV000519","addr":"서울특별시 양천구 중앙로32길 1","location":"null","lat":"37.5185706","lng":"126.8542864","zcode":"11","zscode":"11470"},{"statNm":"신정2동주민센터","statId":"EV000520","addr":"서울특별시 양천구 목동동로 154","location":"null","lat":"37.5192132","lng":"126.8706737","zcode":"11","zscode":"11470"},{"statNm":"신정6동주민센터","statId":"EV000521","addr":"서울특별시 양천구 목동서로 353","location":"null","lat":"37.5170581","lng":"126.8643882","zcode":"11","zscode":"11470"},{"statNm":"가양1동주민센터","statId":"EV000523","addr":"서울특별시 강서구 허준로 30","location":"null","lat":"37.5694864","lng":"126.8447061","zcode":"11","zscode":"11500"},{"statNm":"등촌1동주민센터","statId":"EV000524","addr":"서울특별시 강서구 공항대로53가길 55","location":"null","lat":"37.5558272","lng":"126.8589083","zcode":"11","zscode":"11500"},{"statNm":"등촌2동주민센터","statId":"EV000525","addr":"서울특별시 강서구 등촌로 143","location":"null","lat":"37.5426588","lng":"126.8625043","zcode":"11","zscode":"11500"},{"statNm":"화곡2동주민센터","statId":"EV000526","addr":"서울특별시 강서구 곰달래로37길 13","location":"null","lat":"37.5318264","lng":"126.8544869","zcode":"11","zscode":"11500"},{"statNm":"화곡3동주민센터","statId":"EV000527","addr":"서울특별시 강서구 강서로33가길 17","location":"null","lat":"37.5425274","lng":"126.8384118","zcode":"11","zscode":"11500"},{"statNm":"화곡6동주민센터","statId":"EV000528","addr":"서울특별시 강서구 화곡로 312","location":"null","lat":"37.5518158","lng":"126.8500752","zcode":"11","zscode":"11500"},{"statNm":"이문동현대아파트1","statId":"EV000532","addr":"서울특별시 동대문구 한천로58길 107 (이문동, 현대아파트)","location":"null","lat":"37.60083588070","lng":"127.0700175717","zcode":"11","zscode":"11230"},{"statNm":"이문동현대아파트2","statId":"EV000533","addr":"서울특별시 동대문구 한천로58길 107 (이문동, 현대아파트)","location":"null","lat":"37.6012576929","lng":"127.0697665683","zcode":"11","zscode":"11230"},{"statNm":"헤이그라운드","statId":"EV000582","addr":"서울특별시 성동구 뚝섬로1나길 5","location":"null","lat":"37.5444735","lng":"127.0477793","zcode":"11","zscode":"11200"},{"statNm":"공덕삼성아파트102동","statId":"EV000589","addr":"서울특별시 마포구 마포대로 115-8 (공덕동, 공덕삼성아파트)","location":"null","lat":"37.5459144686","lng":"126.950621964","zcode":"11","zscode":"11440"},{"statNm":"공덕삼성아파트105동","statId":"EV000597","addr":"서울특별시 마포구 마포대로 115-8 (공덕동, 공덕삼성아파트)","location":"null","lat":"37.5459144686","lng":"126.950621964","zcode":"11","zscode":"11440"},{"statNm":"풍납미성아파트","statId":"EV000603","addr":"서울특별시 송파구 풍성로 14 (풍납동, 미성맨션)","location":"null","lat":"37.5344810363","lng":"127.1140965642","zcode":"11","zscode":"11710"},{"statNm":"종로구보건소","statId":"EV000604","addr":"서울특별시 종로구 자하문로19길 36","location":"null","lat":"37.5818309","lng":"126.9692241","zcode":"11","zscode":"11110"},{"statNm":"LG사이언스파크 화학 E12","statId":"EV000605","addr":"서울특별시 강서구 마곡중앙10로 70","location":"null","lat":"37.5630466","lng":"126.8344287","zcode":"11","zscode":"11500"},{"statNm":"LG사이언스파크 유플러스 E11","statId":"EV000606","addr":"서울특별시 강서구 마곡중앙10로 70","location":"null","lat":"37.5630466","lng":"126.8344287","zcode":"11","zscode":"11500"},{"statNm":"은평뉴타운상림마을3단지","statId":"EV000615","addr":"서울특별시 은평구 진관4로 47 (진관동, 은평뉴타운상림마을)","location":"null","lat":"37.6458511153","lng":"126.9272003501","zcode":"11","zscode":"11380"},{"statNm":"휘경동동일스위트리버","statId":"EV000616","addr":"서울특별시 동대문구 한천로 300 (휘경동, 동일스위트리버)","location":"null","lat":"37.5878408461","lng":"127.0685402999","zcode":"11","zscode":"11230"},{"statNm":"LG사이언스파크 화학 E5","statId":"EV000655","addr":"서울특별시 강서구 마곡중앙10로 30","location":"null","lat":"37.5634025","lng":"126.8312315","zcode":"11","zscode":"11500"},{"statNm":"홍은현대아파트","statId":"EV000656","addr":"서울특별시 서대문구 연희로41길 4 (홍은동)","location":"null","lat":"37.5892816169","lng":"126.9364402592","zcode":"11","zscode":"11410"},{"statNm":"망우신원아파트","statId":"EV000657","addr":"서울특별시 중랑구 망우로 504-7 (망우동, 신원아파트)","location":"null","lat":"37.6002190743","lng":"127.1087794243","zcode":"11","zscode":"11260"},{"statNm":"애필리움아파트","statId":"EV000658","addr":"서울특별시 은평구 불광천길 536 (응암동, 애필리움)","location":"null","lat":"37.5979114284","lng":"126.9163898602","zcode":"11","zscode":"11380"},{"statNm":"부띠크 모나코","statId":"EV000659","addr":"서울특별시 서초구 서초대로 397 (서초동)","location":"null","lat":"37.4974338814","lng":"127.0245169907","zcode":"11","zscode":"11650"},{"statNm":"용산가족공원","statId":"EV000663","addr":"서울특별시 용산구 서빙고로 185","location":"null","lat":"37.5201155","lng":"126.984593","zcode":"11","zscode":"11170"},{"statNm":"정릉푸르지오_1","statId":"EV000665","addr":"서울특별시 성북구 보국문로 19 (정릉동, 정릉푸르지오아파트)","location":"null","lat":"37.6067559357","lng":"127.00969429","zcode":"11","zscode":"11290"},{"statNm":"정릉푸르지오_2","statId":"EV000666","addr":"서울특별시 성북구 보국문로 19 (정릉동, 정릉푸르지오아파트)","location":"null","lat":"37.60711814003","lng":"127.0096150608","zcode":"11","zscode":"11290"},{"statNm":"정릉푸르지오_3","statId":"EV000667","addr":"서울특별시 성북구 보국문로 19 (정릉동, 정릉푸르지오아파트)","location":"null","lat":"37.60610001600","lng":"127.0096828798","zcode":"11","zscode":"11290"},{"statNm":"동익성봉빌딩","statId":"EV000683","addr":"서울특별시 서초구 서초대로 301","location":"null","lat":"37.4943325","lng":"127.0145105","zcode":"11","zscode":"11650"},{"statNm":"태릉현대홈타운","statId":"EV000684","addr":"서울특별시 노원구 화랑로51나길 15 (공릉동, 태릉현대홈타운스위트1단지)","location":"null","lat":"37.6250484958","lng":"127.0894993036","zcode":"11","zscode":"11350"},{"statNm":"태릉현대홈타운스위트2단지","statId":"EV000685","addr":"서울특별시 노원구 화랑로51나길 36 (공릉동, 태릉현대홈타운스위트2단지)","location":"null","lat":"37.625129671","lng":"127.0917332605","zcode":"11","zscode":"11350"},{"statNm":"행당대림아파트","statId":"EV000691","addr":"서울특별시 성동구 행당로 79 (행당동, 행당동 대림아파트)","location":"null","lat":"37.5582039955","lng":"127.0275066662","zcode":"11","zscode":"11200"},{"statNm":"중앙대학교102관","statId":"EV000692","addr":"서울특별시 동작구 흑석로 84","location":"null","lat":"37.5062267","lng":"126.9589676","zcode":"11","zscode":"11590"},{"statNm":"중앙대학교303관","statId":"EV000693","addr":"서울특별시 동작구 흑석로 84","location":"null","lat":"37.5047029","lng":"126.9558244","zcode":"11","zscode":"11590"},{"statNm":"중앙대학교305관","statId":"EV000694","addr":"서울특별시 동작구 흑석로 84","location":"null","lat":"37.504225","lng":"126.9548973","zcode":"11","zscode":"11590"},{"statNm":"중앙대학교309관","statId":"EV000695","addr":"서울특별시 동작구 흑석로 84","location":"null","lat":"37.5024326","lng":"126.9563573","zcode":"11","zscode":"11590"},{"statNm":"중앙대학교310관","statId":"EV000696","addr":"서울특별시 동작구 흑석로 84","location":"310","lat":"37.5035857","lng":"126.9559721","zcode":"11","zscode":"11590"},{"statNm":"송파파인타운11단지1","statId":"EV000701","addr":"서울특별시 송파구 송파대로8길 58 (장지동, 송파파인타운11단지)","location":"null","lat":"37.47920074509","lng":"127.1330978161","zcode":"11","zscode":"11710"},{"statNm":"은평 솔하임","statId":"EV000702","addr":"서울특별시 은평구 통일로 1080 (진관동)","location":"null","lat":"37.63944400911","lng":"126.9173131918","zcode":"11","zscode":"11380"},{"statNm":"길음뉴타운8단지808동","statId":"EV000703","addr":"서울특별시 성북구 길음로 33 (길음동, 길음뉴타운)","location":"null","lat":"37.60727049195","lng":"127.0168858480","zcode":"11","zscode":"11290"},{"statNm":"상계1차 아이파크","statId":"EV000790","addr":"서울특별시 노원구 동일로237길 41 (상계동, 상계1차현대아파트)","location":"null","lat":"37.6726821757","lng":"127.0528171088","zcode":"11","zscode":"11350"},{"statNm":"정릉 대주 피오레아파트","statId":"EV000791","addr":"서울특별시 성북구 아리랑로19길 86 (정릉동, 정릉2차 대주피오레)","location":"null","lat":"37.6018798668","lng":"127.0085295124","zcode":"11","zscode":"11290"},{"statNm":"송파파인타운12단지","statId":"EV000792","addr":"서울특별시 송파구 송파대로8길 42 (장지동, 송파파인타운12단지)","location":"null","lat":"37.478758522","lng":"127.1321416958","zcode":"11","zscode":"11710"},{"statNm":"DMC파크뷰자이아파트101동","statId":"EV000794","addr":"서울특별시 서대문구 가재울미래로 2 (남가좌동, DMC파크뷰자이)","location":"null","lat":"37.57444704643","lng":"126.9179171604","zcode":"11","zscode":"11410"},{"statNm":"DMC파크뷰자이아파트212동","statId":"EV000795","addr":"서울특별시 서대문구 가재울미래로 2 (남가좌동, DMC파크뷰자이)","location":"null","lat":"37.57392906292","lng":"126.9117935392","zcode":"11","zscode":"11410"},{"statNm":"DMC파크뷰자이아파트302동","statId":"EV000796","addr":"서울특별시 서대문구 가재울미래로 2 (남가좌동, DMC파크뷰자이)","location":"null","lat":"37.57287742529","lng":"126.9217676730","zcode":"11","zscode":"11410"},{"statNm":"DMC파크뷰자이아파트404동","statId":"EV000797","addr":"서울특별시 서대문구 가재울미래로 2 (남가좌동, DMC파크뷰자이)","location":"null","lat":"37.57571313169","lng":"126.9119272797","zcode":"11","zscode":"11410"},{"statNm":"DMC파크뷰자이아파트501동","statId":"EV000798","addr":"서울특별시 서대문구 가재울미래로 2 (남가좌동, DMC파크뷰자이)","location":"null","lat":"37.57284131421","lng":"126.9216601711","zcode":"11","zscode":"11410"},{"statNm":"브라운스톤돈암아파트1","statId":"EV000805","addr":"서울특별시 성북구 북악산로 844 (돈암동, 브라운스톤 돈암 아파트)","location":"null","lat":"37.59805772112","lng":"127.0178632733","zcode":"11","zscode":"11290"},{"statNm":"브라운스톤돈암아파트2","statId":"EV000806","addr":"서울특별시 성북구 북악산로 844 (돈암동, 브라운스톤 돈암 아파트)","location":"null","lat":"37.59779202384","lng":"127.0172234181","zcode":"11","zscode":"11290"},{"statNm":"브라운스톤돈암아파트3","statId":"EV000807","addr":"서울특별시 성북구 북악산로 844 (돈암동, 브라운스톤 돈암 아파트)","location":"null","lat":"37.59807124027","lng":"127.0178349671","zcode":"11","zscode":"11290"},{"statNm":"서경대학교1주차장","statId":"EV000827","addr":"서울특별시 성북구 서경로 124","location":"null","lat":"37.6148718","lng":"127.0127851","zcode":"11","zscode":"11290"},{"statNm":"서경대학교2주차장","statId":"EV000828","addr":"서울특별시 성북구 서경로 124","location":"null","lat":"37.6148718","lng":"127.0127851","zcode":"11","zscode":"11290"},{"statNm":"상도래미안3차아파트1","statId":"EV000835","addr":"서울특별시 동작구 상도로53길 8 (상도동, 래미안상도3차아파트)","location":"null","lat":"37.49885012834","lng":"126.9539223416","zcode":"11","zscode":"11590"},{"statNm":"상도래미안3차아파트2","statId":"EV000836","addr":"서울특별시 동작구 상도로53길 8 (상도동, 래미안상도3차아파트)","location":"null","lat":"37.49926465713","lng":"126.9540917196","zcode":"11","zscode":"11590"},{"statNm":"상도래미안3차아파트3","statId":"EV000837","addr":"서울특별시 동작구 상도로53길 8 (상도동, 래미안상도3차아파트)","location":"null","lat":"37.49972876723","lng":"126.9543289228","zcode":"11","zscode":"11590"},{"statNm":"상도래미안3차아파트4","statId":"EV000838","addr":"서울특별시 동작구 상도로53길 8 (상도동, 래미안상도3차아파트)","location":"null","lat":"37.50061180313","lng":"126.9544584391","zcode":"11","zscode":"11590"},{"statNm":"상도래미안3차아파트5","statId":"EV000839","addr":"서울특별시 동작구 상도로53길 8 (상도동, 래미안상도3차아파트)","location":"null","lat":"37.50038880748","lng":"126.9544670563","zcode":"11","zscode":"11590"},{"statNm":"상도래미안3차아파트6","statId":"EV000840","addr":"서울특별시 동작구 상도로53길 8 (상도동, 래미안상도3차아파트)","location":"null","lat":"37.50064811588","lng":"126.9551708878","zcode":"11","zscode":"11590"},{"statNm":"상도래미안3차아파트7","statId":"EV000841","addr":"서울특별시 동작구 상도로53길 8 (상도동, 래미안상도3차아파트)","location":"null","lat":"37.50064363015","lng":"126.9552217812","zcode":"11","zscode":"11590"},{"statNm":"상도래미안3차아파트8","statId":"EV000842","addr":"서울특별시 동작구 상도로53길 8 (상도동, 래미안상도3차아파트)","location":"null","lat":"37.49975170818","lng":"126.9554173928","zcode":"11","zscode":"11590"},{"statNm":"상도래미안3차아파트9","statId":"EV000843","addr":"서울특별시 동작구 상도로53길 8 (상도동, 래미안상도3차아파트)","location":"null","lat":"37.49918403277","lng":"126.9553074691","zcode":"11","zscode":"11590"},{"statNm":"상도래미안3차아파트10","statId":"EV000844","addr":"서울특별시 동작구 상도로53길 8 (상도동, 래미안상도3차아파트)","location":"null","lat":"37.49863881253","lng":"126.9550137664","zcode":"11","zscode":"11590"},{"statNm":"상도래미안3차아파트11","statId":"EV000845","addr":"서울특별시 동작구 상도로53길 8 (상도동, 래미안상도3차아파트)","location":"null","lat":"37.49824246862","lng":"126.9552741041","zcode":"11","zscode":"11590"},{"statNm":"정릉 스카이쌍용아파트1","statId":"EV000879","addr":"서울특별시 성북구 북악산로 828 (정릉동, 정릉스카이쌍용아파트)","location":"null","lat":"37.59928768539","lng":"127.0171105232","zcode":"11","zscode":"11290"},{"statNm":"정릉 스카이쌍용아파트2","statId":"EV000880","addr":"서울특별시 성북구 북악산로 828 (정릉동, 정릉스카이쌍용아파트)","location":"null","lat":"37.6001888663","lng":"127.015745042","zcode":"11","zscode":"11290"},{"statNm":"압구정 대원칸타빌아파트","statId":"EV000923","addr":"서울특별시 강남구 압구정로48길 15 (신사동, 압구정대원칸타빌아파트)","location":"null","lat":"37.52736107776","lng":"127.0370362322","zcode":"11","zscode":"11680"},{"statNm":"삼익삼환방화아파트1","statId":"EV000926","addr":"서울특별시 강서구 방화대로47가길 22 (방화동, 방화4단지아파트)","location":"null","lat":"37.57742267778","lng":"126.8146129388","zcode":"11","zscode":"11500"},{"statNm":"삼익삼환방화아파트2","statId":"EV000927","addr":"서울특별시 강서구 방화대로47가길 22 (방화동, 방화4단지아파트)","location":"null","lat":"37.57674340028","lng":"126.8137995438","zcode":"11","zscode":"11500"},{"statNm":"삼익삼환방화아파트3","statId":"EV000928","addr":"서울특별시 강서구 방화대로47가길 22 (방화동, 방화4단지아파트)","location":"null","lat":"37.57730684000","lng":"126.8140019120","zcode":"11","zscode":"11500"},{"statNm":"삼익삼환방화아파트4","statId":"EV000929","addr":"서울특별시 강서구 방화대로47가길 22 (방화동, 방화4단지아파트)","location":"null","lat":"37.57648250928","lng":"126.8154869484","zcode":"11","zscode":"11500"},{"statNm":"장안현대홈타운1","statId":"EV000930","addr":"서울특별시 동대문구 장안벚꽃로 107 (장안동, 장안현대홈타운)","location":"null","lat":"37.56979378906","lng":"127.0747257151","zcode":"11","zscode":"11230"},{"statNm":"장안현대홈타운2","statId":"EV000931","addr":"서울특별시 동대문구 장안벚꽃로 107 (장안동, 장안현대홈타운)","location":"null","lat":"37.57091033677","lng":"127.0758021995","zcode":"11","zscode":"11230"},{"statNm":"장안현대홈타운3","statId":"EV000932","addr":"서울특별시 동대문구 장안벚꽃로 107 (장안동, 장안현대홈타운)","location":"null","lat":"37.57085695910","lng":"127.0747324371","zcode":"11","zscode":"11230"},{"statNm":"장안현대홈타운4","statId":"EV000933","addr":"서울특별시 동대문구 장안벚꽃로 107 (장안동, 장안현대홈타운)","location":"null","lat":"37.56970399311","lng":"127.0742445471","zcode":"11","zscode":"11230"},{"statNm":"장안현대홈타운5","statId":"EV000934","addr":"서울특별시 동대문구 장안벚꽃로 107 (장안동, 장안현대홈타운)","location":"null","lat":"37.56917717383","lng":"127.0738252060","zcode":"11","zscode":"11230"},{"statNm":"장안현대홈타운6","statId":"EV000935","addr":"서울특별시 동대문구 장안벚꽃로 107 (장안동, 장안현대홈타운)","location":"null","lat":"37.56854140273","lng":"127.0747301236","zcode":"11","zscode":"11230"},{"statNm":"장안현대홈타운7","statId":"EV000936","addr":"서울특별시 동대문구 장안벚꽃로 107 (장안동, 장안현대홈타운)","location":"null","lat":"37.56818211979","lng":"127.0729469812","zcode":"11","zscode":"11230"},{"statNm":"장안현대홈타운8","statId":"EV000937","addr":"서울특별시 동대문구 장안벚꽃로 107 (장안동, 장안현대홈타운)","location":"null","lat":"37.56713715050","lng":"127.0726460060","zcode":"11","zscode":"11230"},{"statNm":"경희궁자이2단지202동1","statId":"EV000941","addr":"서울특별시 종로구 송월길 99 (홍파동, 경희궁자이 2단지)","location":"null","lat":"37.5696811","lng":"126.9634833","zcode":"11","zscode":"11110"},{"statNm":"경희궁자이2단지202동2","statId":"EV000942","addr":"서울특별시 종로구 송월길 99 (홍파동, 경희궁자이 2단지)","location":"202동 B3 23번기둥","lat":"37.5697419","lng":"126.9633587","zcode":"11","zscode":"11110"},{"statNm":"경희궁자이2단지204동","statId":"EV000943","addr":"서울특별시 종로구 송월길 99 (홍파동, 경희궁자이 2단지)","location":"null","lat":"37.57044225756","lng":"126.9627471825","zcode":"11","zscode":"11110"},{"statNm":"경희궁자이2단지209동","statId":"EV000944","addr":"서울특별시 종로구 송월길 99 (홍파동, 경희궁자이 2단지)","location":"null","lat":"37.57101010036","lng":"126.9634374008","zcode":"11","zscode":"11110"},{"statNm":"경희궁자이2단지208동","statId":"EV000945","addr":"서울특별시 종로구 송월길 99 (홍파동, 경희궁자이 2단지)","location":"null","lat":"37.57054172226","lng":"126.9638904145","zcode":"11","zscode":"11110"},{"statNm":"서초래미안아파트","statId":"EV000953","addr":"서울특별시 서초구 서초대로65길 13-10 (서초동, 서초래미안아파트)","location":"null","lat":"37.4974276649","lng":"127.0191522012","zcode":"11","zscode":"11650"},{"statNm":"장안삼성쉐르빌아파트1","statId":"EV000995","addr":"서울특별시 동대문구 장한로 119 (장안동, 장안삼성쉐르빌)","location":"null","lat":"37.5714489836","lng":"127.0702141828","zcode":"11","zscode":"11230"},{"statNm":"장안삼성쉐르빌아파트2","statId":"EV000996","addr":"서울특별시 동대문구 장한로 119 (장안동, 장안삼성쉐르빌)","location":"null","lat":"37.57152658879","lng":"127.0700127637","zcode":"11","zscode":"11230"},{"statNm":"우물골두산위브7단지1","statId":"EV001096","addr":"서울특별시 은평구 진관2로 57-37 (진관동, 은평뉴타운우물골)","location":"null","lat":"37.63544066837","lng":"126.9264378391","zcode":"11","zscode":"11380"},{"statNm":"우물골두산위브7단지2","statId":"EV001097","addr":"서울특별시 은평구 진관2로 57-37 (진관동, 은평뉴타운우물골)","location":"null","lat":"37.63741523606","lng":"126.9287358326","zcode":"11","zscode":"11380"},{"statNm":"우물골두산위브7단지3","statId":"EV001102","addr":"서울특별시 은평구 진관2로 57-37 (진관동, 은평뉴타운우물골)","location":"null","lat":"37.63654146208","lng":"126.9290369021","zcode":"11","zscode":"11380"},{"statNm":"한강로벽산메가트리움1","statId":"EV001108","addr":"서울특별시 용산구 한강대로43길 8 (한강로2가, 벽산메가트리움)","location":"null","lat":"37.53186349118","lng":"126.9696621223","zcode":"11","zscode":"11170"},{"statNm":"한강로벽산메가트리움2","statId":"EV001109","addr":"서울특별시 용산구 한강대로43길 8 (한강로2가, 벽산메가트리움)","location":"null","lat":"37.53245820259","lng":"126.9698598740","zcode":"11","zscode":"11170"},{"statNm":"길음뉴타운10단지라온유아파트","statId":"EV001134","addr":"서울특별시 성북구 정릉로 307 (정릉동, 라온유 아파트)","location":"null","lat":"37.60316631596","lng":"127.0180117141","zcode":"11","zscode":"11290"},{"statNm":"마곡엠밸리15단지1504동","statId":"EV001152","addr":"서울특별시 강서구 마곡중앙로 36 (마곡동, 마곡엠밸리15단지)","location":"null","lat":"37.55712484475","lng":"126.8290931453","zcode":"11","zscode":"11500"},{"statNm":"마곡엠밸리15단지1508동","statId":"EV001153","addr":"서울특별시 강서구 마곡중앙로 36 (마곡동, 마곡엠밸리15단지)","location":"null","lat":"37.55615172268","lng":"126.8290614155","zcode":"11","zscode":"11500"},{"statNm":"마곡엠밸리15단지1512동","statId":"EV001154","addr":"서울특별시 강서구 마곡중앙로 36 (마곡동, 마곡엠밸리15단지)","location":"null","lat":"37.55666286863","lng":"126.8273965744","zcode":"11","zscode":"11500"},{"statNm":"마곡엠밸리15단지1513동","statId":"EV001155","addr":"서울특별시 강서구 마곡중앙로 36 (마곡동, 마곡엠밸리15단지)","location":"null","lat":"37.55766315311","lng":"126.8275187614","zcode":"11","zscode":"11500"},{"statNm":"마곡엠밸리15단지1505동A","statId":"EV001156","addr":"서울특별시 강서구 마곡중앙로 36 (마곡동, 마곡엠밸리15단지)","location":"null","lat":"37.55667341252","lng":"126.8284490784","zcode":"11","zscode":"11500"},{"statNm":"마곡엠밸리15단지1505동C","statId":"EV001157","addr":"서울특별시 강서구 마곡중앙로 36 (마곡동, 마곡엠밸리15단지)","location":"null","lat":"37.55665541732","lng":"126.8284660959","zcode":"11","zscode":"11500"},{"statNm":"상계은빛1단지1","statId":"EV001174","addr":"서울특별시 노원구 동일로245길 162 (상계동, 은빛1단지아파트)","location":"null","lat":"37.68140586774","lng":"127.0538934535","zcode":"11","zscode":"11350"},{"statNm":"상계은빛1단지2","statId":"EV001175","addr":"서울특별시 노원구 동일로245길 162 (상계동, 은빛1단지아파트)","location":"null","lat":"37.68130265093","lng":"127.0530204739","zcode":"11","zscode":"11350"},{"statNm":"한남힐스테이트","statId":"EV001176","addr":"서울특별시 용산구 장문로 141 (한남동, 한남힐스테이트)","location":"null","lat":"37.52811915444","lng":"127.0039794201","zcode":"11","zscode":"11170"},{"statNm":"신내두산화성아파트1","statId":"EV001177","addr":"서울특별시 중랑구 신내로 155 (신내동, 신내8단지두산.화성아파트)","location":"null","lat":"37.61415086162","lng":"127.0949307564","zcode":"11","zscode":"11260"},{"statNm":"신내두산화성아파트2","statId":"EV001178","addr":"서울특별시 중랑구 신내로 155 (신내동, 신내8단지두산.화성아파트)","location":"null","lat":"37.61373878276","lng":"127.0947773294","zcode":"11","zscode":"11260"},{"statNm":"고덕숲아이파크아파트110동","statId":"EV001193","addr":"서울특별시 강동구 고덕로80길 134 (상일동, 고덕숲아이파크)","location":"null","lat":"37.55264251968","lng":"127.1644686198","zcode":"11","zscode":"11740"},{"statNm":"고덕숲아이파크아파트102동","statId":"EV001194","addr":"서울특별시 강동구 고덕로80길 134 (상일동, 고덕숲아이파크)","location":"null","lat":"37.55122298003","lng":"127.1648050010","zcode":"11","zscode":"11740"},{"statNm":"고덕숲아이파크아파트105동","statId":"EV001195","addr":"서울특별시 강동구 고덕로80길 134 (상일동, 고덕숲아이파크)","location":"null","lat":"37.55135363880","lng":"127.1615347609","zcode":"11","zscode":"11740"},{"statNm":"고덕숲아이파크아파트108동","statId":"EV001196","addr":"서울특별시 강동구 고덕로80길 134 (상일동, 고덕숲아이파크)","location":"null","lat":"37.55066704844","lng":"127.1628686381","zcode":"11","zscode":"11740"},{"statNm":"YTN뉴스퀘어B4","statId":"EV001228","addr":"서울특별시 마포구 상암산로 76","location":"null","lat":"37.5791945","lng":"126.8923153","zcode":"11","zscode":"11440"},{"statNm":"YTN뉴스퀘어B5","statId":"EV001229","addr":"서울특별시 마포구 상암산로 76","location":"null","lat":"37.5790801","lng":"126.8923664","zcode":"11","zscode":"11440"},{"statNm":"개포4동주민센터","statId":"EV001256","addr":"서울특별시 강남구 개포로38길 12","location":"null","lat":"37.4788211","lng":"127.0516583","zcode":"11","zscode":"11680"},{"statNm":"서울 논현1동 주민센터","statId":"EV001257","addr":"서울특별시 강남구 학동로20길 25","location":"null","lat":"37.5115031","lng":"127.0285346","zcode":"11","zscode":"11680"},{"statNm":"삼성2동 주민센터","statId":"EV001258","addr":"서울특별시 강남구 봉은사로 419","location":"null","lat":"37.5112345","lng":"127.0460174","zcode":"11","zscode":"11680"},{"statNm":"세곡동주민센터","statId":"EV001259","addr":"서울특별시 강남구 밤고개로 286","location":"null","lat":"37.4690495","lng":"127.1069115","zcode":"11","zscode":"11680"},{"statNm":"역삼1동주민센터","statId":"EV001260","addr":"서울특별시 강남구 역삼로7길 16","location":"null","lat":"37.4953738","lng":"127.0332824","zcode":"11","zscode":"11680"},{"statNm":"일원1동주민센터","statId":"EV001261","addr":"서울특별시 강남구 양재대로55길 14","location":"null","lat":"37.4918534","lng":"127.0880284","zcode":"11","zscode":"11680"},{"statNm":"청담동 주민센터","statId":"EV001262","addr":"서울특별시 강남구 압구정로79길 26","location":"null","lat":"37.5250545","lng":"127.0494253","zcode":"11","zscode":"11680"},{"statNm":"서울 논현2동 주민센터","statId":"EV001267","addr":"서울특별시 강남구 학동로43길 17","location":"null","lat":"37.5174252","lng":"127.0372066","zcode":"11","zscode":"11680"},{"statNm":"목동현대월드타워","statId":"EV001279","addr":"서울특별시 양천구 목동 907 현대월드타워","location":"null","lat":"37.5359868576","lng":"126.8780399048","zcode":"11","zscode":"11470"},{"statNm":"길음뉴타운8단지811동","statId":"EV001355","addr":"서울특별시 성북구 길음로 33 (길음동, 길음뉴타운)","location":"null","lat":"37.60698427663","lng":"127.0179107084","zcode":"11","zscode":"11290"},{"statNm":"길음뉴타운8단지814동","statId":"EV001356","addr":"서울특별시 성북구 길음로 33 (길음동, 길음뉴타운)","location":"null","lat":"37.60718908815","lng":"127.0189583358","zcode":"11","zscode":"11290"},{"statNm":"길음뉴타운8단지821동","statId":"EV001357","addr":"서울특별시 성북구 길음로 33 (길음동, 길음뉴타운)","location":"null","lat":"37.60631918381","lng":"127.0215741990","zcode":"11","zscode":"11290"},{"statNm":"길음뉴타운8단지824동","statId":"EV001358","addr":"서울특별시 성북구 길음로 33 (길음동, 길음뉴타운)","location":"null","lat":"37.6050496083","lng":"127.0220109714","zcode":"11","zscode":"11290"},{"statNm":"등촌동 태영아파트","statId":"EV001359","addr":"서울특별시 강서구 양천로 590 (등촌동, 등촌태영아파트)","location":"null","lat":"37.55562517137","lng":"126.8641464101","zcode":"11","zscode":"11500"},{"statNm":"불광롯데캐슬","statId":"EV001369","addr":"서울특별시 은평구 불광로 64 (불광동, 불광 롯데캐슬)","location":"null","lat":"37.613130432","lng":"126.9324694337","zcode":"11","zscode":"11380"},{"statNm":"일원목련타운1","statId":"EV001457","addr":"서울특별시 강남구 광평로19길 15 (일원동, 목련타운아파트)","location":"null","lat":"37.48520590786","lng":"127.0841616502","zcode":"11","zscode":"11680"},{"statNm":"일원목련타운2","statId":"EV001458","addr":"서울특별시 강남구 광평로19길 15 (일원동, 목련타운아파트)","location":"null","lat":"37.48537199932","lng":"127.0849928829","zcode":"11","zscode":"11680"},{"statNm":"일원목련타운3","statId":"EV001459","addr":"서울특별시 강남구 광평로19길 15 (일원동, 목련타운아파트)","location":"null","lat":"37.48520021128","lng":"127.0858180794","zcode":"11","zscode":"11680"},{"statNm":"일원목련타운4","statId":"EV001460","addr":"서울특별시 강남구 광평로19길 15 (일원동, 목련타운아파트)","location":"null","lat":"37.48412788086","lng":"127.0859977579","zcode":"11","zscode":"11680"},{"statNm":"세곡신동아파밀리에","statId":"EV001478","addr":"서울특별시 강남구 헌릉로590길 10 (세곡동, 신동아파밀리에)","location":"null","lat":"37.4645049844","lng":"127.1026820124","zcode":"11","zscode":"11680"},{"statNm":"나이스그룹 1사옥","statId":"EV001494","addr":"서울특별시 영등포구 은행로 17","location":"지하3층 6구역","lat":"37.5283107","lng":"126.9207575","zcode":"11","zscode":"11560"},{"statNm":"방이금호어울림아파트","statId":"EV001495","addr":"서울특별시 송파구 위례성대로8길 28 (방이동, 방이금호어울림)","location":"null","lat":"37.5124853128","lng":"127.1182299859","zcode":"11","zscode":"11710"},{"statNm":"서울숲푸르지오2차아파트1","statId":"EV001527","addr":"서울특별시 성동구 금호로 17 (금호동4가, 서울숲2차푸르지오)","location":"null","lat":"37.54553305706","lng":"127.0243177333","zcode":"11","zscode":"11200"},{"statNm":"서울숲푸르지오2차아파트2","statId":"EV001528","addr":"서울특별시 성동구 금호로 17 (금호동4가, 서울숲2차푸르지오)","location":"null","lat":"37.54643851659","lng":"127.0245330309","zcode":"11","zscode":"11200"},{"statNm":"양평동6차현대아파트1","statId":"EV001530","addr":"서울특별시 영등포구 선유로 207 (양평동3가, 양평동 6차 현대아파트)","location":"null","lat":"37.53185949638","lng":"126.8930396270","zcode":"11","zscode":"11560"},{"statNm":"양평동6차현대아파트2","statId":"EV001531","addr":"서울특별시 영등포구 선유로 207 (양평동3가, 양평동 6차 현대아파트)","location":"null","lat":"37.53165315889","lng":"126.8940298734","zcode":"11","zscode":"11560"},{"statNm":"신내새한아파트","statId":"EV001534","addr":"서울특별시 중랑구 용마산로 616 (신내동, 새한아파트)","location":"null","lat":"37.6049325667","lng":"127.1012258353","zcode":"11","zscode":"11260"},{"statNm":"DMC파크뷰자이아파트104동","statId":"EV001572","addr":"서울특별시 서대문구 가재울미래로 2 (남가좌동, DMC파크뷰자이)","location":"null","lat":"37.57301344976","lng":"126.9164697751","zcode":"11","zscode":"11410"},{"statNm":"DMC파크뷰자이아파트111동","statId":"EV001573","addr":"서울특별시 서대문구 가재울미래로 2 (남가좌동, DMC파크뷰자이)","location":"null","lat":"37.57193207236","lng":"126.9162106268","zcode":"11","zscode":"11410"},{"statNm":"DMC파크뷰자이아파트116동","statId":"EV001574","addr":"서울특별시 서대문구 가재울미래로 2 (남가좌동, DMC파크뷰자이)","location":"null","lat":"37.57180616571","lng":"126.9165390423","zcode":"11","zscode":"11410"},{"statNm":"DMC파크뷰자이아파트124동1","statId":"EV001575","addr":"서울특별시 서대문구 가재울미래로 2 (남가좌동, DMC파크뷰자이)","location":"null","lat":"37.5714832","lng":"126.9185543","zcode":"11","zscode":"11410"},{"statNm":"DMC파크뷰자이아파트119동","statId":"EV001576","addr":"서울특별시 서대문구 가재울미래로 2 (남가좌동, DMC파크뷰자이)","location":"null","lat":"37.57257341805","lng":"126.9185531326","zcode":"11","zscode":"11410"},{"statNm":"DMC파크뷰자이아파트124동2","statId":"EV001577","addr":"서울특별시 서대문구 가재울미래로 2 (남가좌동, DMC파크뷰자이)","location":"null","lat":"37.5714967","lng":"126.9185656","zcode":"11","zscode":"11410"},{"statNm":"DMC파크뷰자이아파트129동","statId":"EV001578","addr":"서울특별시 서대문구 가재울미래로 2 (남가좌동, DMC파크뷰자이)","location":"null","lat":"37.57105105707","lng":"126.9190188978","zcode":"11","zscode":"11410"},{"statNm":"DMC파크뷰자이아파트204동","statId":"EV001579","addr":"서울특별시 서대문구 가재울미래로 2 (남가좌동, DMC파크뷰자이)","location":"null","lat":"37.57344440596","lng":"126.9143467833","zcode":"11","zscode":"11410"},{"statNm":"DMC파크뷰자이아파트216동","statId":"EV001581","addr":"서울특별시 서대문구 가재울미래로 2 (남가좌동, DMC파크뷰자이)","location":"null","lat":"37.57419757603","lng":"126.9155118982","zcode":"11","zscode":"11410"},{"statNm":"DMC파크뷰자이아파트217동","statId":"EV001582","addr":"서울특별시 서대문구 가재울미래로 2 (남가좌동, DMC파크뷰자이)","location":"null","lat":"37.57463941035","lng":"126.9159981692","zcode":"11","zscode":"11410"},{"statNm":"DMC파크뷰자이아파트202동","statId":"EV001583","addr":"서울특별시 서대문구 가재울미래로 2 (남가좌동, DMC파크뷰자이)","location":"null","lat":"37.57437419035","lng":"126.9168078611","zcode":"11","zscode":"11410"},{"statNm":"DMC파크뷰자이아파트108동","statId":"EV001585","addr":"서울특별시 서대문구 가재울미래로 2 (남가좌동, DMC파크뷰자이)","location":"null","lat":"37.57304006161","lng":"126.9158811057","zcode":"11","zscode":"11410"},{"statNm":"송파파인타운11단지2","statId":"EV001586","addr":"서울특별시 송파구 송파대로8길 58 (장지동, 송파파인타운11단지)","location":"null","lat":"37.48024115300","lng":"127.1333257810","zcode":"11","zscode":"11710"},{"statNm":"한남 더힐아파트102동","statId":"EV001621","addr":"서울특별시 용산구 독서당로 111 (한남동, 한남더힐)","location":"null","lat":"37.53657031813","lng":"127.0083387735","zcode":"11","zscode":"11170"},{"statNm":"한남 더힐아파트104동","statId":"EV001622","addr":"서울특별시 용산구 독서당로 111 (한남동, 한남더힐)","location":"null","lat":"37.53695767741","lng":"127.0092892381","zcode":"11","zscode":"11170"},{"statNm":"한남 더힐아파트107동","statId":"EV001623","addr":"서울특별시 용산구 독서당로 111 (한남동, 한남더힐)","location":"null","lat":"37.53774151872","lng":"127.0096514044","zcode":"11","zscode":"11170"},{"statNm":"한남 더힐아파트113동","statId":"EV001624","addr":"서울특별시 용산구 독서당로 111 (한남동, 한남더힐)","location":"null","lat":"37.53830905308","lng":"127.0107603226","zcode":"11","zscode":"11170"},{"statNm":"한남 더힐아파트129동","statId":"EV001625","addr":"서울특별시 용산구 독서당로 111 (한남동, 한남더힐)","location":"null","lat":"37.53581345568","lng":"127.0086441772","zcode":"11","zscode":"11170"},{"statNm":"한남 더힐아파트116동","statId":"EV001626","addr":"서울특별시 용산구 독서당로 111 (한남동, 한남더힐)","location":"null","lat":"37.53745308509","lng":"127.0109525481","zcode":"11","zscode":"11170"},{"statNm":"한남 더힐아파트119동","statId":"EV001627","addr":"서울특별시 용산구 독서당로 111 (한남동, 한남더힐)","location":"null","lat":"37.53615564125","lng":"127.0109863016","zcode":"11","zscode":"11170"},{"statNm":"한남 더힐아파트121동","statId":"EV001628","addr":"서울특별시 용산구 독서당로 111 (한남동, 한남더힐)","location":"null","lat":"37.53684950009","lng":"127.0099907252","zcode":"11","zscode":"11170"},{"statNm":"한남 더힐아파트123동","statId":"EV001629","addr":"서울특별시 용산구 독서당로 111 (한남동, 한남더힐)","location":"null","lat":"37.53592145212","lng":"127.0101942603","zcode":"11","zscode":"11170"},{"statNm":"한남 더힐아파트125동","statId":"EV001630","addr":"서울특별시 용산구 독서당로 111 (한남동, 한남더힐)","location":"null","lat":"37.53589896390","lng":"127.0097586536","zcode":"11","zscode":"11170"},{"statNm":"한남 더힐아파트130동","statId":"EV001631","addr":"서울특별시 용산구 독서당로 111 (한남동, 한남더힐)","location":"null","lat":"37.53594865122","lng":"127.0079992726","zcode":"11","zscode":"11170"},{"statNm":"서초푸르지오써밋아파트 A블럭","statId":"EV001652","addr":"서울특별시 서초구 서운로 201 (서초동, 서초푸르지오써밋)","location":"null","lat":"37.50151971876","lng":"127.0210124773","zcode":"11","zscode":"11650"},{"statNm":"서초푸르지오써밋아파트 B블럭","statId":"EV001653","addr":"서울특별시 서초구 서운로 201 (서초동, 서초푸르지오써밋)","location":"null","lat":"37.50108738377","lng":"127.0201641717","zcode":"11","zscode":"11650"},{"statNm":"서초푸르지오써밋아파트2단지","statId":"EV001654","addr":"서울특별시 서초구 서운로 201 (서초동, 서초푸르지오써밋)","location":"null","lat":"37.50109622381","lng":"127.0211367591","zcode":"11","zscode":"11650"},{"statNm":"푸르덴셜타워","statId":"EV001656","addr":"서울특별시 강남구 강남대로 298","location":"지하8층 E기둥","lat":"37.490051","lng":"127.0321629","zcode":"11","zscode":"11680"},{"statNm":"방배1차현대아파트","statId":"EV001658","addr":"서울특별시 서초구 서초대로1길 30 (방배동, 방배1차현대아파트)","location":"null","lat":"37.48923251996","lng":"126.9836134048","zcode":"11","zscode":"11650"},{"statNm":"신공덕2삼성래미안1","statId":"EV001671","addr":"서울특별시 마포구 만리재로 74 (신공덕동, 신공덕2차삼성래미안)","location":"null","lat":"37.54627583950","lng":"126.9577717075","zcode":"11","zscode":"11440"},{"statNm":"신공덕2삼성래미안2","statId":"EV001672","addr":"서울특별시 마포구 만리재로 74 (신공덕동, 신공덕2차삼성래미안)","location":"null","lat":"37.54614974210","lng":"126.9578905959","zcode":"11","zscode":"11440"},{"statNm":"남산스퀘어","statId":"EV001678","addr":"서울특별시 중구 퇴계로 173","location":"null","lat":"37.561627","lng":"126.9910302","zcode":"11","zscode":"11140"},{"statNm":"금천구청","statId":"EV001701","addr":"서울특별시 금천구 시흥대로73길 70","location":"null","lat":"37.4570651","lng":"126.8960351","zcode":"11","zscode":"11545"},{"statNm":"LH강남브리즈힐","statId":"EV001727","addr":"서울특별시 강남구 자곡로3길 45 (자곡동, LH 강남브리즈힐)","location":"null","lat":"37.47222384565","lng":"127.0906869030","zcode":"11","zscode":"11680"},{"statNm":"SH공사동대문센터","statId":"EV001736","addr":"서울특별시 중랑구 봉화산로 165","location":"null","lat":"37.6053909","lng":"127.0916637","zcode":"11","zscode":"11260"},{"statNm":"SH공사강남센터","statId":"EV001737","addr":"서울특별시 강남구 논현로 417","location":"null","lat":"37.497351","lng":"127.0380962","zcode":"11","zscode":"11680"},{"statNm":"SH공사강서센터","statId":"EV001738","addr":"서울특별시 강서구 마곡중앙1로 72","location":"null","lat":"37.5589997","lng":"126.8199372","zcode":"11","zscode":"11500"},{"statNm":"SH공사노원센터","statId":"EV001739","addr":"서울특별시 노원구 월계로 372","location":"null","lat":"37.6292479","lng":"127.059665","zcode":"11","zscode":"11350"},{"statNm":"SH공사양천센터","statId":"EV001740","addr":"서울특별시 양천구 신정로 267","location":"null","lat":"37.5122194","lng":"126.8506702","zcode":"11","zscode":"11470"},{"statNm":"강남 역삼2동주민센터","statId":"EV001741","addr":"서울특별시 강남구 도곡로43길 25","location":"null","lat":"37.4959747","lng":"127.0468165","zcode":"11","zscode":"11680"},{"statNm":"강남 개포1동주민센터","statId":"EV001750","addr":"서울특별시 강남구 개포로 303","location":"null","lat":"37.4819792","lng":"127.0574854","zcode":"11","zscode":"11680"},{"statNm":"LG가산디지털센터","statId":"EV001760","addr":"서울특별시 금천구 가산디지털1로 189","location":"지하1층 주차장","lat":"37.4821518","lng":"126.8797058","zcode":"11","zscode":"11545"},{"statNm":"아카데미스위트 아파트","statId":"EV001808","addr":"서울특별시 강남구 언주로30길 21 (도곡동, 아카데미스위트)","location":"null","lat":"37.48886540776","lng":"127.0520135015","zcode":"11","zscode":"11680"},{"statNm":"석관동두산위브아파트2","statId":"EV001810","addr":"서울특별시 성북구 화랑로48길 16 (석관동, 두산아파트)","location":"null","lat":"37.61308184597","lng":"127.0674127312","zcode":"11","zscode":"11290"},{"statNm":"석관동두산위브아파트3","statId":"EV001811","addr":"서울특별시 성북구 화랑로48길 16 (석관동, 두산아파트)","location":"null","lat":"37.61320715387","lng":"127.0688512567","zcode":"11","zscode":"11290"},{"statNm":"석관동두산위브아파트4","statId":"EV001812","addr":"서울특별시 성북구 화랑로48길 16 (석관동, 두산아파트)","location":"null","lat":"37.61376388117","lng":"127.0689944797","zcode":"11","zscode":"11290"},{"statNm":"석관동두산위브아파트5","statId":"EV001813","addr":"서울특별시 성북구 화랑로48길 16 (석관동, 두산아파트)","location":"null","lat":"37.61271166979","lng":"127.0687488658","zcode":"11","zscode":"11290"},{"statNm":"석관동두산위브아파트6","statId":"EV001814","addr":"서울특별시 성북구 화랑로48길 16 (석관동, 두산아파트)","location":"null","lat":"37.61213017447","lng":"127.0693599301","zcode":"11","zscode":"11290"},{"statNm":"석관동두산위브아파트7","statId":"EV001815","addr":"서울특별시 성북구 화랑로48길 16 (석관동, 두산아파트)","location":"null","lat":"37.61376388117","lng":"127.0689944797","zcode":"11","zscode":"11290"},{"statNm":"돈암동 한신한진아파트213동","statId":"EV001816","addr":"서울특별시 성북구 성북로4길 52 (돈암동, 한신한진아파트)","location":"null","lat":"37.59511669674","lng":"127.0122858249","zcode":"11","zscode":"11290"},{"statNm":"돈암동 한신한진아파트207동","statId":"EV001817","addr":"서울특별시 성북구 성북로4길 52 (돈암동, 한신한진아파트)","location":"null","lat":"37.59618450788","lng":"127.0108988714","zcode":"11","zscode":"11290"},{"statNm":"돈암동 한신한진아파트209동","statId":"EV001818","addr":"서울특별시 성북구 성북로4길 52 (돈암동, 한신한진아파트)","location":"null","lat":"37.59660334318","lng":"127.0121841572","zcode":"11","zscode":"11290"},{"statNm":"종암2차아이파크아파트2","statId":"EV001820","addr":"서울특별시 성북구 종암로9길 71 (종암동, 종암2차 아이파크)","location":"null","lat":"37.5970547549","lng":"127.0315533075","zcode":"11","zscode":"11290"},{"statNm":"아크로리버뷰신반포101동","statId":"EV001840","addr":"서울특별시 서초구 잠원로 117 (잠원동, 아크로리버뷰신반포)","location":"null","lat":"37.513712","lng":"127.00605140","zcode":"11","zscode":"11650"},{"statNm":"아크로리버뷰신반포102동","statId":"EV001841","addr":"서울특별시 서초구 잠원로 117 (잠원동, 아크로리버뷰신반포)","location":"null","lat":"37.514167","lng":"127.00643036","zcode":"11","zscode":"11650"},{"statNm":"아크로리버뷰신반포105동","statId":"EV001842","addr":"서울특별시 서초구 잠원로 117 (잠원동, 아크로리버뷰신반포)","location":"null","lat":"37.515662","lng":"127.00796317","zcode":"11","zscode":"11650"},{"statNm":"북한산대창센시티","statId":"EV001843","addr":"서울특별시 은평구 불광로 208 (불광동, 북한산대창센시티)","location":"null","lat":"37.625411","lng":"126.92980305","zcode":"11","zscode":"11380"},{"statNm":"국민은행 본점","statId":"EV001844","addr":"서울특별시 영등포구 국제금융로8길 26 (여의도동)","location":"null","lat":"37.520869","lng":"126.92789208","zcode":"11","zscode":"11560"},{"statNm":"국민은행 IT센터","statId":"EV001845","addr":"서울특별시 영등포구 의사당대로 13 (여의도동)","location":"null","lat":"37.528651","lng":"126.91865295","zcode":"11","zscode":"11560"},{"statNm":"마곡푸르지오","statId":"EV001846","addr":"서울특별시 강서구 방화대로34길 88 (방화동, 마곡푸르지오)","location":"null","lat":"37.570383","lng":"126.82119574","zcode":"11","zscode":"11500"},{"statNm":"홍은동원베네스트","statId":"EV001849","addr":"서울특별시 서대문구 홍은중앙로1길 65 (홍은동, 동원베네스트아파트)","location":"null","lat":"37.598482","lng":"126.94445877","zcode":"11","zscode":"11410"},{"statNm":"서울중랑 석탑아파트","statId":"EV001856","addr":"서울특별시 중랑구 용마산로125길 92 (신내동, 석탑아파트)","location":"null","lat":"37.603570","lng":"127.10120587","zcode":"11","zscode":"11260"},{"statNm":"마곡일성트루엘플래닛","statId":"EV001867","addr":"서울특별시 강서구 마곡중앙로 161-22 (마곡동)","location":"null","lat":"37.568638","lng":"126.82578650","zcode":"11","zscode":"11500"},{"statNm":"강서오곡셀프주유소","statId":"EV001873","addr":"서울특별시 강서구 벌말로 254","location":"null","lat":"37.553682940155","lng":"126.7682661991","zcode":"11","zscode":"11500"},{"statNm":"왕십리자이아파트102동","statId":"EV001886","addr":"서울특별시 성동구 난계로 100 (하왕십리동, 왕십리자이)","location":"null","lat":"37.560989","lng":"127.02443027","zcode":"11","zscode":"11200"},{"statNm":"왕십리자이아파트104동","statId":"EV001887","addr":"서울특별시 성동구 난계로 100 (하왕십리동, 왕십리자이)","location":"null","lat":"37.560354","lng":"127.02491674","zcode":"11","zscode":"11200"},{"statNm":"은평뉴타운 마고정3단지 312동","statId":"EV001902","addr":"서울특별시 은평구 진관2로 90 (진관동, 은평뉴타운 마고정)","location":"null","lat":"37.633071","lng":"126.92672906","zcode":"11","zscode":"11380"},{"statNm":"은평뉴타운 마고정3단지 313동","statId":"EV001903","addr":"서울특별시 은평구 진관2로 90 (진관동, 은평뉴타운 마고정)","location":"null","lat":"37.632913","lng":"126.92722203","zcode":"11","zscode":"11380"},{"statNm":"도곡쌍용예가아파트1","statId":"EV001906","addr":"서울특별시 강남구 남부순환로363길 30 (도곡동, 도곡쌍용예가아파트)","location":"null","lat":"37.487234","lng":"127.038376","zcode":"11","zscode":"11680"},{"statNm":"동작 이수교KCC스위첸아파트","statId":"EV001908","addr":"서울특별시 동작구 동작대로45길 22 (동작동, 이수교KCC스위첸아파트)","location":"null","lat":"37.497512","lng":"126.98118533","zcode":"11","zscode":"11590"},{"statNm":"대치동롯데캐슬아파트","statId":"EV001911","addr":"서울특별시 강남구 삼성로85길 11 (대치동, 롯데캐슬아파트)","location":"null","lat":"37.504598","lng":"127.05618636","zcode":"11","zscode":"11680"},{"statNm":"남가좌현대아파트A","statId":"EV001916","addr":"서울특별시 서대문구 가재울로 45 (남가좌동, 남가좌동현대아파트)","location":"null","lat":"37.574709","lng":"126.92015828","zcode":"11","zscode":"11410"},{"statNm":"남가좌현대아파트C","statId":"EV001917","addr":"서울특별시 서대문구 가재울로 45 (남가좌동, 남가좌동현대아파트)","location":"null","lat":"37.574390","lng":"126.92040200","zcode":"11","zscode":"11410"},{"statNm":"도곡1차아이파크","statId":"EV001923","addr":"서울특별시 강남구 도곡로28길 8 (도곡동, 도곡1차 I PARK)","location":"null","lat":"37.492300","lng":"127.04394776","zcode":"11","zscode":"11680"},{"statNm":"동대문 용두롯데캐슬리치","statId":"EV001928","addr":"서울특별시 동대문구 한빛로 73 (용두동, 용두롯데캐슬리치)","location":"null","lat":"37.578751","lng":"127.03137010","zcode":"11","zscode":"11230"},