[{"statNm":"장안구청","statId":"ME000108","addr":"경기도 수원시 장안구 송원로 101","location":"null","lat":"37.304438","lng":"127.010121","zcode":"41","zscode":"41110"},{"statNm":"롯데마트 영통점","statId":"ME000110","addr":"경기도 수원시 영통구 봉영로 1579","location":"null","lat":"37.252726","lng":"127.071649","zcode":"41","zscode":"41110"},{"statNm":"동양컴퓨터학원 앞(공중전화부스)","statId":"ME000113","addr":"경기도 성남시 중원구 중앙동 1175","location":"null","lat":"37.4398788","lng":"127.1455762","zcode":"41","zscode":"41130"},{"statNm":"성남 맛고을 주차장","statId":"ME000115","addr":"경기도 성남시 분당구 야탑로 111번길 12-14","location":"null","lat":"37.4119752","lng":"127.1320774","zcode":"41","zscode":"41130"},{"statNm":"하나로마트 성남점","statId":"ME000116","addr":"경기도 성남시 분당구 성남대로 43번길 11 ","location":"null","lat":"37.3378677","lng":"127.1086182","zcode":"41","zscode":"41130"},{"statNm":"홈플러스 의정부점","statId":"ME000117","addr":"경기도 의정부시 청사로 38","location":"null","lat":"37.75264066","lng":"127.07132022","zcode":"41","zscode":"41150"},{"statNm":"홈플러스 안양점","statId":"ME000118","addr":"경기도 안양시 동안구 엘에스로 92","location":"null","lat":"37.370042","lng":"126.953179","zcode":"41","zscode":"41170"},{"statNm":"안양시청","statId":"ME000119","addr":"경기도 안양시 동안구 관앙동 1590","location":"null","lat":"37.394966","lng":"126.957851","zcode":"41","zscode":"41170"},{"statNm":"롯데마트 주엽점","statId":"ME000128","addr":"경기도 고양시 일산서구 중앙로 1496","location":"null","lat":"37.673095","lng":"126.755524","zcode":"41","zscode":"41280"},{"statNm":"롯데마트 마석점","statId":"ME000134","addr":"경기도 남양주시 화도읍 경춘로 1992","location":"null","lat":"37.650216","lng":"127.309384","zcode":"41","zscode":"41360"},{"statNm":"의왕휴게소(서울방향)","statId":"ME000136","addr":"경기도 의왕시 오전로 24","location":"null","lat":"37.347493","lng":"126.985383","zcode":"41","zscode":"41430"},{"statNm":"의왕휴게소(의왕방향)","statId":"ME000137","addr":"경기도 의왕시 오전로 24","location":"null","lat":"37.348306","lng":"126.983728","zcode":"41","zscode":"41430"},{"statNm":"송산포도휴게소(평택방향)","statId":"ME000158","addr":"경기도 화성시 송산면 평택시흥고속도로 25","location":"null","lat":"37.2380223","lng":"126.7566458","zcode":"41","zscode":"41590"},{"statNm":"송산포도휴게소(시흥방향)","statId":"ME000159","addr":"경기도 화성시 송산면 평택시흥고속도로 25","location":"null","lat":"37.2363191","lng":"126.7571394","zcode":"41","zscode":"41590"},{"statNm":"경안동 공영주차장","statId":"ME000160","addr":"경기도 광주시 경안로 13-6","location":"null","lat":"37.409390","lng":"127.258993","zcode":"41","zscode":"41610"},{"statNm":"연천군청","statId":"ME000164","addr":"경기도 연천군 연천읍 연천로 220","location":"null","lat":"38.0962527","lng":"127.0750094","zcode":"41","zscode":"41800"},{"statNm":"롯데마트 화정점","statId":"ME174129","addr":"경기도 고양시 덕양구 화정동 982","location":"null","lat":"37.6330778","lng":"126.8319826","zcode":"41","zscode":"41280"},{"statNm":"덕양구청 주차장","statId":"ME174130","addr":"경기도 고양시 덕양구 화중로 104번길 13","location":"null","lat":"37.6365691","lng":"126.8322234","zcode":"41","zscode":"41280"},{"statNm":"갈현동 주민센터 주차장","statId":"ME174131","addr":"경기도 과천시 갈현동 679","location":"null","lat":"37.4195192","lng":"126.9897337","zcode":"41","zscode":"41290"},{"statNm":"경안시장 공영주차장","statId":"ME174132","addr":"경기도 광주시 중앙로 103-5","location":"null","lat":"37.4087438","lng":"127.2587731","zcode":"41","zscode":"41610"},{"statNm":"구리시청","statId":"ME174133","addr":"경기도 구리시 교문동 390-1","location":"null","lat":"37.5945845","lng":"127.1305708","zcode":"41","zscode":"41310"},{"statNm":"남양주 시청","statId":"ME174134","addr":"경기도 남양주시 금곡동 185-10","location":"null","lat":"37.6363052","lng":"127.2177977","zcode":"41","zscode":"41360"},{"statNm":"소사어울림마당 주차장","statId":"ME174135","addr":"경기도 부천시 경인옛로 73","location":"null","lat":"37.4802773","lng":"126.800447","zcode":"41","zscode":"41190"},{"statNm":"오정어울마당","statId":"ME174136","addr":"경기도 부천시 오정동 129","location":"null","lat":"37.52828070","lng":"126.79509520","zcode":"41","zscode":"41190"},{"statNm":"부천종합운동장","statId":"ME174137","addr":"경기도 부천시 춘의동 8 24 필지","location":"null","lat":"37.5010615","lng":"126.7980075","zcode":"41","zscode":"41190"},{"statNm":"롯데마트 판교점","statId":"ME174138","addr":"경기도 성남시 분당구 삼평동 741","location":"null","lat":"37.3952309","lng":"127.1144468","zcode":"41","zscode":"41130"},{"statNm":"성남아트센터 옥외주차장","statId":"ME174139","addr":"경기도 성남시 분당구 성남대로 808","location":"null","lat":"37.3996125","lng":"127.1302612","zcode":"41","zscode":"41130"},{"statNm":"갯골생태공원","statId":"ME174140","addr":"경기도 시흥시 장곡동 724-32","location":"null","lat":"37.3887295","lng":"126.781445","zcode":"41","zscode":"41390"},{"statNm":"대부도 공영 주차장","statId":"ME174141","addr":"경기도 안산시 단원구 대부북동 1849-30","location":"null","lat":"37.2836347","lng":"126.5716565","zcode":"41","zscode":"41270"},{"statNm":"롯데마트 안산점","statId":"ME174142","addr":"경기도 안산시 상록구 성도동 590","location":"null","lat":"37.3179811","lng":"126.8471001","zcode":"41","zscode":"41270"},{"statNm":"관악역 3환승 공영주차장 ","statId":"ME174143","addr":"경기도 안양시 만안구 석수1동 110-26","location":"null","lat":"37.4179021","lng":"126.91137","zcode":"41","zscode":"41170"},{"statNm":"만안구청","statId":"ME174144","addr":"경기도 안양시 만안구 안양동 530","location":"null","lat":"37.3863379","lng":"126.9329464","zcode":"41","zscode":"41170"},{"statNm":"송추 제2주차장","statId":"ME174145","addr":"경기도 양주시 장흥면 울대리 527","location":"null","lat":"37.7159746","lng":"126.9799522","zcode":"41","zscode":"41630"},{"statNm":"홈플러스 오산점","statId":"ME174146","addr":"경기도 오산시 수청동 610","location":"null","lat":"37.1702205","lng":"127.062564","zcode":"41","zscode":"41370"},{"statNm":"용인시청","statId":"ME174147","addr":"경기도 용인시 처인구 삼가동 556","location":"null","lat":"37.2406659","lng":"127.1773752","zcode":"41","zscode":"41460"},{"statNm":"포곡읍사무소","statId":"ME174148","addr":"경기도 용인시 처인구 포곡읍 포곡로 258","location":"null","lat":"37.2781004","lng":"127.2312587","zcode":"41","zscode":"41460"},{"statNm":"백석천지하2 공영주차장","statId":"ME174149","addr":"경기도 의정부시 시민로19번길 13","location":"null","lat":"37.738771","lng":"127.0361471","zcode":"41","zscode":"41150"},{"statNm":"파주시청광장 주차장","statId":"ME174150","addr":"경기도 파주시 시청로 50","location":"null","lat":"37.7597286","lng":"126.780664","zcode":"41","zscode":"41480"},{"statNm":"홈플러스 송탄점","statId":"ME174151","addr":"경기도 평택시 장당동 390-1","location":"null","lat":"37.0451372","lng":"127.0602353","zcode":"41","zscode":"41220"},{"statNm":"한강유역환경청","statId":"ME174152","addr":"경기도 하남시 미사강변 한강로 299","location":"null","lat":"37.5704789","lng":"127.1956732","zcode":"41","zscode":"41450"},{"statNm":"유앤아이센터","statId":"ME174153","addr":"경기도 화성시 태안로 145","location":"null","lat":"37.203321","lng":"127.0339584","zcode":"41","zscode":"41590"},{"statNm":"죽전휴게소(서울방향)","statId":"ME178002","addr":"경기도 용인시 수지구 경부고속도로 400 (죽전동)","location":"null","lat":"37.3320728","lng":"127.1048475","zcode":"41","zscode":"41460"},{"statNm":"기흥휴게소(부산방향)","statId":"ME178003","addr":"경기도 용인시 기흥구 공세로 173 (공세동)","location":"null","lat":"37.2356557","lng":"127.105021","zcode":"41","zscode":"41460"},{"statNm":"이천휴게소(통영방향)","statId":"ME178043","addr":"경기도 이천시 마장면 중부대로609번길 244-35 (목리)","location":"null","lat":"37.2651225","lng":"127.4032213","zcode":"41","zscode":"41500"},{"statNm":"이천휴게소(하남방향)","statId":"ME178044","addr":"경기도 이천시 신둔면 서이천로853번길 346-129 (용면리)","location":"null","lat":"37.2935075","lng":"127.3768719","zcode":"41","zscode":"41500"},{"statNm":"서여주휴게소(마산방향)","statId":"ME178060","addr":"경기도 여주시 능서면 중부내륙고속도로 271 (매류리)","location":"null","lat":"37.2788058","lng":"127.5784578","zcode":"41","zscode":"41670"},{"statNm":"서여주휴게소(양평방향)","statId":"ME178061","addr":"경기도 여주시 능서면 중부내륙고속도로 272 (매류리)","location":"null","lat":"37.278818","lng":"127.5803924","zcode":"41","zscode":"41670"},{"statNm":"하남만남휴게소(통영방향)","statId":"ME178066","addr":"경기도 하남시 중부고속도로 117-1 (천현동)","location":"null","lat":"37.5307192","lng":"127.2070906","zcode":"41","zscode":"41450"},{"statNm":"안성맞춤휴게소(제천방향)","statId":"ME178109","addr":"경기도 안성시 서운면 신능리 51-11","location":"null","lat":"36.96806","lng":"127.2750034","zcode":"41","zscode":"41550"},{"statNm":"안성맞춤휴게소(평택방향)","statId":"ME178110","addr":"경기도 안성시 서운면 신능리 51-16","location":"null","lat":"36.9700252","lng":"127.2740842","zcode":"41","zscode":"41550"},{"statNm":"덕평휴게소(강릉방향)","statId":"ME178116","addr":"경기도 이천시 마장면 덕이로 154번길 287-76","location":"null","lat":"37.2425553","lng":"127.3901826","zcode":"41","zscode":"41500"},{"statNm":"마장복합휴게소","statId":"ME178117","addr":"경기도 이천시 마장면 중부고속도로82","location":"null","lat":"37.2622104","lng":"127.4082098","zcode":"41","zscode":"41500"},{"statNm":"여주휴게소(강릉방향)","statId":"ME178118","addr":"경기도 여주시 가남읍 여주남로 722 (본두리)","location":"null","lat":"37.2382316","lng":"127.5703288","zcode":"41","zscode":"41670"},{"statNm":"여주휴게소(서창방향)","statId":"ME178119","addr":"경기도 여주시 가남읍 화평길 116 (본두리)","location":"null","lat":"37.2397087","lng":"127.5692985","zcode":"41","zscode":"41670"},{"statNm":"용인휴게소(강릉방향)","statId":"ME178120","addr":"경기도 용인시 처인구 주북로94번길 30-1 (고림동)","location":"null","lat":"37.2458742","lng":"127.2429327","zcode":"41","zscode":"41460"},{"statNm":"용인휴게소(서창방향)","statId":"ME178121","addr":"경기도 용인시 처인구 주북로 66-14 (고림동)","location":"null","lat":"37.2478126","lng":"127.2389965","zcode":"41","zscode":"41460"},{"statNm":"구리휴게소(외측방향)","statId":"ME178123","addr":"경기도 구리시 서울외곽순환고속도로 32 (사노동)","location":"null","lat":"37.627658","lng":"127.1394734","zcode":"41","zscode":"41310"},{"statNm":"성남휴게소(외측방향)","statId":"ME178124","addr":"경기도 성남시 수정구 산성대로 41 (수진동)","location":"null","lat":"37.4355238","lng":"127.1241389","zcode":"41","zscode":"41130"},{"statNm":"비봉영업소","statId":"ME178128","addr":"경기도 화성시 봉담읍 내리 13-5 인근","location":"null","lat":"37.2325528","lng":"126.9041303","zcode":"41","zscode":"41590"},{"statNm":"물왕영업소","statId":"ME178129","addr":"경기도 시흥시 금이진말길 34","location":"null","lat":"37.391825","lng":"126.8296762","zcode":"41","zscode":"41390"},{"statNm":"경기광주휴게소(원주방향)","statId":"ME178138","addr":"경기도 광주시 곤지암읍 만삼로 270","location":"null","lat":"37.3786675","lng":"127.4349428","zcode":"41","zscode":"41610"},{"statNm":"경기광주휴게소(서울방향)","statId":"ME178139","addr":"경기도 광주시 곤지암읍 만삼로 211","location":"null","lat":"37.3797649","lng":"127.4264082","zcode":"41","zscode":"41610"},{"statNm":"양평휴게소(원주방향)","statId":"ME178140","addr":"경기도 양평군 양동면 단석리 506-7","location":"null","lat":"37.3958534","lng":"127.7270023","zcode":"41","zscode":"41830"},{"statNm":"양평휴게소(광주방향)","statId":"ME178141","addr":"경기도 양평군 양동면 단석리 513-2 (여양3로 384-27)","location":"null","lat":"37.3979511","lng":"127.7245558","zcode":"41","zscode":"41830"},{"statNm":"오산휴게소(과천방향)","statId":"ME178142","addr":"경기도 오산시 지곶동 산60","location":"null","lat":"37.1790234","lng":"127.0373578","zcode":"41","zscode":"41370"},{"statNm":"오산휴게소(동탄방향)","statId":"ME178143","addr":"경기도 오산시 금암동 41-2","location":"null","lat":"37.1764775","lng":"127.0386451","zcode":"41","zscode":"41370"},{"statNm":"시흥본선상공형휴게시설휴게소(일산방향)","statId":"ME178144","addr":"경기도 시흥시 조남동","location":"null","lat":"37.3839332","lng":"126.8567118","zcode":"41","zscode":"41390"},{"statNm":"시흥본선상공형휴게시설휴게소(판교방향)","statId":"ME178145","addr":"경기도 시흥시 조남동","location":"null","lat":"37.384441","lng":"126.8552842","zcode":"41","zscode":"41390"},{"statNm":"경진셀프주유소","statId":"ME181107","addr":"경기도 수원시 장안구 파장동 585-4","location":"null","lat":"37.308141","lng":"126.996222","zcode":"41","zscode":"41110"},{"statNm":"안성휴게소(서울방향)","statId":"ME181108","addr":"경기도 안성시 원곡면 산하리 421-4 ","location":"null","lat":"37.076523","lng":"127.132887","zcode":"41","zscode":"41550"},{"statNm":"롯데마트 장암점","statId":"ME181109","addr":"경기도 의정부시 장곡로 224 (장암동)","location":"null","lat":"37.723617","lng":"127.053002","zcode":"41","zscode":"41150"},{"statNm":"세화제2주유소","statId":"ME181110","addr":"경기도 시흥시 동서로425","location":"null","lat":"37.384023","lng":"126.794164","zcode":"41","zscode":"41390"},{"statNm":"S-oil 셀프 신현주유소(영광셀프주유소)","statId":"ME181111","addr":"경기도 시흥시 시흥대로869","location":"null","lat":"37.413952","lng":"126.788019","zcode":"41","zscode":"41390"},{"statNm":"헤이리아트밸리","statId":"ME181112","addr":"경기도 파주시 탄현면 헤이리마을길82-105","location":"null","lat":"37.788197","lng":"126.703787","zcode":"41","zscode":"41480"},{"statNm":"장암주유소","statId":"ME181114","addr":"경기도 의정부시 동일로30","location":"null","lat":"37.69218","lng":"127.055326","zcode":"41","zscode":"41150"},{"statNm":"북한산국립공원 원도봉 제3주차장","statId":"ME181115","addr":"경기도 의정부시 호원동 229-160","location":"null","lat":"37.705902","lng":"127.037318","zcode":"41","zscode":"41150"},{"statNm":"천마산군립공원 공영주차장","statId":"ME181116","addr":"경기도 남양주시 화도읍 묵현로 91","location":"null","lat":"37.663790","lng":"127.292045","zcode":"41","zscode":"41360"},{"statNm":"유카스주유소","statId":"ME181117","addr":"경기도 김포시 양촌읍 누산리 295-7","location":"null","lat":"37.662339","lng":"126.661855","zcode":"41","zscode":"41570"},{"statNm":"용인시민체육공원","statId":"ME181118","addr":"null","location":"null","lat":"37.247782000","lng":"127.16471309","zcode":"41","zscode":"41460"},{"statNm":"KH양주휴게소","statId":"ME181119","addr":"경기도 양주시 장흥면 서울외곽순환고속도로 58","location":"null","lat":"37.679283","lng":"126.915681","zcode":"41","zscode":"41630"},{"statNm":"롯데마트 광교점","statId":"ME181121","addr":"경기도 수원시 영통구 센트럴타운로 85-0 (이의동)","location":"null","lat":"37.290317","lng":"127.051032","zcode":"41","zscode":"41110"},{"statNm":"롯데마트 천천점","statId":"ME181122","addr":"경기도 수원시 장안구 만석로19번길 25-10 (천천동)","location":"null","lat":"37.296102","lng":"126.982343","zcode":"41","zscode":"41110"},{"statNm":"롯데마트 오산점","statId":"ME181124","addr":"5층 37구역","location":"null","lat":"37.14941","lng":"127.073034","zcode":"41","zscode":"41370"},{"statNm":"롯데마트 의왕점","statId":"ME181125","addr":"경기도 의왕시 계원대학로 7-0 (내손동)","location":"null","lat":"37.38044","lng":"126.972793","zcode":"41","zscode":"41430"},{"statNm":"롯데마트 피트인산본점","statId":"ME181126","addr":"경기도 군포시 번영로 485 (산본동)","location":"null","lat":"37.357742","lng":"126.930631","zcode":"41","zscode":"41410"},{"statNm":"롯데마트 상록점","statId":"ME181127","addr":"경기도 안산시 상록구 반석로 8 (본오동)","location":"null","lat":"37.296542","lng":"126.861875","zcode":"41","zscode":"41270"},{"statNm":"롯데마트 덕소점","statId":"ME181134","addr":"경기도 남양주시 와부읍 월문천로 33 (덕소리)","location":"null","lat":"37.584649","lng":"127.214612","zcode":"41","zscode":"41360"},{"statNm":"롯데마트 동두천점","statId":"ME181135","addr":"경기도 동두천시 평화로 2169번길 21 (송내동)","location":"null","lat":"37.880654","lng":"127.053317","zcode":"41","zscode":"41250"},{"statNm":"롯데프리미엄아울렛파주점","statId":"ME181151","addr":"경기도 파주시 회동길 390롯데 파주 프리미엄 아울렛","location":"null","lat":"37.719679","lng":"126.693083","zcode":"41","zscode":"41480"},{"statNm":"동탄2수질복원센터","statId":"ME183191","addr":"경기도 화성시 동탄면 동탄산단7길 60","location":"null","lat":"37.1759811","lng":"127.0858199","zcode":"41","zscode":"41590"},{"statNm":"한국주택토지공사 동탄사업본부","statId":"ME183192","addr":"경기도 화성시 노작로 10, 우측주차장","location":"null","lat":"37.1947725","lng":"127.0854885","zcode":"41","zscode":"41590"},{"statNm":"롯데마트 평택점","statId":"ME183193","addr":"경기도 평택시 평택5로 30, 6층 주차장","location":"null","lat":"36.9884138","lng":"127.1117014","zcode":"41","zscode":"41220"},{"statNm":"롯데마트 안성점","statId":"ME183194","addr":"경기도 안성시 공도읍 서동대로 4478, 정문 부근 옥외주차장","location":"null","lat":"37.0081696","lng":"127.1999764","zcode":"41","zscode":"41550"},{"statNm":"통진두레문화센터","statId":"ME183208","addr":"경기도 김포시 통진읍 김포대로 2347-8","location":"null","lat":"37.6954434","lng":"126.5876238","zcode":"41","zscode":"41570"},{"statNm":"롯데마트 신갈점","statId":"ME183214","addr":"경기도 용인시 기흥구 중부대로 375, 지하2층 10","location":"null","lat":"37.2722536","lng":"127.1088814","zcode":"41","zscode":"41460"},{"statNm":"롯데마트 권선점","statId":"ME183215","addr":"경기도 수원시 권선구 동수원로 232, 지하2층 주차장 좌측","location":"null","lat":"37.2502211","lng":"127.0351593","zcode":"41","zscode":"41110"},{"statNm":"롯데마트 시흥배곧점","statId":"ME183216","addr":"경기도 시흥시 서울대학로278번길 67, 지상4층 주차장 A4","location":"null","lat":"37.3687207","lng":"126.731224","zcode":"41","zscode":"41390"},{"statNm":"수원도시공사","statId":"ME183218","addr":"경기도 수원시 권선구 수인로 126, 수원도시공사 앞 주차장","location":"null","lat":"37.2744308","lng":"126.9832069","zcode":"41","zscode":"41110"},{"statNm":"가평휴게소(서울방향)","statId":"ME184006","addr":"경기도 가평군 설악면 미사리로 544 가평휴게소","location":"null","lat":"37.700917","lng":"127.543416","zcode":"41","zscode":"41820"},{"statNm":"가평휴게소(춘천방향)","statId":"ME184007","addr":"경기도 가평군 설악면 미사리로 540번길 51 가평휴게소","location":"null","lat":"37.702736","lng":"127.546924","zcode":"41","zscode":"41820"},{"statNm":"가평군청","statId":"ME184008","addr":"경기도 가평군 가평읍 석봉로 181","location":"null","lat":"37.831019","lng":"127.509502","zcode":"41","zscode":"41820"},{"statNm":"청평면사무소","statId":"ME184009","addr":"경기도 가평군 청평면 은고개로 23","location":"null","lat":"37.740422","lng":"127.424488","zcode":"41","zscode":"41820"},{"statNm":"고양시청","statId":"ME184010","addr":"경기도 고양시 덕양구 고양시청로 10","location":"null","lat":"37.6577609","lng":"126.8324928","zcode":"41","zscode":"41280"},{"statNm":"일산동구청","statId":"ME184011","addr":"경기도 고양시 일산동구 중앙로 1256","location":"null","lat":"37.6583498","lng":"126.7749827","zcode":"41","zscode":"41280"},{"statNm":"소요산축산물브랜드육타운 공영주차장","statId":"ME184012","addr":"경기도 동두천시 평화로2910번길 30","location":"null","lat":"37.945826","lng":"127.063052","zcode":"41","zscode":"41250"},{"statNm":"안성휴게소(서울방향)","statId":"ME184013","addr":"경기도 안성시 원곡면 경부고속도로 372","location":"null","lat":"37.077457","lng":"127.131745","zcode":"41","zscode":"41550"},{"statNm":"안성맞춤휴게소(평택방향)","statId":"ME184015","addr":"경기도 안성시 서운면 평택제천고속도로 41","location":"null","lat":"36.9701252","lng":"127.2738842","zcode":"41","zscode":"41550"},{"statNm":"안성맞춤휴게소(음성방향)","statId":"ME184016","addr":"경기도 안성시 서운면 평택제천고속도로 40","location":"null","lat":"36.96816","lng":"127.2748034","zcode":"41","zscode":"41550"},{"statNm":"안성시청","statId":"ME184017","addr":"경기도 안성시 시청길 25","location":"null","lat":"37.008365","lng":"127.278909","zcode":"41","zscode":"41550"},{"statNm":"청운면사무소","statId":"ME184019","addr":"경기도 양평군 청운면 용두로164번길 9-5","location":"null","lat":"37.556733","lng":"127.710731","zcode":"41","zscode":"41830"},{"statNm":"여주보건소","statId":"ME184020","addr":"경기도 여주시 여흥로 160번길 14","location":"null","lat":"37.294627","lng":"127.639960","zcode":"41","zscode":"41670"},{"statNm":"송전휴게소","statId":"ME184021","addr":"경기도 용인시 처인구 이동면 남북대로 2616","location":"null","lat":"37.140527","lng":"127.204711","zcode":"41","zscode":"41460"},{"statNm":"덕평휴게소(강릉방향)","statId":"ME184022","addr":"경기도 이천시 마장면 덕이로154번길 287-76","location":"null","lat":"37.2426553","lng":"127.3899826","zcode":"41","zscode":"41500"},{"statNm":"덕평휴게소(인천방향)","statId":"ME184023","addr":"경기도 이천시 마장면 덕이로154번길 287-76","location":"null","lat":"37.2411362","lng":"127.390816","zcode":"41","zscode":"41500"},{"statNm":"송탄역 공영주차장","statId":"ME184024","addr":"경기도 평택시 탄현1로 173","location":"null","lat":"37.0750","lng":"127.0539","zcode":"41","zscode":"41220"},{"statNm":"영중면사무소","statId":"ME184025","addr":"경기도 포천시 영중면 양문로 151","location":"null","lat":"38.005273","lng":"127.245173","zcode":"41","zscode":"41650"},{"statNm":"포천반월아트홀","statId":"ME184026","addr":"경기도 포천시 군내면 청성로 111","location":"null","lat":"37.895861","lng":"127.212435","zcode":"41","zscode":"41650"},{"statNm":"화성휴게소(목포방향)","statId":"ME184027","addr":"경기도 화성시 팔탄면 서해안고속도로 301","location":"null","lat":"37.143589","lng":"126.879181","zcode":"41","zscode":"41590"},{"statNm":"화성휴게소(시흥방향)","statId":"ME184028","addr":"경기도 화성시 팔탄면 서해안고속도로 302","location":"null","lat":"37.143600","lng":"126.881215","zcode":"41","zscode":"41590"},{"statNm":"화성시청","statId":"ME184029","addr":"경기도 화성시 남양읍 시청로 159","location":"null","lat":"37.197688","lng":"126.829745","zcode":"41","zscode":"41590"},{"statNm":"가평환경성질환 예방관리센터","statId":"ME18B127","addr":"경기도 가평군 상면 행현리 922","location":"null","lat":"37.77261","lng":"127.33676","zcode":"41","zscode":"41820"},{"statNm":"가평휴게소(춘천방향)","statId":"ME18B128","addr":"경기도 가평군 설악면 미사리로540번길 51","location":"null","lat":"37.70260","lng":"127.54629","zcode":"41","zscode":"41820"},{"statNm":"가평휴게소(서울방향)","statId":"ME18B129","addr":"경기도 가평군 설악면 미사리로 544","location":"null","lat":"37.70148","lng":"127.54344","zcode":"41","zscode":"41820"},{"statNm":"매송휴게소(시흥방향)","statId":"ME18B130","addr":"경기도 화성시 매송면 서해안고속도로 316-1","location":"null","lat":"37.26387","lng":"126.89065","zcode":"41","zscode":"41590"},{"statNm":"매송휴게소(목포방향)","statId":"ME18B131","addr":"경기도 화성시 매송면 서해안고속도로 315","location":"null","lat":"37.26483","lng":"126.88756","zcode":"41","zscode":"41590"},{"statNm":"롯데마트 영통점","statId":"ME18B132","addr":"경기도 수원시 영통구 영통동 960-1","location":"null","lat":"37.25270","lng":"127.07165","zcode":"41","zscode":"41110"},{"statNm":"송죽공영주차장","statId":"ME18B133","addr":"경기도 군포시 군포로609번안길 12","location":"null","lat":"37.36092","lng":"126.94727","zcode":"41","zscode":"41410"},{"statNm":"이마트 김포한강점","statId":"ME18B134","addr":"경기도 김포시 김포한강7로 71","location":"null","lat":"37.64413","lng":"126.62835","zcode":"41","zscode":"41570"},{"statNm":"와부읍 제3공영주차장","statId":"ME18B135","addr":"경기도 남양주시 와부읍 도곡리 1037-9","location":"null","lat":"37.57904","lng":"127.22428","zcode":"41","zscode":"41360"},{"statNm":"화도읍 제2공영주차장","statId":"ME18B136","addr":"경기도 남양주시 화도읍 마석우리 338-1","location":"null","lat":"37.65326","lng":"127.30196","zcode":"41","zscode":"41360"},{"statNm":"다산행정복지센터","statId":"ME18B137","addr":"경기도 남양주시 다산중앙로 7","location":"null","lat":"37.61387","lng":"127.15571","zcode":"41","zscode":"41360"},{"statNm":"롯데마트 수원점","statId":"ME18B138","addr":"경기도 수원시 권선구 세화로 134","location":"null","lat":"37.26333","lng":"126.99715","zcode":"41","zscode":"41110"},{"statNm":"곡반정동 제2공영주차장","statId":"ME18B139","addr":"경기도 수원시 권선구 곡반정동 553","location":"null","lat":"37.23954","lng":"127.03065","zcode":"41","zscode":"41110"},{"statNm":"세류역 환승주차장","statId":"ME18B140","addr":"경기도 수원시 권선구 장지동 45-1","location":"null","lat":"37.24319","lng":"127.01460","zcode":"41","zscode":"41110"},{"statNm":"반월역환승주차장","statId":"ME18B141","addr":"경기도 안산시 단원구 건건동 535-14","location":"null","lat":"37.31177","lng":"126.90488","zcode":"41","zscode":"41270"},{"statNm":"동안구청","statId":"ME18B142","addr":"경기도 안양시 동안구 동안로 158","location":"null","lat":"37.39253","lng":"126.95164","zcode":"41","zscode":"41170"},{"statNm":"개군면복지회관","statId":"ME18B143","addr":"경기도 양평군 개군면 추읍로 37","location":"null","lat":"37.42789","lng":"127.54208","zcode":"41","zscode":"41830"},{"statNm":"개군면사무소","statId":"ME18B144","addr":"경기도 양평군 개군면 하자포길33번길 8","location":"null","lat":"37.42586","lng":"127.53679","zcode":"41","zscode":"41830"},{"statNm":"양동면사무소","statId":"ME18B145","addr":"경기도 양평군 양동면 학둔지아래길 20","location":"null","lat":"37.42483","lng":"127.75118","zcode":"41","zscode":"41830"},{"statNm":"양평공영주차장","statId":"ME18B146","addr":"경기도 양평군 양서면 용담리 507-10","location":"null","lat":"37.54260","lng":"127.32532","zcode":"41","zscode":"41830"},{"statNm":"여주휴게소(강릉방향)","statId":"ME18B147","addr":"경기도 여주시 가남읍 여주남로 722","location":"null","lat":"37.23783","lng":"127.56823","zcode":"41","zscode":"41670"},{"statNm":"여주휴게소(인천방향)","statId":"ME18B148","addr":"경기도 여주시 가남읍 화평길 116","location":"null","lat":"37.23977","lng":"127.56797","zcode":"41","zscode":"41670"},{"statNm":"내촌교육문화센터","statId":"ME18B149","addr":"경기도 포천시 내촌면 내리 503","location":"null","lat":"37.78643","lng":"127.22708","zcode":"41","zscode":"41650"},{"statNm":"이마트 하남점","statId":"ME18B150","addr":"경기도 하남시 덕풍서로 70","location":"null","lat":"37.55282","lng":"127.20541","zcode":"41","zscode":"41450"},{"statNm":"하남미사 근린공원15호 주차장","statId":"ME18B151","addr":"경기도 하남시 망월동 728-9","location":"null","lat":"37.56325","lng":"127.18671","zcode":"41","zscode":"41450"},{"statNm":"하남미사 근린공원16호 주차장","statId":"ME18B152","addr":"경기도 하남시 풍산동 118-2","location":"null","lat":"37.55504","lng":"127.19000","zcode":"41","zscode":"41450"},{"statNm":"하남미사 수변공원3호 주차장","statId":"ME18B153","addr":"경기도 하남시 풍산동 148-3","location":"null","lat":"37.55943","lng":"127.18787","zcode":"41","zscode":"41450"},{"statNm":"화성휴게소(목포방향)","statId":"ME18B154","addr":"경기도 화성시 팔탄면 서해안고속도로 301","location":"null","lat":"37.14361","lng":"126.87907","zcode":"41","zscode":"41590"},{"statNm":"화성휴게소(시흥방향)","statId":"ME18B155","addr":"경기도 화성시 팔탄면 서해안고속도로 302","location":"null","lat":"37.14351","lng":"126.88127","zcode":"41","zscode":"41590"},{"statNm":"영북체육문화센터","statId":"ME18B156","addr":"경기도 포천시 영북로 115","location":"null","lat":"38.08487","lng":"127.27336","zcode":"41","zscode":"41650"},{"statNm":"산정지 주차장","statId":"ME18B157","addr":"경기도 포천시 영북면 산정리 451-3","location":"null","lat":"38.06605","lng":"127.31568","zcode":"41","zscode":"41650"},{"statNm":"죽산면사무소","statId":"ME18B158","addr":"경기도 안성시 죽산면 죽산초교길 57-1","location":"null","lat":"37.07833","lng":"127.42246","zcode":"41","zscode":"41550"},{"statNm":"관문체육공원","statId":"ME18B240","addr":"경기도 과천시 중앙로 294","location":"null","lat":"37.44073","lng":"126.99654","zcode":"41","zscode":"41290"},{"statNm":"이마트 광명소하점","statId":"ME18B241","addr":"경기도 광명시 소하로 97","location":"null","lat":"37.44654","lng":"126.88446","zcode":"41","zscode":"41210"},{"statNm":"광남생활체육공원","statId":"ME18B242","addr":"경기도 광주시 장지동 92-5","location":"null","lat":"37.38975","lng":"127.23617","zcode":"41","zscode":"41610"},{"statNm":"구리시 행정복지센터","statId":"ME18B243","addr":"경기도 구리시 체육관로 74","location":"null","lat":"37.59148","lng":"127.13860","zcode":"41","zscode":"41310"},{"statNm":"롯데마트 김포한강점","statId":"ME18B244","addr":"경기도 김포시 김포한강2로 41","location":"null","lat":"37.64071","lng":"126.67739","zcode":"41","zscode":"41570"},{"statNm":"수동면주민자치센터","statId":"ME18B245","addr":"경기도 남양주시 수동면 비룡로 730","location":"null","lat":"37.70378","lng":"127.32663","zcode":"41","zscode":"41360"},{"statNm":"이마트 남양주점","statId":"ME18B246","addr":"경기도 남양주시 늘을2로 27","location":"null","lat":"37.65497","lng":"127.24306","zcode":"41","zscode":"41360"},{"statNm":"남부수자원생태공원","statId":"ME18B247","addr":"경기도 부천시 연동로 89","location":"null","lat":"37.47023","lng":"126.82738","zcode":"41","zscode":"41190"},{"statNm":"서수원칠보체육관","statId":"ME18B248","addr":"경기도 수원시 권선구 서수원로577번길 171","location":"null","lat":"37.27651","lng":"126.94828","zcode":"41","zscode":"41110"},{"statNm":"수원컨벤션센터","statId":"ME18B249","addr":"경기도 수원시 영통구 하동 864-10","location":"null","lat":"37.28646","lng":"127.05884","zcode":"41","zscode":"41110"},{"statNm":"파주택시쉼터","statId":"ME18B250","addr":"경기도 파주시 마음밭길 55-10","location":"null","lat":"37.76747","lng":"126.76936","zcode":"41","zscode":"41480"},{"statNm":"안산역환승주차장","statId":"ME18B251","addr":"경기도 안산시 단원구 원곡동 381-2","location":"null","lat":"37.32703","lng":"126.79038","zcode":"41","zscode":"41270"},{"statNm":"공영주차장116호","statId":"ME18B252","addr":"경기도 안산시 상록구 본오동 876-8","location":"null","lat":"37.30438","lng":"126.85963","zcode":"41","zscode":"41270"},{"statNm":"안산호수공원 3 주차장","statId":"ME18B253","addr":"경기도 안산시 상록구 사동 1513","location":"null","lat":"37.29776","lng":"126.82864","zcode":"41","zscode":"41270"},{"statNm":"화랑유원지 2주차장","statId":"ME18B254","addr":"경기도 안산시 단원구 동산로 268","location":"null","lat":"37.32530","lng":"126.81184","zcode":"41","zscode":"41270"},{"statNm":"공단삼거리 공영주차장(B)","statId":"ME18B255","addr":"경기도 안산시 단원구 원시동 772-6","location":"null","lat":"37.31318","lng":"126.79107","zcode":"41","zscode":"41270"},{"statNm":"㈜안성내츄럴리조트","statId":"ME18B256","addr":"경기도 안성시 죽산면 죽양대로 136-17","location":"null","lat":"37.09485","lng":"127.43902","zcode":"41","zscode":"41550"},{"statNm":"꿈나무도서관","statId":"ME18B257","addr":"경기도 양주시 백석읍 꿈나무로 199","location":"null","lat":"37.79239","lng":"126.98716","zcode":"41","zscode":"41630"},{"statNm":"회암사지박물관","statId":"ME18B258","addr":"경기도 양주시 회암사길 11","location":"null","lat":"37.84114","lng":"127.10291","zcode":"41","zscode":"41630"},{"statNm":"단월면 복지회관","statId":"ME18B259","addr":"경기도 양평군 단월면 보룡길 44-1","location":"null","lat":"37.53738","lng":"127.67426","zcode":"41","zscode":"41830"},{"statNm":"지평면사무소","statId":"ME18B260","addr":"경기도 양평군 지평면 지평의병로116번길 1","location":"null","lat":"37.47451","lng":"127.63920","zcode":"41","zscode":"41830"},{"statNm":"용문생활체육공원","statId":"ME18B261","addr":"경기도 양평군 용문면 마룡리 269-2","location":"null","lat":"37.49305","lng":"127.60607","zcode":"41","zscode":"41830"},{"statNm":"이마트 오산점","statId":"ME18B262","addr":"경기도 오산시 경기대로 181","location":"null","lat":"37.14062","lng":"127.07271","zcode":"41","zscode":"41370"},{"statNm":"스타필드 위례","statId":"ME18B263","addr":"경기도 하남시 학암동 90-33","location":"null","lat":"37.47987","lng":"127.14842","zcode":"41","zscode":"41450"},{"statNm":"금학공영주차장","statId":"ME18B264","addr":"경기도 용인시 처인구 용문로 140","location":"null","lat":"37.23605","lng":"127.20125","zcode":"41","zscode":"41460"},{"statNm":"마장호수관리사무소","statId":"ME18B265","addr":"경기도 파주시 광탄면 기산리 459-7","location":"null","lat":"37.77342","lng":"126.92766","zcode":"41","zscode":"41480"},{"statNm":"감악산관리사무소","statId":"ME18B266","addr":"경기도 파주시 적성면 설마리48-3","location":"null","lat":"37.93991","lng":"126.94202","zcode":"41","zscode":"41480"},{"statNm":"공릉관광지","statId":"ME18B267","addr":"null","location":"null","lat":"37.75056","lng":"126.83585","zcode":"41","zscode":"41480"},{"statNm":"이마트 파주운정점","statId":"ME18B268","addr":"경기도 파주시 한울로 123","location":"null","lat":"37.71068","lng":"126.74548","zcode":"41","zscode":"41480"},{"statNm":"이마트 파주점","statId":"ME18B269","addr":"경기도 파주시 당하길 10","location":"null","lat":"37.74692","lng":"126.75103","zcode":"41","zscode":"41480"},{"statNm":"임진각관광지 주차장","statId":"ME18B270","addr":"경기도 파주시 문산읍 마정리 1335","location":"null","lat":"37.89141","lng":"126.74155","zcode":"41","zscode":"41480"},{"statNm":"미사리 경정공원 제2주차장","statId":"ME18B271","addr":"경기도 하남시 신장동 281","location":"null","lat":"37.55176","lng":"127.21538","zcode":"41","zscode":"41450"},{"statNm":"부발읍행정복지센터","statId":"ME18B272","addr":"경기도 이천시 부발읍 무촌로 121","location":"null","lat":"37.28371","lng":"127.48693","zcode":"41","zscode":"41500"},{"statNm":"남양읍사무소","statId":"ME18B273","addr":"경기도 화성시 남양읍 남양성지로 192-5","location":"null","lat":"37.21186","lng":"126.82377","zcode":"41","zscode":"41590"},{"statNm":"예스파크 2주차장","statId":"ME18B274","addr":"경기도 이천시 신둔면 고척리 589-4","location":"null","lat":"37.29007","lng":"127.38412","zcode":"41","zscode":"41500"},{"statNm":"경기테크노파크","statId":"ME18B275","addr":"경기도 안산시 상록구 사동 1271-11","location":"null","lat":"37.29137","lng":"126.82981","zcode":"41","zscode":"41270"},{"statNm":"에코스포츠센터 1주차장","statId":"ME18B276","addr":"경기도 양주시 은현면 은남로177","location":"null","lat":"37.89463","lng":"127.01061","zcode":"41","zscode":"41630"},{"statNm":"홈플러스 경기일산점","statId":"ME18B277","addr":"경기도 고양시 일산동구 중앙로 1275번길 64","location":"null","lat":"37.65901","lng":"126.76885","zcode":"41","zscode":"41280"},{"statNm":"안성휴게소(부산방향)","statId":"ME18B303","addr":"경기도 안성시 원곡면 경부고속도로 365","location":"null","lat":"37.01341","lng":"127.14480","zcode":"41","zscode":"41550"},{"statNm":"선돌공원","statId":"ME18B304","addr":"경기도 양주시 옥정동 580","location":"null","lat":"37.82151","lng":"127.08094","zcode":"41","zscode":"41630"},{"statNm":"옥정중앙공원","statId":"ME18B305","addr":"경기도 양주시 옥정동 1039","location":"null","lat":"37.82030","lng":"127.08647","zcode":"41","zscode":"41630"},{"statNm":"유비파크 2주차장","statId":"ME18B306","addr":"경기도 파주시 와석순환로 500","location":"null","lat":"37.723893","lng":"126.760196","zcode":"41","zscode":"41480"},{"statNm":"스타필드 고양","statId":"ME18B401","addr":"경기도 고양시 덕양구 고양대로 1955","location":"null","lat":"37.64678","lng":"126.89482","zcode":"41","zscode":"41280"},{"statNm":"상동 호수공원주차장","statId":"ME18B402","addr":"경기도 부천시 상동 549번지","location":"null","lat":"37.50330","lng":"126.74576","zcode":"41","zscode":"41190"},{"statNm":"수원종합운동장 8주차장","statId":"ME18B403","addr":"경기도 수원시 장안구 경수대로 893","location":"null","lat":"37.29893","lng":"127.01024","zcode":"41","zscode":"41110"},{"statNm":"성호공원 주차장","statId":"ME18B404","addr":"경기도 안산시 상록구 이동 620","location":"null","lat":"37.31186","lng":"126.86407","zcode":"41","zscode":"41270"},{"statNm":"미사리 경정공원 제8주차장","statId":"ME18B405","addr":"경기도 하남시 망월동 1-1","location":"null","lat":"37.56509","lng":"127.20067","zcode":"41","zscode":"41450"},{"statNm":"센트럴파크","statId":"ME190421","addr":"경기도 화성시 동탄공원로2길 32","location":"null","lat":"37.2067185","lng":"127.0630041","zcode":"41","zscode":"41590"},{"statNm":"노작공원","statId":"ME190422","addr":"경기도 화성시 노작로226-26","location":"null","lat":"37.2029721","lng":"127.0790254","zcode":"41","zscode":"41590"},{"statNm":"차량등록사업소 뒷편 주차장","statId":"ME19A129","addr":"경기도 광명시 오리로 701","location":"null","lat":"37.462392784690","lng":"126.870798366","zcode":"41","zscode":"41210"},{"statNm":"학온동주민센터","statId":"ME19A130","addr":"경기도 광명시 서독로104번길 14","location":"null","lat":"37.415198467890","lng":"126.851303841","zcode":"41","zscode":"41210"},{"statNm":"통진공영주차장","statId":"ME19A131","addr":"경기도 김포시 통진읍 서암로 98","location":"null","lat":"37.693803299999","lng":"126.602008","zcode":"41","zscode":"41570"},{"statNm":"부천시민회관 부설주차장","statId":"ME19A132","addr":"경기도 부천시 부일로 365","location":"null","lat":"37.4886564","lng":"126.76980589999","zcode":"41","zscode":"41190"},{"statNm":"로보파크","statId":"ME19A133","addr":"경기도 부천시 평천로 655","location":"null","lat":"37.517476399999","lng":"126.764932199","zcode":"41","zscode":"41190"},{"statNm":"근로복지공단 안산병원","statId":"ME19A134","addr":"경기도 안산시 상록구 구룡로 87","location":"null","lat":"37.317139447314","lng":"126.873842356","zcode":"41","zscode":"41270"},{"statNm":"본오1동행정복지센터","statId":"ME19A135","addr":"경기도 안산시 상록구 샘골로 16","location":"null","lat":"37.285224537984","lng":"126.8647051793","zcode":"41","zscode":"41270"},{"statNm":"상록구청","statId":"ME19A136","addr":"경기도 안산시 상록구 석호로 110","location":"null","lat":"37.301304941565","lng":"126.846831536","zcode":"41","zscode":"41270"},{"statNm":"원곡동45호무료주차장 ","statId":"ME19A137","addr":"경기도 안산시 단원구 원곡동 990-1","location":"null","lat":"37.339836389609","lng":"126.792565682","zcode":"41","zscode":"41270"},{"statNm":"선부동26호무료주차장","statId":"ME19A138","addr":"경기도 안산시 단원구 선부동 703-2","location":"null","lat":"37.343680364666","lng":"126.803748261","zcode":"41","zscode":"41270"},{"statNm":"고잔동무료주차장","statId":"ME19A139","addr":"경기도 안산시 단원구 고잔동 44-1","location":"null","lat":"37.330622958453","lng":"126.840189516","zcode":"41","zscode":"41270"},{"statNm":"와동30호무료주차장","statId":"ME19A140","addr":"경기도 안산시 단원구 와동 320-9","location":"null","lat":"37.347516174973","lng":"126.824114796","zcode":"41","zscode":"41270"},{"statNm":"와동54호무료주차장","statId":"ME19A141","addr":"경기도 안산시 단원구 와동 608","location":"null","lat":"37.331243835540","lng":"126.822661079","zcode":"41","zscode":"41270"},{"statNm":"사동124호무료주차장","statId":"ME19A142","addr":"경기도 안산시 상록구 사동 854-2","location":"null","lat":"37.285744105165","lng":"126.847831523","zcode":"41","zscode":"41270"},{"statNm":"본오동56호무료주차장","statId":"ME19A143","addr":"경기도 안산시 상록구 본오동 1080","location":"null","lat":"37.300129779801","lng":"126.876880109","zcode":"41","zscode":"41270"},{"statNm":"팔곡이동129호무료주차장","statId":"ME19A144","addr":"경기도 안산시 상록구 팔곡이동 608","location":"null","lat":"37.296992729803","lng":"126.874834352","zcode":"41","zscode":"41270"},{"statNm":"장암역 환승공영주차장","statId":"ME19A145","addr":"경기도 의정부시 장암동 159","location":"null","lat":"37.700181199999","lng":"127.054311999","zcode":"41","zscode":"41150"},{"statNm":"가능동 입체공영주차장(건물식주차장)","statId":"ME19A146","addr":"경기도 의정부시 가능동 628","location":"null","lat":"37.751301099999","lng":"127.039303199","zcode":"41","zscode":"41150"},{"statNm":"백석천 제1지하주차장(건물식/지하)","statId":"ME19A147","addr":"경기도 의정부시 시민로 12","location":"null","lat":"37.737563723412","lng":"127.036294974","zcode":"41","zscode":"41150"},{"statNm":"월롱면사무소","statId":"ME19A148","addr":"경기도 파주시 월롱면 위전리 5-3","location":"null","lat":"37.799212792497","lng":"126.790080381","zcode":"41","zscode":"41480"},{"statNm":"에코랜드","statId":"ME19A168","addr":"경기도 남양주시 별내면 청학로8번길 39","location":"null","lat":"37.7032393","lng":"127.1272743","zcode":"41","zscode":"41360"},{"statNm":"일산서구청 내  주차장","statId":"ME19A217","addr":"경기도 고양시 일산서구 중앙로 1600","location":"null","lat":"37.677839232675","lng":"126.746087291","zcode":"41","zscode":"41280"},{"statNm":"광주시민체육관","statId":"ME19A218","addr":"경기도 광주시 오포읍 청석로 85","location":"null","lat":"37.3959107","lng":"127.2594659","zcode":"41","zscode":"41610"},{"statNm":"상번천리공영주차장","statId":"ME19A219","addr":"경기도 광주시 남한산성면 상번천리 836","location":"null","lat":"37.448044842162","lng":"127.262434708","zcode":"41","zscode":"41610"},{"statNm":"역동공영주차장","statId":"ME19A220","addr":"경기도 광주시 역동 27-15외 6","location":"null","lat":"37.405683073079","lng":"127.260407981","zcode":"41","zscode":"41610"},{"statNm":"구리한강시민공원(주차장)","statId":"ME19A221","addr":"경기도 구리시 토평동 810","location":"null","lat":"37.574464499999","lng":"127.1338951","zcode":"41","zscode":"41310"},{"statNm":"시민체육광장","statId":"ME19A222","addr":"경기도 군포시 산본로267","location":"null","lat":"37.3558474","lng":"126.9378573","zcode":"41","zscode":"41410"},{"statNm":"대곶면행정복지센터","statId":"ME19A223","addr":"경기도 김포시 대곶면 율생로 83-23","location":"null","lat":"37.6495578","lng":"126.58181339999","zcode":"41","zscode":"41570"},{"statNm":"김포시 장기도서관","statId":"ME19A224","addr":"경기도 김포시 김포한강2로 42","location":"null","lat":"37.641993199999","lng":"126.6762805","zcode":"41","zscode":"41570"},{"statNm":"문화재청 왕릉유적본부  서부지구관리소(김포장릉)","statId":"ME19A225","addr":"null","location":"null","lat":"37.6122098","lng":"126.7162028","zcode":"41","zscode":"41570"},{"statNm":"김포시민회관","statId":"ME19A226","addr":"경기도 김포시 사우중로 26","location":"null","lat":"37.6167795","lng":"126.7174224","zcode":"41","zscode":"41570"},{"statNm":"국민건강보험공단 김포지사","statId":"ME19A227","addr":"경기도 김포시 태장로 795번길 137","location":"null","lat":"37.639484175705","lng":"126.684672396","zcode":"41","zscode":"41570"},{"statNm":"화도 체육문화센터","statId":"ME19A228","addr":"경기도 남양주시 화도읍 창현리 529-7","location":"null","lat":"37.7033405","lng":"127.127289","zcode":"41","zscode":"41360"},{"statNm":"어린이비젼센터 주차장","statId":"ME19A229","addr":"경기도 남양주시 진접읍 금곡리 1077","location":"null","lat":"37.7169793","lng":"127.1955725","zcode":"41","zscode":"41360"},{"statNm":"수락산 공영주차장","statId":"ME19A230","addr":"경기도 남양주시 별내면 청학리 537","location":"null","lat":"37.7052344","lng":"127.1064812","zcode":"41","zscode":"41360"},{"statNm":"부천수자원생태공원","statId":"ME19A231","addr":"경기도 부천시 벌말로 220","location":"null","lat":"37.5437951","lng":"126.76694279999","zcode":"41","zscode":"41190"},{"statNm":"성남시청","statId":"ME19A232","addr":"경기도 성남시 중원구 성남대로 997","location":"null","lat":"37.419724305773","lng":"127.124884911","zcode":"41","zscode":"41130"},{"statNm":"와동주민센터무료주차장(31호)","statId":"ME19A233","addr":"경기도 안산시 단원구 와동 94","location":"null","lat":"37.341451109923","lng":"126.826056402","zcode":"41","zscode":"41270"},{"statNm":"사동47호무료주차장","statId":"ME19A234","addr":"경기도 안산시 상록구 사동 1466-16","location":"null","lat":"37.298645868535","lng":"126.849596828","zcode":"41","zscode":"41270"},{"statNm":"예술공원 노외주차장","statId":"ME19A235","addr":"경기도 안양시 만안구 예술공원로 131","location":"null","lat":"37.419100525713","lng":"126.920114166","zcode":"41","zscode":"41170"},{"statNm":"광적생활체육공원 (양주문화예술회관)","statId":"ME19A236","addr":"경기도 양주시 광적면 부흥로 618번길 303","location":"null","lat":"37.8129306","lng":"126.96994229999","zcode":"41","zscode":"41630"},{"statNm":"양주시청","statId":"ME19A237","addr":"경기도 양주시 부흥로 1533","location":"null","lat":"37.786343999999","lng":"127.0469099999","zcode":"41","zscode":"41630"},{"statNm":"이충레포츠공원","statId":"ME19A238","addr":"경기도 평택시 장안웃길 149","location":"null","lat":"37.065296852201","lng":"127.070360512","zcode":"41","zscode":"41220"},{"statNm":"평택항여객터미널 주차장","statId":"ME19A239","addr":"경기도 평택시 포승읍 평택항만길 75","location":"null","lat":"36.957868828100","lng":"126.846937887","zcode":"41","zscode":"41220"},{"statNm":"비둘기낭 캠핑장","statId":"ME19A240","addr":"경기도 포천시 영북면 대회산리 451","location":"null","lat":"38.0768257","lng":"127.2217203","zcode":"41","zscode":"41650"},{"statNm":"선단동주민센터","statId":"ME19A241","addr":"경기도 포천시 삼육사로 2186번길 11","location":"null","lat":"37.853917000000","lng":"127.159483","zcode":"41","zscode":"41650"},{"statNm":"하남벤처센터","statId":"ME19A242","addr":"경기도 하남시 서하남로 488","location":"null","lat":"37.536364448785","lng":"127.228480175","zcode":"41","zscode":"41450"},{"statNm":"청소년수련관","statId":"ME19A269","addr":"경기도 남양주시 다산지금로 51-47","location":"null","lat":"37.6086688","lng":"127.17872599999","zcode":"41","zscode":"41360"},{"statNm":"진접체육문화센터","statId":"ME19A270","addr":"경기도 남양주시 진접읍 금강로 1509-24","location":"null","lat":"37.7266812","lng":"127.1903125","zcode":"41","zscode":"41360"},{"statNm":"한국폴리텍대학 안성캠퍼스","statId":"ME19A273","addr":"경기도 안성시 공도읍 송원길 41-12","location":"null","lat":"37.008389931462","lng":"127.174820429","zcode":"41","zscode":"41550"},{"statNm":"구리남양주 교육지원청","statId":"ME19A301","addr":"경기도 남양주시 경춘로 520","location":"null","lat":"37.610719999999","lng":"127.170369899","zcode":"41","zscode":"41360"},{"statNm":"중소기업연수원","statId":"ME19A402","addr":"경기도 안산시 단원구 연수원로 87","location":"null","lat":"37.285224537984","lng":"126.7987335628","zcode":"41","zscode":"41270"},{"statNm":"월피동29호무료주차장","statId":"ME19A403","addr":"경기도 안산시 월피동 483-10","location":"null","lat":"37.338770439841","lng":"126.849805975","zcode":"41","zscode":"41270"},{"statNm":"하남유니온파크","statId":"ME19A404","addr":"경기도 하남시 신장동 27","location":"null","lat":"37.547302713771","lng":"127.221496198","zcode":"41","zscode":"41450"},{"statNm":"자동차안전연구원","statId":"ME19A405","addr":"경기도 화성시 송산면 삼존로 200","location":"null","lat":"37.228217559356","lng":"126.768725394","zcode":"41","zscode":"41590"},{"statNm":"스타필드 부천점1","statId":"ME19A406","addr":"경기도 부천시 옥길로 1","location":"null","lat":"37.461570413172","lng":"126.814642450","zcode":"41","zscode":"41190"},{"statNm":"롯데아울렛 이천점1","statId":"ME19A802","addr":"경기도 이천시 호법면 프리미엄 아울렛로 177-74","location":"null","lat":"37.241895625921","lng":"127.3986030142","zcode":"41","zscode":"41500"},{"statNm":"경기 갈매동구릉영업소","statId":"ME19D112","addr":"경기도 구리시 갈매동 53-44","location":"null","lat":"37.63187187","lng":"127.12538841","zcode":"41","zscode":"41310"},{"statNm":"수원권사복지매장","statId":"ME19D119","addr":"경기도 수원시 권선구 경수대로 168번길 79 ","location":"null","lat":"37.24137985","lng":"127.02219667","zcode":"41","zscode":"41110"},{"statNm":"남별내영업소","statId":"ME19D206","addr":"경기도 남양주시 별내면 구리포천고속도로 11","location":"null","lat":"37.67657261","lng":"127.13685314","zcode":"41","zscode":"41360"},{"statNm":"신북영업소","statId":"ME19D207","addr":"경기도 포천시 군내면 하성북리 322-7(톨게이트)","location":"null","lat":"37.90161168","lng":"127.22521956","zcode":"41","zscode":"41650"},{"statNm":"오산휴게소(과천) 상행선","statId":"ME19F120","addr":"경기도 오산시 수도권제2순환고속도로 13","location":"null","lat":"37.179012","lng":"127.036503","zcode":"41","zscode":"41370"},{"statNm":"한국잡월드 주차장","statId":"ME19F225","addr":"경기도 성남시 분당구 분당수서로 501","location":"null","lat":"37.3784946","lng":"127.1063937","zcode":"41","zscode":"41130"},{"statNm":"오산휴게소(동탄) 하행선","statId":"ME19F254","addr":"경기도 오산시 수도권제2순환고속도로 14","location":"null","lat":"37.175764","lng":"127.038231","zcode":"41","zscode":"41370"},{"statNm":"양평군농업기술센터","statId":"ME19F304","addr":"경기도 양평군 양평읍 농업기술센터길 37","location":"null","lat":"37.509243284054","lng":"127.51329498","zcode":"41","zscode":"41830"},{"statNm":"한국소방산업기술원","statId":"ME19F401","addr":"경기도 용인시 기흥구 지삼로 331","location":"null","lat":"37.233967785354","lng":"127.14409263","zcode":"41","zscode":"41460"},{"statNm":"한국토지주택공사 파주권주거복지지사","statId":"ME19F404","addr":"경기도 파주시 와석순환로 220","location":"null","lat":"37.717064013148","lng":"126.73853367","zcode":"41","zscode":"41480"},{"statNm":"고양유통센터 제3주차장","statId":"ME19X410","addr":"경기도 고양시 일산서구 대화로","location":"null","lat":"37.682135","lng":"126.747065","zcode":"41","zscode":"41280"},{"statNm":"롯데마트 시화점 야외주차장","statId":"ME19X419","addr":"경기도 시흥시 마유로 238번길","location":"null","lat":"37.337719","lng":"126.730435","zcode":"41","zscode":"41390"},{"statNm":"롯데마트 안성점 야외주차장","statId":"ME19X423","addr":"경기도 안성시 공도읍 서동대로 ","location":"null","lat":"37.008049","lng":"127.200793","zcode":"41","zscode":"41550"},{"statNm":"롯데마트 주엽점 지하3층주차장","statId":"ME19X426","addr":"경기도 고양시 일산서구 중앙로 ","location":"null","lat":"37.673249","lng":"126.755237","zcode":"41","zscode":"41280"},{"statNm":"김포한강 야생조류생태공원 주자장","statId":"ME19X432","addr":"경기도 김포시 김포한강11로","location":"null","lat":"37.655051","lng":"126.699038","zcode":"41","zscode":"41570"},{"statNm":"포천시의회 야외주차장","statId":"ME19X433","addr":"경기도 포천시 중앙로","location":"null","lat":"37.894661","lng":"127.200191","zcode":"41","zscode":"41650"},{"statNm":"판교도서관 주차장 출구 정산소 옆","statId":"ME19X434","addr":"경기도 성남시 분당구 운중로 225번길","location":"null","lat":"37.391901","lng":"127.090862","zcode":"41","zscode":"41130"},{"statNm":"용인시민체육센터 제2주차장","statId":"ME19X441","addr":"경기도 용인시 처인구 포곡읍 금어로 ","location":"null","lat":"37.276565","lng":"127.245822","zcode":"41","zscode":"41460"},{"statNm":"탄천종합운동장(보조경기장 지하주차장)","statId":"ME19X442","addr":"경기도 성남시 탄천로","location":"null","lat":"37.410367","lng":"127.120379","zcode":"41","zscode":"41130"},{"statNm":"킨텍스 1전시장 1GATE옆","statId":"ME19X801","addr":"경기도 고양시 일산서구 킨텍스로","location":"null","lat":"37.670258","lng":"126.741619","zcode":"41","zscode":"41280"},{"statNm":"장기1공영주차장","statId":"ME19Y211","addr":"경기도 김포시 김포한강1로 77-15","location":"null","lat":"37.645486","lng":"126.669415","zcode":"41","zscode":"41570"},{"statNm":"장기6공영주차장","statId":"ME19Y212","addr":"경기도 김포시 태장로 820","location":"null","lat":"37.637150","lng":"126.676754","zcode":"41","zscode":"41570"},{"statNm":"호수공원","statId":"ME19Y213","addr":"경기도 김포시 김포한강8로 302 (마산동)","location":"null","lat":"37.646232","lng":"126.635736","zcode":"41","zscode":"41570"},{"statNm":"율동공원A주차장","statId":"ME19Y214","addr":"경기도 성남시 분당구 문정로 145","location":"null","lat":"37.383243","lng":"127.150079","zcode":"41","zscode":"41130"},{"statNm":"강상면다목적복지회관","statId":"ME19Y215","addr":"경기도 양평군 강상면 송학길 60","location":"null","lat":"37.480918","lng":"127.477919","zcode":"41","zscode":"41830"},{"statNm":"강하면사무소","statId":"ME19Y216","addr":"경기도 양평군 강하면 사호3길 45","location":"null","lat":"37.494920","lng":"127.410578","zcode":"41","zscode":"41830"},{"statNm":"연천군청","statId":"ME19Y217","addr":"경기도 연천군 연천읍 연천로 220","location":"null","lat":"38.096146","lng":"127.075293","zcode":"41","zscode":"41800"},{"statNm":"성포안산농협뒤","statId":"ME19Y253","addr":"경기도 안산시 상록구 140","location":"null","lat":"37.327505","lng":"126.843982","zcode":"41","zscode":"41270"},{"statNm":"연천보건의료원","statId":"ME19Y254","addr":"경기도 연천군 전곡읍 은대성로 95","location":"null","lat":"38.023519","lng":"127.061516","zcode":"41","zscode":"41800"},{"statNm":"장남면사무소","statId":"ME19Y255","addr":"경기도 연천군 장남면 장백로 244","location":"null","lat":"37.981596","lng":"126.884227","zcode":"41","zscode":"41800"},{"statNm":"하남문화재단","statId":"ME19Y256","addr":"경기도 하남시 신평로 125","location":"null","lat":"37.544437","lng":"127.207253","zcode":"41","zscode":"41450"},{"statNm":"구성동주민센터","statId":"ME19Y285","addr":"경기도 용인시 기흥구 구성로77번길 17","location":"null","lat":"37.296872","lng":"127.118632","zcode":"41","zscode":"41460"},{"statNm":"화성종합경기타운","statId":"ME19Y301","addr":"경기도 화성시 향남읍 향남로 470","location":"null","lat":"37.138086","lng":"126.924453","zcode":"41","zscode":"41590"},{"statNm":"남부치매안심센터","statId":"ME19Z214","addr":"경기도 이천시 장호원읍 서동대로8809번길 30-15","location":"null","lat":"37.116668","lng":"127.614569","zcode":"41","zscode":"41500"},{"statNm":"이마트 의정부점","statId":"ME19Z219","addr":"경기도 의정부시 민락로 210","location":"null","lat":"37.743021","lng":"127.102017","zcode":"41","zscode":"41150"},{"statNm":"이마트 이천점","statId":"ME19Z220","addr":"경기도 이천시 이섭대천로 1440-50","location":"null","lat":"37.293775","lng":"127.458968","zcode":"41","zscode":"41500"},{"statNm":"이마트 수지점","statId":"ME19Z226","addr":"경기도 용인시 수지구 수지로 203","location":"null","lat":"37.319494","lng":"127.083188","zcode":"41","zscode":"41460"},{"statNm":"이마트 보라점","statId":"ME19Z227","addr":"경기도 용인시 기흥구 한보라1로 92","location":"null","lat":"37.247346","lng":"127.104984","zcode":"41","zscode":"41460"},{"statNm":"이마트 동탄점","statId":"ME19Z228","addr":"경기도 화성시 동탄중앙로 376","location":"null","lat":"37.214481","lng":"127.080022","zcode":"41","zscode":"41590"},{"statNm":"이마트 산본점","statId":"ME19Z229","addr":"경기도 군포시 산본로 347","location":"null","lat":"37.360828","lng":"126.931301","zcode":"41","zscode":"41410"},{"statNm":"이마트 풍산점","statId":"ME19Z230","addr":"경기도 고양시 일산동구 무궁화로 237","location":"null","lat":"37.673632","lng":"126.787105","zcode":"41","zscode":"41280"},{"statNm":"이마트 T김포점","statId":"ME19Z231","addr":"경기도 김포시 김포대로 715","location":"null","lat":"37.612440","lng":"126.730713","zcode":"41","zscode":"41570"},{"statNm":"이마트 평촌점","statId":"ME19Z233","addr":"경기도 안양시 동안구 시민대로 300","location":"null","lat":"37.394723","lng":"126.963618","zcode":"41","zscode":"41170"},{"statNm":"㈜디에스 화랑포 셀프주유소 ","statId":"ME20A127","addr":"경기도 가평군 청평면 경춘로 113","location":"null","lat":"37.686731","lng":"127.379421","zcode":"41","zscode":"41820"},{"statNm":"고양아람누리","statId":"ME20A128","addr":"경기도 고양시 일산동구 중앙로 1286","location":"null","lat":"37.6618647","lng":"126.7742571","zcode":"41","zscode":"41280"},{"statNm":"고양어울림누리","statId":"ME20A129","addr":"경기도 고양시 덕양구 어울림로 33","location":"null","lat":"37.651071","lng":"126.83616","zcode":"41","zscode":"41280"},{"statNm":"탄현4 주차장","statId":"ME20A130","addr":"경기도 고양시 일산서구 탄현동 1596","location":"null","lat":"37.692402","lng":"126.774612","zcode":"41","zscode":"41280"},{"statNm":"흥도동행정복지센터","statId":"ME20A131","addr":"경기도 고양시 덕양구 흥도로454번길 44","location":"null","lat":"37.6448893","lng":"126.8541973","zcode":"41","zscode":"41280"},{"statNm":"토평도서관","statId":"ME20A132","addr":"경기도 구리시 장자대로141","location":"null","lat":"37.586078","lng":"127.14575","zcode":"41","zscode":"41310"},{"statNm":"다산진건지구 공영주차타워","statId":"ME20A133","addr":"경기도 남양주시 다산동 6148","location":"null","lat":"37.673649","lng":"126.8195247","zcode":"41","zscode":"41360"},{"statNm":"진영공원 주차건물","statId":"ME20A134","addr":"경기도 남양주시 화도읍 마석우리 551","location":"null","lat":"37.658235","lng":"127.299061","zcode":"41","zscode":"41360"},{"statNm":"동양대학교(서편주차장)","statId":"ME20A135","addr":"경기도 동두천시 동두천동 289-2","location":"null","lat":"37.933574","lng":"127.054977","zcode":"41","zscode":"41250"},{"statNm":"논골공영주차장 (구)논골선경공영","statId":"ME20A136","addr":"경기도 성남시 수정구 단대동 산 164-3","location":"null","lat":"37.461507","lng":"127.156776","zcode":"41","zscode":"41130"},{"statNm":"단대공원공영주차장","statId":"ME20A137","addr":"경기도 성남시 수정구 산성동 508","location":"null","lat":"37.456722","lng":"127.155099","zcode":"41","zscode":"41130"},{"statNm":"단대동제1공영주차장","statId":"ME20A138","addr":"경기도 성남시 수정구 단대동 27-1","location":"null","lat":"37.4587855","lng":"127.1586289","zcode":"41","zscode":"41130"},{"statNm":"대원천공영주차장","statId":"ME20A139","addr":"경기도 성남시 중원구 성남동 4596","location":"null","lat":"37.429878","lng":"127.120857","zcode":"41","zscode":"41130"},{"statNm":"분당도서관","statId":"ME20A140","addr":"경기도 성남시 분당구 불정로 110","location":"null","lat":"37.358756","lng":"127.115189","zcode":"41","zscode":"41130"},{"statNm":"서현도서관","statId":"ME20A141","addr":"경기도 성남시 분당구 중앙공원로 77","location":"null","lat":"37.384722","lng":"127.131722","zcode":"41","zscode":"41130"},{"statNm":"수내3동행정복지센터","statId":"ME20A142","addr":"경기도 성남시 분당구 돌마로356번길 43","location":"null","lat":"37.366708","lng":"127.125952","zcode":"41","zscode":"41130"},{"statNm":"신촌동행정복지센터","statId":"ME20A143","addr":"경기도 성남시 수정구 오야로 19","location":"null","lat":"37.4454836","lng":"127.104515","zcode":"41","zscode":"41130"},{"statNm":"은행동제7공영주차장","statId":"ME20A144","addr":"경기도 성남시 중원구 은행2동 1789","location":"null","lat":"37.454556","lng":"127.16508","zcode":"41","zscode":"41130"},{"statNm":"중앙동제4공영주차장","statId":"ME20A145","addr":"경기도 성남시 중원구 중앙동 2169","location":"null","lat":"37.440898","lng":"127.154692","zcode":"41","zscode":"41130"},{"statNm":"시흥시차량등록사업소","statId":"ME20A146","addr":"경기도 시흥시 시흥대로268번길8","location":"null","lat":"37.3642822","lng":"126.8079194","zcode":"41","zscode":"41390"},{"statNm":"배곧 제1공영주차장","statId":"ME20A147","addr":"경기도 시흥시 정왕동 2394","location":"null","lat":"37.3813853","lng":"126.7346117","zcode":"41","zscode":"41390"},{"statNm":"배곧 제2공영주차장","statId":"ME20A148","addr":"경기도 시흥시 정왕동 2402","location":"null","lat":"37.3796805","lng":"126.7267833","zcode":"41","zscode":"41390"},{"statNm":"배곧 제3공영주차장","statId":"ME20A149","addr":"경기도 시흥시 정왕동 2446","location":"null","lat":"37.3777894","lng":"126.7288563","zcode":"41","zscode":"41390"},{"statNm":"배곧 제4공영주차장","statId":"ME20A150","addr":"경기도 시흥시 정왕동 2421","location":"null","lat":"37.3778507","lng":"126.7311218","zcode":"41","zscode":"41390"},{"statNm":"배곧 제6공영주차장","statId":"ME20A151","addr":"경기도 시흥시 정왕동 2466","location":"null","lat":"37.3755223","lng":"126.7334197","zcode":"41","zscode":"41390"},{"statNm":"배곧 제11공영주차장","statId":"ME20A152","addr":"경기도 시흥시 서울대학로264번길 45","location":"null","lat":"37.3669426","lng":"126.7300992","zcode":"41","zscode":"41390"},{"statNm":"배곧 제12공영주차장","statId":"ME20A153","addr":"경기도 시흥시 정왕동 2579","location":"null","lat":"37.3592552","lng":"126.7089737","zcode":"41","zscode":"41390"},{"statNm":"배곧 제13공영주차장","statId":"ME20A154","addr":"경기도 시흥시 정왕동 1771-23","location":"null","lat":"37.357373","lng":"126.7072052","zcode":"41","zscode":"41390"},{"statNm":"목감 제4공영주차장","statId":"ME20A155","addr":"경기도 시흥시 조남동 656","location":"null","lat":"37.37807333","lng":"126.85415252","zcode":"41","zscode":"41390"},{"statNm":"대부동행정복지센터","statId":"ME20A156","addr":"경기도 안산시 단원구 대부중앙로 97-9","location":"null","lat":"37.24342470","lng":"126.58526030","zcode":"41","zscode":"41270"},{"statNm":"대부동복지체육센터","statId":"ME20A157","addr":"경기도 안산시 단원구 대부동동 산148-4","location":"null","lat":"37.25472305","lng":"126.60197511","zcode":"41","zscode":"41270"},{"statNm":"초지역 공영(무료)주차장","statId":"ME20A158","addr":"경기도 안산시 단원구 초지동 43-6","location":"null","lat":"37.32001555","lng":"126.80560000","zcode":"41","zscode":"41270"},{"statNm":"팔곡이동128호 주차장","statId":"ME20A159","addr":"경기도 안산시 상록구 팔곡이동 508-4","location":"null","lat":"37.2948709","lng":"127.877493","zcode":"41","zscode":"41270"},{"statNm":"점섬운동장","statId":"ME20A160","addr":"경기도 안산시 상록구 부곡동 705","location":"null","lat":"37.3206202","lng":"126.85829922","zcode":"41","zscode":"41270"},{"statNm":"시낭운동장","statId":"ME20A161","addr":"경기도 안산시 상록구 부곡동 719-1","location":"null","lat":"37.33361755","lng":"126.85589606","zcode":"41","zscode":"41270"},{"statNm":"선부동140호 주차장","statId":"ME20A162","addr":"경기도 안산시 단원구 선부동 677-6","location":"null","lat":"37.3464891","lng":"126.8071645","zcode":"41","zscode":"41270"},{"statNm":"선부동52호 주차장","statId":"ME20A163","addr":"경기도 안산시 단원구 선부동 1121-14","location":"null","lat":"37.34658354","lng":"126.81249958","zcode":"41","zscode":"41270"},{"statNm":"와동135호 주차장","statId":"ME20A164","addr":"경기도 안산시 단원구 와동 227","location":"null","lat":"37.33609161","lng":"126.82846554","zcode":"41","zscode":"41270"},{"statNm":"와동137호 주차장","statId":"ME20A165","addr":"경기도 안산시 단원구 와동 515-4","location":"null","lat":"37.33411871","lng":"126.82563152","zcode":"41","zscode":"41270"},{"statNm":"고잔동138호 주차장","statId":"ME20A166","addr":"경기도 안산시 단원구 고잔동 654-19","location":"null","lat":"37.32891180","lng":"126.82129880","zcode":"41","zscode":"41270"},{"statNm":"안산서부건강생활지원센터","statId":"ME20A167","addr":"경기도 안산시 단원구 신길중앙로 15","location":"null","lat":"37.33822222","lng":"126.76241327","zcode":"41","zscode":"41270"},{"statNm":"아양택지지구공영주차장","statId":"ME20A168","addr":"경기도 안성시 옥산동 596","location":"null","lat":"37.00807216","lng":"127.25787937","zcode":"41","zscode":"41550"},{"statNm":"안성시 보건소","statId":"ME20A169","addr":"경기도 안성시 강변로74번길 18","location":"null","lat":"37.0001181","lng":"127.2701981","zcode":"41","zscode":"41550"},{"statNm":"안양시 농수산물도매시장","statId":"ME20A170","addr":"경기도 안양시 동안구 흥안대로 313","location":"null","lat":"37.383021","lng":"126.96982","zcode":"41","zscode":"41170"},{"statNm":"동편마을 지하주차장","statId":"ME20A171","addr":"경기도 안양시 동안구 관양동 1709","location":"null","lat":"37.408375","lng":"126.972408","zcode":"41","zscode":"41170"},{"statNm":"병목안시민공원 노외주차장","statId":"ME20A172","addr":"경기도 안양시 만안구 안양동 1041-1","location":"null","lat":"37.3861873","lng":"126.9080306","zcode":"41","zscode":"41170"},{"statNm":"창동 공영주차장","statId":"ME20A173","addr":"경기도 여주시 창동 138-7","location":"null","lat":"37.295509","lng":"127.633875","zcode":"41","zscode":"41670"},{"statNm":"경기도교직원연천수덕원","statId":"ME20A174","addr":"경기도 연천군 신서면 동내로 1384","location":"null","lat":"38.1560687","lng":"127.1452367","zcode":"41","zscode":"41800"},{"statNm":"경기도연천교육지원청","statId":"ME20A175","addr":"경기도 연천군 연천읍 현가리 39-16","location":"null","lat":"38.1086186","lng":"127.0753002","zcode":"41","zscode":"41800"},{"statNm":"통일평생교육원","statId":"ME20A176","addr":"경기도 연천군 전곡읍 전곡역로66번길 53","location":"null","lat":"38.0220141","lng":"127.0720726","zcode":"41","zscode":"41800"},{"statNm":"적성면사무소","statId":"ME20A177","addr":"경기도 파주시 적성면 청송로 1013","location":"null","lat":"37.95428412","lng":"126.91761520","zcode":"41","zscode":"41480"},{"statNm":"문산체육공원","statId":"ME20A178","addr":"경기도 파주시 문산읍 율곡로 402","location":"null","lat":"37.8843155","lng":"126.7928612","zcode":"41","zscode":"41480"},{"statNm":"세광주유소","statId":"ME20A179","addr":"경기도 파주시 광탄면 부흥로 303","location":"null","lat":"37.8015885","lng":"126.880157","zcode":"41","zscode":"41480"},{"statNm":"㈜연세에너지","statId":"ME20A180","addr":"경기도 파주시 원롱면 엘지로 185","location":"null","lat":"37.8114236","lng":"126.7789114","zcode":"41","zscode":"41480"},{"statNm":"헤이리주유소","statId":"ME20A181","addr":"경기도 파주시 평화로 809","location":"null","lat":"37.781013","lng":"126.697665","zcode":"41","zscode":"41480"},{"statNm":"㈜흥안주유소/흥안LPG충전소","statId":"ME20A182","addr":"경기도 파주시 법원읍 화합로 212","location":"null","lat":"37.8454559","lng":"126.8906422","zcode":"41","zscode":"41480"},{"statNm":"금촌하수처리장","statId":"ME20A183","addr":"경기도 파주시 아리랑로 55-81","location":"null","lat":"37.764178","lng":"126.761207","zcode":"41","zscode":"41480"},{"statNm":"운정건강공원","statId":"ME20A184","addr":"경기도 파주시 와석순환로172번길 30","location":"null","lat":"37.7147447","lng":"126.7432289","zcode":"41","zscode":"41480"},{"statNm":"월롱100주년기념체육관","statId":"ME20A185","addr":"경기도 파주시 월롱면 휴암로 434","location":"null","lat":"37.829096","lng":"126.781201","zcode":"41","zscode":"41480"},{"statNm":"파주문화체육센터","statId":"ME20A186","addr":"경기도 파주시 파주읍 술이홀로 305","location":"null","lat":"37.83109594","lng":"126.82105488","zcode":"41","zscode":"41480"},{"statNm":"파주시의회 주차장","statId":"ME20A187","addr":"경기도 파주시 시청로66","location":"null","lat":"37.7599664","lng":"126.7806803","zcode":"41","zscode":"41480"},{"statNm":"선단동체육센터","statId":"ME20A188","addr":"경기도 포천시 송선로 352","location":"null","lat":"37.862369","lng":"127.1545799","zcode":"41","zscode":"41650"},{"statNm":"설운체육공원","statId":"ME20A189","addr":"경기도 포천시 해룡로 79","location":"null","lat":"37.85881","lng":"127.1401999","zcode":"41","zscode":"41650"},{"statNm":"그린환경센터 주민편익시설","statId":"ME20A190","addr":"경기도 화성시 봉담읍 하가등리 107-1","location":"null","lat":"37.1503123","lng":"126.938251","zcode":"41","zscode":"41590"},{"statNm":"동탄호수공원 주차장","statId":"ME20A191","addr":"경기도 화성시 송동 727","location":"null","lat":"37.17229980","lng":"127.10199860","zcode":"41","zscode":"41590"},{"statNm":"송산포도휴게소(시흥방향)","statId":"ME20A192","addr":"경기도 화성시 송산면 평택시흥고속도로25","location":"null","lat":"37.2362794","lng":"126.7571682","zcode":"41","zscode":"41590"},{"statNm":"서오릉관리소(조선왕릉서부지구관리소)","statId":"ME20A238","addr":"경기도 고양시 덕양구 용두동 2-71","location":"null","lat":"37.6226972","lng":"126.9008854","zcode":"41","zscode":"41280"},{"statNm":"고양시산림조합 산림문화센터","statId":"ME20A239","addr":"경기도 고양시 일산동구 식사동 425-4","location":"null","lat":"37.6736728","lng":"126.8195322","zcode":"41","zscode":"41280"},{"statNm":"송산동행정복지센터","statId":"ME20A240","addr":"경기도 고양시 일산서구 덕이로 50-7","location":"null","lat":"37.6908019","lng":"126.7544831","zcode":"41","zscode":"41280"},{"statNm":"고양종합체육관","statId":"ME20A241","addr":"경기도 고양시 일산서구 중앙로 1601","location":"null","lat":"37.673045","lng":"126.743436","zcode":"41","zscode":"41280"},{"statNm":"과천의왕사업단","statId":"ME20A242","addr":"경기도 과천시 갈현동 산 31-1","location":"경기도 과천시 갈현동 산 31-1","lat":"37.4139962","lng":"126.9814973","zcode":"41","zscode":"41290"},{"statNm":"수원~광명고속도로 남광명TG 주차장","statId":"ME20A243","addr":"경기도 광명시 가학로 119","location":"null","lat":"37.4150469","lng":"126.862156","zcode":"41","zscode":"41210"},{"statNm":"초월읍 행정복지센터","statId":"ME20A244","addr":"경기도 광주시 초월읍 경충대로 1241","location":"null","lat":"37.385412","lng":"127.2888524","zcode":"41","zscode":"41610"},{"statNm":"수원~광명고속도로 남군포TG 주차장","statId":"ME20A245","addr":"경기도 군포시 번영로 147-95","location":"null","lat":"37.3269117","lng":"126.9281945","zcode":"41","zscode":"41410"},{"statNm":"김포생활체육관","statId":"ME20A246","addr":"경기도 김포시 김포한강8로 198-3","location":"null","lat":"37.640028","lng":"126.6443764","zcode":"41","zscode":"41570"},{"statNm":"하성근린공원 ","statId":"ME20A247","addr":"경기도 김포시 하성면 하성로 585","location":"null","lat":"37.72559683","lng":"126.62910038","zcode":"41","zscode":"41570"},{"statNm":"한국디자인진흥원","statId":"ME20A248","addr":"경기도 성남시 분당구 양현로 322","location":"null","lat":"37.4131967","lng":"127.1232865","zcode":"41","zscode":"41130"},{"statNm":"농업유전자원센터 중부지소","statId":"ME20A249","addr":"경기도 수원시 권선구 서호로 34","location":"null","lat":"37.26608270","lng":"126.98623360","zcode":"41","zscode":"41110"},{"statNm":"맑은물상상누리","statId":"ME20A250","addr":"경기도 시흥시 공단2대로 14","location":"null","lat":"37.3374620","lng":"126.6961712","zcode":"41","zscode":"41390"},{"statNm":"시흥오이도박물관","statId":"ME20A251","addr":"경기도 시흥시 오이도로 332","location":"null","lat":"37.33451747","lng":"126.69090799","zcode":"41","zscode":"41390"},{"statNm":"안산올림픽수영장","statId":"ME20A252","addr":"경기도 안산시 단원구 적금로 202","location":"null","lat":"37.3262864","lng":"126.8281891","zcode":"41","zscode":"41270"},{"statNm":"신원프라자뒤 주차장","statId":"ME20A253","addr":"경기도 안산시 단원구 고잔동 556-1","location":"null","lat":"37.3204721","lng":"126.8329105","zcode":"41","zscode":"41270"},{"statNm":"대부도 152호 노외주차장","statId":"ME20A254","addr":"경기도 안산시 단원구 대부북동 1870-201","location":"null","lat":"37.27859930","lng":"126.55128930","zcode":"41","zscode":"41270"},{"statNm":"원시동 노외주차장","statId":"ME20A255","addr":"경기도 안산시 단원구 원시동 782-16","location":"null","lat":"37.30209020","lng":"126.79288810","zcode":"41","zscode":"41270"},{"statNm":"안양종합운동장","statId":"ME20A256","addr":"경기도 안양시 동안구 평촌대로 389","location":"null","lat":"37.40434720","lng":"126.94554400","zcode":"41","zscode":"41170"},{"statNm":"대신면 문화복지센터","statId":"ME20A257","addr":"경기도 여주시 대신면 율촌1길 12-9","location":"null","lat":"37.37151371","lng":"127.58472877","zcode":"41","zscode":"41670"},{"statNm":"한글시장 공영주차장","statId":"ME20A258","addr":"경기도 여주시 창동 46","location":"null","lat":"37.2978096","lng":"127.6359446","zcode":"41","zscode":"41670"},{"statNm":"군남댐 두루미 테마파크","statId":"ME20A259","addr":"경기도 연천군 군남면 선곡리 627-2","location":"null","lat":"38.10291814","lng":"127.02104320","zcode":"41","zscode":"41800"},{"statNm":"연천군 농업기술센터","statId":"ME20A260","addr":"경기도 연천군 연천읍 차현로 139","location":"null","lat":"38.103989","lng":"127.0774834","zcode":"41","zscode":"41800"},{"statNm":"연천도서관","statId":"ME20A261","addr":"경기도 연천군 연천읍 차현로 76-7","location":"null","lat":"38.09811034","lng":"127.07668261","zcode":"41","zscode":"41800"},{"statNm":"중면사무소","statId":"ME20A262","addr":"경기도 연천군 중면 군중로 400","location":"null","lat":"38.1355821","lng":"127.0186943","zcode":"41","zscode":"41800"},{"statNm":"신서면 행정복지센터","statId":"ME20A263","addr":"경기도 연천군 신서면 연신로 1130","location":"null","lat":"38.1828151","lng":"127.1067671","zcode":"41","zscode":"41800"},{"statNm":"신장동 행정복지센터","statId":"ME20A264","addr":"경기도 오산시 문헌공로 45","location":"null","lat":"37.1767935","lng":"127.0550706","zcode":"41","zscode":"41370"},{"statNm":"대월체육공원","statId":"ME20A265","addr":"경기도 이천시 대월면 대산로 125","location":"null","lat":"37.2326737","lng":"127.4762823","zcode":"41","zscode":"41500"},{"statNm":"법원읍 행정복지센터","statId":"ME20A266","addr":"경기도 파주시 법원읍 법원리 376-1","location":"null","lat":"37.8489911","lng":"126.8821937","zcode":"41","zscode":"41480"},{"statNm":"운정3동 출장민원실","statId":"ME20A267","addr":"경기도 파주시 하우3길 77","location":"null","lat":"37.71891076","lng":"126.76890734","zcode":"41","zscode":"41480"},{"statNm":"탄현체육공원","statId":"ME20A268","addr":"경기도 파주시 문산읍 내포리 산 140-1","location":"null","lat":"37.84032901","lng":"126.74694428","zcode":"41","zscode":"41480"},{"statNm":"통복장터 공영주차장","statId":"ME20A269","addr":"경기도 평택시 통복동 69-1","location":"null","lat":"36.99750333","lng":"127.08502359","zcode":"41","zscode":"41220"},{"statNm":"한탄강지질공원센터","statId":"ME20A270","addr":"경기도 포천시 영북면 비둘기낭길 55","location":"null","lat":"38.0732853","lng":"127.2252127","zcode":"41","zscode":"41650"},{"statNm":"가람누리주차장","statId":"ME20A271","addr":"경기도 포천시 영북면 대회산리 460-1","location":"null","lat":"38.07514574","lng":"127.22220313","zcode":"41","zscode":"41650"},{"statNm":"국립수목원 종합연구동주차장","statId":"ME20A272","addr":"경기도 포천시 소흘읍 광릉수목원로 509","location":"null","lat":"37.760153","lng":"127.169275","zcode":"41","zscode":"41650"},{"statNm":"하남시 마루공원 장례식장","statId":"ME20A273","addr":"경기도 하남시 천현동 507-3","location":"null","lat":"37.5228121","lng":"127.2197954","zcode":"41","zscode":"41450"},{"statNm":"전곡항마리나","statId":"ME20A274","addr":"경기도 화성시 서신면 전곡항로 5","location":"null","lat":"37.18606640","lng":"126.65194440","zcode":"41","zscode":"41590"},{"statNm":"동탄보건지소","statId":"ME20A275","addr":"경기도 화성시 석우동 60","location":"null","lat":"37.2070374","lng":"127.0782034","zcode":"41","zscode":"41590"},{"statNm":"한국교통안전공단 동탄자동차검사소","statId":"ME20A276","addr":"경기도 화성시 영천동 120-5","location":"null","lat":"37.2175388","lng":"127.0950394","zcode":"41","zscode":"41590"},{"statNm":"송산포도휴게소(평택방향)","statId":"ME20A277","addr":"경기도 화성시 송산면 평택시흥고속도로25","location":"null","lat":"37.2380315","lng":"126.7565421","zcode":"41","zscode":"41590"},{"statNm":"수원컨벤션센터","statId":"ME20A402","addr":"경기도 수원시 영통구 광교중앙로 140","location":"null","lat":"37.2818219","lng":"127.0569561","zcode":"41","zscode":"41110"},{"statNm":"안성휴게소(서울방향)","statId":"ME20A403","addr":"경기도 안성시 원곡면 경부고속도로 372","location":"null","lat":"37.077522","lng":"127.1317147","zcode":"41","zscode":"41550"},{"statNm":"한탄강 다목적광장 주차장","statId":"ME20A404","addr":"경기도 포천시 영북면 대회산리 396","location":"null","lat":"38.080320490","lng":"127.21983300","zcode":"41","zscode":"41650"},{"statNm":"비둘기낭폭포 주차장","statId":"ME20A405","addr":"경기도 포천시 영북면 대회산리 408-3","location":"null","lat":"38.0788688","lng":"127.2191464","zcode":"41","zscode":"41650"},{"statNm":"생태경관단지 주차장","statId":"ME20A406","addr":"경기도 포천시 관인면 중리 526-9","location":"null","lat":"38.08433020","lng":"127.20761520","zcode":"41","zscode":"41650"},{"statNm":"화성드림파크","statId":"ME20A407","addr":"null","location":"null","lat":"37.045804802","lng":"126.75841664","zcode":"41","zscode":"41590"},{"statNm":"화성드림파크","statId":"ME20A407","addr":"경기도 화성시 우정읍 기아자동차로 189","location":"null","lat":"37.045804802","lng":"126.75841664","zcode":"41","zscode":"41590"},{"statNm":"화성직업훈련교도소","statId":"ME20A408","addr":"경기도 화성시 마도면 화성로 741","location":"null","lat":"37.20811170","lng":"126.76890240","zcode":"41","zscode":"41590"},{"statNm":"안산와스타디움","statId":"ME20A601","addr":"경기도 안산시 단원구 화랑로 260","location":"null","lat":"37.32010745","lng":"126.81977343","zcode":"41","zscode":"41270"},{"statNm":"이천휴게소(하행)","statId":"ME20A602","addr":"경기도 이천시 마장면 중부대로609번길 244-35","location":"null","lat":"37.26504187","lng":"127.40297405","zcode":"41","zscode":"41500"},{"statNm":"킨텍스 제 2전시장","statId":"ME20A801","addr":"경기도 고양시 일산서구 킨텍스로 217-59","location":"null","lat":"37.6648279","lng":"126.7420869","zcode":"41","zscode":"41280"},{"statNm":"매송휴게소(목포방향)","statId":"ME20A802","addr":"경기도 화성시 매송면 서해안고속도로 315","location":"null","lat":"37.264138","lng":"126.8884544","zcode":"41","zscode":"41590"},{"statNm":"매송휴게소(서울방향)","statId":"ME20A803","addr":"경기도 화성시 매송면 서해안고속도로 316","location":"null","lat":"37.26578032","lng":"126.89231313","zcode":"41","zscode":"41590"},{"statNm":"화성휴게소(시흥방향)","statId":"ME20D801","addr":"경기도 화성시 팔탄면 서해안고속도로302","location":"null","lat":"37.14313","lng":"126.881354","zcode":"41","zscode":"41590"},{"statNm":"죽전휴게소 (서울방향)","statId":"ME20D901","addr":"경기도 용인시 수지구 경부고속도로400","location":"null","lat":"37.3316793","lng":"127.1045386","zcode":"41","zscode":"41460"},{"statNm":"김포졸음쉼터(일산)","statId":"ME21A106","addr":"경기도 김포시 고촌읍 김포대로319번길 209-23","location":"null","lat":"37.5927458","lng":"126.7692464","zcode":"41","zscode":"41570"},{"statNm":"서서울졸음쉼터(서울)","statId":"ME21A110","addr":"경기도 안산시 상록구 장하동 산8-1","location":"null","lat":"37.3574916","lng":"126.8647971","zcode":"41","zscode":"41270"},{"statNm":"광탄경매시장","statId":"ME21A116","addr":"경기도 파주시 광탄면 혜음로 1114","location":"null","lat":"37.7813669","lng":"126.8484133","zcode":"41","zscode":"41480"},{"statNm":"국민건강보험공단 여주지사 주차장","statId":"ME21A120","addr":"경기도 여주시 소양로 7","location":"null","lat":"37.2972796","lng":"127.6278624","zcode":"41","zscode":"41670"},{"statNm":"안산농수산물도매시장","statId":"ME21A121","addr":"경기도 안산시 상록구 충장로 312","location":"null","lat":"37.3086434","lng":"126.8558672","zcode":"41","zscode":"41270"},{"statNm":"수내1동행정복지센터","statId":"ME21A123","addr":"경기도 성남시 분당구 내정로173번길 21","location":"null","lat":"37.3756908","lng":"127.1179755","zcode":"41","zscode":"41130"},{"statNm":"국민건강보험공단 이천지사 주차장","statId":"ME21A134","addr":"경기도 이천시 증신로 65","location":"null","lat":"37.2832811","lng":"127.4578654","zcode":"41","zscode":"41500"},{"statNm":"안성맞춤휴게소(평택)","statId":"ME21A905","addr":"경기도 안성시 서운면 평택제천고속도로 41","location":"null","lat":"36.9696449","lng":"127.2745799","zcode":"41","zscode":"41550"},{"statNm":"이동행정복지센터","statId":"ME21B122","addr":"경기도 안산시 상록구 이동로 46","location":"null","lat":"37.3054852","lng":"126.860776","zcode":"41","zscode":"41270"},{"statNm":"고잔역 서측주차장","statId":"ME21B123","addr":"경기도 안산시 단원구 초지동 674-1","location":"null","lat":"37.3161539","lng":"126.8181716","zcode":"41","zscode":"41270"},{"statNm":"고잔역 환승주차장","statId":"ME21B124","addr":"경기도 안산시 단원구 고잔동 679-1","location":"null","lat":"37.3160457","lng":"126.8229512","zcode":"41","zscode":"41270"},{"statNm":"김포경찰서","statId":"ME21B125","addr":"경기도 김포시 태장로795번길 65","location":"null","lat":"37.6371541","lng":"126.6815785","zcode":"41","zscode":"41570"},{"statNm":"파주소방서","statId":"ME21B128","addr":"경기도 파주시 파주읍 통일로 1564","location":"null","lat":"37.8471682","lng":"126.7893735","zcode":"41","zscode":"41480"},{"statNm":"한국국토정보공사 동두천지사","statId":"ME21B129","addr":"경기도 동두천시 정장로 78","location":"null","lat":"37.903797","lng":"127.0591886","zcode":"41","zscode":"41250"},{"statNm":"창수면사무소","statId":"ME21B141","addr":"경기도 포천시 창수면 메치골로 178","location":"null","lat":"37.9914635","lng":"127.1891449","zcode":"41","zscode":"41650"},{"statNm":"수원중부경찰서","statId":"ME21B142","addr":"경기도 수원시 장안구 정자천로 199","location":"null","lat":"37.2976363","lng":"126.9965018","zcode":"41","zscode":"41110"},{"statNm":"복정 제6공영주차장","statId":"ME21B146","addr":"경기도 성남시 수정구 복정로118번길 7","location":"null","lat":"37.4636291","lng":"127.12786","zcode":"41","zscode":"41130"},{"statNm":"경기남부지방경찰청","statId":"ME21B155","addr":"경기도 수원시 장안구 창룡대로207번길 82-12","location":"null","lat":"37.2938101","lng":"127.033802","zcode":"41","zscode":"41110"},{"statNm":"용인서부경찰서","statId":"ME21B173","addr":"경기도 용인시 기흥구 용구대로2469번길 32","location":"null","lat":"37.3094934","lng":"127.1056667","zcode":"41","zscode":"41460"},{"statNm":"아양택지지구 1공영주차장","statId":"ME21B176","addr":"경기도 안성시 석정동 377","location":"null","lat":"37.010186","lng":"127.256401","zcode":"41","zscode":"41550"},{"statNm":"수진 제1공영주차장","statId":"ME21B177","addr":"경기도 성남시 수정구 제일로 114","location":"null","lat":"37.4368033","lng":"127.1338361","zcode":"41","zscode":"41130"},{"statNm":"양지 제1공영주차장","statId":"ME21B178","addr":"경기도 성남시 수정구 논골로 40","location":"null","lat":"37.4573894","lng":"127.1591964","zcode":"41","zscode":"41130"},{"statNm":"승두리 사곡 공영주차장","statId":"ME21B179","addr":"경기도 안성시 공도읍 고무다리길 13-11","location":"null","lat":"36.9982576","lng":"127.1703125","zcode":"41","zscode":"41550"},{"statNm":"천덕봉예비군훈련장","statId":"ME21B183","addr":"경기도 이천시 백사면 경사리 615-3","location":"null","lat":"37.3386697","lng":"127.4460724","zcode":"41","zscode":"41500"},{"statNm":"부천시보건소","statId":"ME21B184","addr":"경기도 부천시 옥산로10번길 16","location":"null","lat":"37.4941392","lng":"126.7813404","zcode":"41","zscode":"41190"},{"statNm":"부천오정경찰서","statId":"ME21B185","addr":"경기도 부천시 소사로 631","location":"null","lat":"37.5139738","lng":"126.800452","zcode":"41","zscode":"41190"},{"statNm":"배곧1동행정복지센터","statId":"ME21B191","addr":"경기도 시흥시 배곧4로 94-41","location":"null","lat":"37.3716241","lng":"126.7355918","zcode":"41","zscode":"41390"},{"statNm":"현화 제5공영주차장","statId":"ME21B192","addr":"경기도 평택시 안중읍 현화리 832-1","location":"null","lat":"36.9793424","lng":"126.9198611","zcode":"41","zscode":"41220"},{"statNm":"안중전통시장 공영주차장","statId":"ME21B193","addr":"경기도 평택시 안중읍 안현로서3길 32","location":"null","lat":"36.9876619","lng":"126.9278972","zcode":"41","zscode":"41220"},{"statNm":"안중 제1공영주차장","statId":"ME21B194","addr":"경기도 평택시 안중읍 안중리 302-7","location":"null","lat":"36.9855789","lng":"126.9301102","zcode":"41","zscode":"41220"},{"statNm":"통복 공영주차장","statId":"ME21B195","addr":"경기도 평택시 통복시장로22번길 43","location":"null","lat":"36.9970824","lng":"127.0878571","zcode":"41","zscode":"41220"},{"statNm":"안중오거리 공영주차장","statId":"ME21B196","addr":"경기도 평택시 안중읍 안중리 277-193","location":"null","lat":"36.9905064","lng":"126.9293173","zcode":"41","zscode":"41220"},{"statNm":"상대원 제4공영주차장","statId":"ME21B1A0","addr":"경기도 성남시 중원구 박석로 42","location":"null","lat":"37.4359712","lng":"127.1661109","zcode":"41","zscode":"41130"},{"statNm":"광주경찰서","statId":"ME21B1A1","addr":"경기도 광주시 포돌이로 135","location":"null","lat":"37.4086356","lng":"127.2397222","zcode":"41","zscode":"41610"},{"statNm":"중앙동 제2공영주차장","statId":"ME21B1A5","addr":"경기도 성남시 중원구 광명로256번길 36","location":"null","lat":"37.44041","lng":"127.1565452","zcode":"41","zscode":"41130"},{"statNm":"문원동주민센터","statId":"ME21B1A6","addr":"경기도 과천시 아랫배랭이로 35","location":"null","lat":"37.4266186","lng":"127.0020858","zcode":"41","zscode":"41290"},{"statNm":"의왕경찰서","statId":"ME21B1A7","addr":"경기도 의왕시 오봉로 10","location":"null","lat":"37.3448215","lng":"126.9742891","zcode":"41","zscode":"41430"},{"statNm":"지산 공영주차장","statId":"ME21B1B1","addr":"경기도 평택시 지산2로 86","location":"null","lat":"37.0792283","lng":"127.0612607","zcode":"41","zscode":"41220"},{"statNm":"송북 제1공영주차장","statId":"ME21B1B2","addr":"경기도 평택시 송탄로 432-1","location":"null","lat":"37.0821952","lng":"127.0581114","zcode":"41","zscode":"41220"},{"statNm":"분당경찰서","statId":"ME21B1B3","addr":"경기도 성남시 분당구 정자일로 165","location":"null","lat":"37.3650699","lng":"127.1054776","zcode":"41","zscode":"41130"},{"statNm":"부락산 공영주차장","statId":"ME21B1C4","addr":"경기도 평택시 경기대로 1414","location":"null","lat":"37.0711483","lng":"127.0653378","zcode":"41","zscode":"41220"},{"statNm":"천남졸음쉼터(상)","statId":"ME21B1C5","addr":"경기도 여주시 대신면 천남리 384-7","location":"null","lat":"37.3402242","lng":"127.6234054","zcode":"41","zscode":"41670"},{"statNm":"천남졸음쉼터(하)","statId":"ME21B1C6","addr":"경기도 여주시 대신면 천남리 384-8","location":"null","lat":"37.3399175","lng":"127.6231821","zcode":"41","zscode":"41670"},{"statNm":"도봉졸음쉼터(상)","statId":"ME21B1C7","addr":"경기도 이천시 신둔면 도봉리 547","location":"null","lat":"37.3148453","lng":"127.4539573","zcode":"41","zscode":"41500"},{"statNm":"도봉졸음쉼터(하)","statId":"ME21B1C8","addr":"경기도 이천시 신둔면 도봉리 557-15","location":"null","lat":"37.3142089","lng":"127.4547015","zcode":"41","zscode":"41500"},{"statNm":"동두천경찰서","statId":"ME21B208","addr":"경기도 동두천시 상패로 89","location":"null","lat":"37.9102638","lng":"127.0466878","zcode":"41","zscode":"41250"},{"statNm":"남양주남부경찰서","statId":"ME21B219","addr":"경기도 남양주시 경춘로 532","location":"null","lat":"37.6118611","lng":"127.1718853","zcode":"41","zscode":"41360"},{"statNm":"공도읍행정복지센터 지상주차장","statId":"ME21B220","addr":"경기도 안성시 공도읍 공도4로 8","location":"null","lat":"37.0013899","lng":"127.1727472","zcode":"41","zscode":"41550"},{"statNm":"과천경찰서","statId":"ME21B233","addr":"경기도 과천시 통영로 20","location":"null","lat":"37.4290953","lng":"126.9894258","zcode":"41","zscode":"41290"},{"statNm":"경기도의료원 안성병원","statId":"ME21B246","addr":"경기도 안성시 남파로 95","location":"null","lat":"37.0167062","lng":"127.2605529","zcode":"41","zscode":"41550"},{"statNm":"고양어울림누리 빙상장 주차장","statId":"ME21B302","addr":"경기도 고양시 덕양구 어울림로 33","location":"null","lat":"37.6503964","lng":"126.8328016","zcode":"41","zscode":"41280"},{"statNm":"김포여객터미널","statId":"ME21B304","addr":"경기도 김포시 고촌읍 아라육로270번길 74","location":"null","lat":"37.5984562","lng":"126.7870179","zcode":"41","zscode":"41570"},{"statNm":"군포경찰서","statId":"ME21B312","addr":"경기도 군포시 산본로324번길 16","location":"null","lat":"37.359924","lng":"126.9359018","zcode":"41","zscode":"41410"},{"statNm":"행주산성 공영주차장","statId":"ME21B402","addr":"경기도 고양시 덕양구 행주외동 60-10","location":"null","lat":"37.6004997","lng":"126.823994","zcode":"41","zscode":"41280"},{"statNm":"(주)소모에너지 칠곡주유소","statId":"ME21B408","addr":"경기도 안성시 원곡면 남북대로 1201-4","location":"null","lat":"37.0448306","lng":"127.1568403","zcode":"41","zscode":"41550"},{"statNm":"안산시청","statId":"ME21C231","addr":"경기도 안산시 단원구 화랑로 387","location":"null","lat":"37.3221683","lng":"126.831598","zcode":"41","zscode":"41270"},{"statNm":"성남시 중원구청","statId":"ME21C234","addr":"경기도 성남시 중원구 제일로 36","location":"null","lat":"37.4304509","lng":"127.1371254","zcode":"41","zscode":"41130"},{"statNm":"안양만안경찰서","statId":"ME21C252","addr":"경기도 안양시 만안구 냉천로 63","location":"null","lat":"37.386482","lng":"126.926743","zcode":"41","zscode":"41170"},{"statNm":"은계충전소","statId":"ME21C256","addr":"경기도 시흥시 은계중앙로 192","location":"null","lat":"37.443066","lng":"126.808067","zcode":"41","zscode":"41390"},{"statNm":"중신교회 앞 노외주차장","statId":"ME21C259","addr":"경기도 과천시 별양동 1-9","location":"null","lat":"37.4274864","lng":"126.9914185","zcode":"41","zscode":"41290"},{"statNm":"파주경찰서","statId":"ME21C265","addr":"경기도 파주시 쇠재로 140","location":"null","lat":"37.753654","lng":"126.778069","zcode":"41","zscode":"41480"},{"statNm":"보개면주민센터 주차장","statId":"ME21C286","addr":"경기도 안성시 보개면 보개원삼로 220","location":"null","lat":"37.0227869","lng":"127.2909764","zcode":"41","zscode":"41550"},{"statNm":"안성시농업기술센터","statId":"ME21C287","addr":"경기도 안성시 보개면 보개원삼로 219","location":"null","lat":"37.0235681","lng":"127.2874516","zcode":"41","zscode":"41550"},{"statNm":"남양주소방서","statId":"ME21C291","addr":"경기도 남양주시 평내로 25","location":"null","lat":"37.642738","lng":"127.232178","zcode":"41","zscode":"41360"},{"statNm":"안산시청 대부해양본부 주차장","statId":"ME21C2A6","addr":"경기도 안산시 단원구 돈지섬1길 10","location":"null","lat":"37.2721618","lng":"126.5663867","zcode":"41","zscode":"41270"},{"statNm":"미산면행정복지센터","statId":"ME21C2A7","addr":"경기도 연천군 미산면 유노로 110","location":"null","lat":"38.0469396","lng":"126.9930029","zcode":"41","zscode":"41800"},{"statNm":"구리유통종합시장 주차장","statId":"ME21C402","addr":"경기도 구리시 동구릉로136번길 57","location":"null","lat":"37.6122312","lng":"127.1410552","zcode":"41","zscode":"41310"},{"statNm":"경기북부지방경찰청","statId":"ME21C406","addr":"경기도 의정부시 금오로23번길 22-49","location":"null","lat":"37.7559461","lng":"127.0700103","zcode":"41","zscode":"41150"},{"statNm":"운학동예비군훈련장","statId":"ME21C408","addr":"경기도 용인시 처인구 묵동로 73-1","location":"null","lat":"37.2146582","lng":"127.2382608","zcode":"41","zscode":"41460"},{"statNm":"한강유역환경청","statId":"ME21C418","addr":"경기도 하남시 미사강변한강로 229","location":"null","lat":"37.5691816","lng":"127.1953786","zcode":"41","zscode":"41450"},{"statNm":"성남시청","statId":"ME21D039","addr":"경기도 성남시 중원구 성남대로 997","location":"null","lat":"37.4198152","lng":"127.1247262","zcode":"41","zscode":"41130"},{"statNm":"율동자연공원 B주차장","statId":"ME21D040","addr":"경기도 성남시 분당구 서현로 459","location":"null","lat":"37.3727539","lng":"127.1470411","zcode":"41","zscode":"41130"},{"statNm":"안산문화예술의전당","statId":"ME21D041","addr":"경기도 안산시 단원구 화랑로 312","location":"null","lat":"37.3194881","lng":"126.8233105","zcode":"41","zscode":"41270"},{"statNm":"대보유통 마장휴게소점(통영방향)","statId":"ME21D042","addr":"경기도 이천시 마장면 중부고속도로 82","location":"null","lat":"37.2656284","lng":"127.4049279","zcode":"41","zscode":"41500"},{"statNm":"서하남휴게소(판교방향)","statId":"ME21D044","addr":"경기도 하남시 서울외곽순환고속도로 19","location":"null","lat":"37.5257386","lng":"127.1926065","zcode":"41","zscode":"41450"},{"statNm":"한국농어촌공사 평택지사","statId":"BNBA0301","addr":"경기도 평택시 안중읍 강변로 63","location":"한국농어촌공사 평택지사 주차장","lat":"36.983500820","lng":"126.93662676","zcode":"41","zscode":"41220"},{"statNm":"목감119안전센터","statId":"BNBA0302","addr":"경기도 시흥시 목감우회로 15","location":"목감119안전센터 주차장","lat":"37.381396","lng":"126.857784","zcode":"41","zscode":"41390"},{"statNm":"부천시 공영주차장(법원 앞)","statId":"BNBB0501","addr":"경기도 부천시 부일로237번길 41","location":"부천시 공영주차장(법원 앞)","lat":"37.490331","lng":"126.756585","zcode":"41","zscode":"41190"},{"statNm":"부천시 상공회의소 앞 공영주차장","statId":"BNBB0502","addr":"경기도 부천시 심곡동 325-32","location":"부천시 상공회의소 앞 공영주차장","lat":"37.490277","lng":"126.774957","zcode":"41","zscode":"41190"},{"statNm":"서울랜드 관리동 A주차장","statId":"BNBD1201","addr":"경기도 과천시 광명로 181","location":"서울랜드 관리동 A주차장","lat":"37.436611","lng":"127.0247522","zcode":"41","zscode":"41290"},{"statNm":"서울랜드 후문주차장","statId":"BNBD1202","addr":"경기도 과천시 막계동 137","location":"후문주차장","lat":"37.4357032","lng":"127.0183355","zcode":"41","zscode":"41290"},{"statNm":"평택대","statId":"BNBI4401","addr":"경기도 평택시 서동대로 3825","location":"평택대 주차장","lat":"36.995046","lng":"127.133258","zcode":"41","zscode":"41220"},{"statNm":"시흥 아리테스퀘어","statId":"BNBJ5401","addr":"경기도 시흥시 능곡번영길 33","location":"아리테스퀘어 주차장","lat":"37.369257","lng":"126.810476","zcode":"41","zscode":"41390"},{"statNm":"한국가스기술공사(평택)","statId":"BNDA0301","addr":"경기도 평택시 울성길 76-1","location":"한국가스기술공사 주차장","lat":"37.011964528","lng":"127.06261710","zcode":"41","zscode":"41220"},{"statNm":"고강동 250-20번지 공영주차장","statId":"BT000057","addr":"경기도 부천시 고강로161번길 5","location":"null","lat":"37.531753292","lng":"126.82185086","zcode":"41","zscode":"41190"},{"statNm":"부천옥길전기차버스충전소","statId":"BT000065","addr":"경기도 부천시 연동로131번길 41","location":"null","lat":"37.471878","lng":"126.822010","zcode":"41","zscode":"41190"},{"statNm":"부천옥길전기차승용충전소","statId":"BT000066","addr":"경기도 부천시 부광로 162","location":"null","lat":"37.472050303","lng":"126.82174112","zcode":"41","zscode":"41190"},{"statNm":"캐스트프로2채널테스트","statId":"CP100115","addr":"경기도 성남시 중원구 둔촌대로457번길 27","location":"null","lat":"37.433493","lng":"127.170287","zcode":"41","zscode":"41130"},{"statNm":"캐스트프로1채널테스트","statId":"CP100116","addr":"경기도 성남시 중원구 둔촌대로457번길 27","location":"캐스트프로 연구소","lat":"37.434050136","lng":"127.17061249","zcode":"41","zscode":"41130"},{"statNm":"크로커스 테스트","statId":"CPCC0001","addr":"경기도 성남시 중원구 둔촌대로457번길 27","location":"주차장","lat":"37.434093016","lng":"127.17055609","zcode":"41","zscode":"41130"},{"statNm":"캐스트프로 우림주차장 B2/2F/3F","statId":"CPCP0001","addr":"경기도 성남시 중원구 둔촌대로457번길 27","location":"null","lat":"37.434436568","lng":"127.16974616","zcode":"41","zscode":"41130"},{"statNm":"캐스트프로1채널 문자테스트","statId":"CPCP0002","addr":"경기도 성남시 중원구 둔촌대로457번길 27","location":"null","lat":"37.434364369","lng":"127.16982792","zcode":"41","zscode":"41130"},{"statNm":"캐스트프로 테스트(대륜)","statId":"CPD00001","addr":"경기도 성남시 중원구 둔촌대로457번길 27","location":"1312호","lat":"37.434020894","lng":"127.17058418","zcode":"41","zscode":"41130"},{"statNm":"캐스트프로테스","statId":"CPTEST01","addr":"경기도 성남시 중원구 둔촌대로457번길 27","location":"13층","lat":"37.434321543","lng":"127.16984759","zcode":"41","zscode":"41130"},{"statNm":"벨하우스","statId":"CSBH0001","addr":"경기도 남양주시 수동면 지둔로445번길 98","location":"벨하우스","lat":"37.727672","lng":"127.296783","zcode":"41","zscode":"41360"},{"statNm":"베토벤하우스 작품69","statId":"CSBTB001","addr":"경기도 가평군 가평읍 상지로 740","location":"주차장","lat":"37.027704","lng":"128.178994","zcode":"41","zscode":"41820"},{"statNm":"SGIT_해브펀카페베이커리","statId":"CSCS1005","addr":"경기도 파주시 월롱면 도감로 130","location":"주차장","lat":"37.791882","lng":"126.799709","zcode":"41","zscode":"41480"},{"statNm":"일영랜드","statId":"CSCS1009","addr":"경기도 양주시 장흥면 일영로502번길 222-68","location":"null","lat":"37.695895699","lng":"126.93030539","zcode":"41","zscode":"41630"},{"statNm":"이브이런_송림골프연습장","statId":"CSCS2006","addr":"경기도 광주시 중앙로346번길 59","location":"null","lat":"37.428608","lng":"127.264921","zcode":"41","zscode":"41610"},{"statNm":"읍내리 75-1 캠핑장","statId":"CSEN0001","addr":"경기도 가평군 가평읍 물안산길 42-143","location":"읍내리 75-1 캠핑장","lat":"37.864159","lng":"127.534207","zcode":"41","zscode":"41820"},{"statNm":"한국백신","statId":"CSHK0001","addr":"경기도 안산시 단원구 목내로 128","location":"주차장","lat":"37.310377","lng":"126.776117","zcode":"41","zscode":"41270"},{"statNm":"알럽에스제이","statId":"CSILO001","addr":"경기도 양평군 서종면 중미산로 321","location":"주차장","lat":"37.604901","lng":"127.378851","zcode":"41","zscode":"41830"},{"statNm":"일영랜드","statId":"CSILY001","addr":"경기도 양주시 장흥면 일영로502번길 222-68","location":"주차장","lat":"37.696045","lng":"126.934547","zcode":"41","zscode":"41630"},{"statNm":"장흥폭포수식당","statId":"CSJH0001","addr":"경기도 양주시 장흥면 권율로309번길 169","location":"장흥폭포수식당","lat":"37.745423","lng":"126.950007","zcode":"41","zscode":"41630"},{"statNm":"일마레","statId":"CSLM0001","addr":"경기도 화성시 서신면 해안길178번길 9","location":"주차장","lat":"37.162771","lng":"126.620053","zcode":"41","zscode":"41590"},{"statNm":"남이천스크린골프","statId":"CSNS0001","addr":"경기도 안성시 일죽면 사실로 304","location":"주차장","lat":"37.138564","lng":"127.436921","zcode":"41","zscode":"41550"},{"statNm":"온그린골프","statId":"CSON0001","addr":"경기도 화성시 마도면 마도로660번길 39","location":"주차장","lat":"37.188242","lng":"126.777580","zcode":"41","zscode":"41590"},{"statNm":"오솔길","statId":"CSOS0001","addr":"경기도 화성시 서신면 제부말길 82","location":"주차장","lat":"37.169113","lng":"126.625555","zcode":"41","zscode":"41590"},{"statNm":"오투무인호텔","statId":"CSOT0001","addr":"경기도 이천시 백사면 이여로 282-74","location":"오투무인호텔","lat":"37.319103","lng":"127.476050","zcode":"41","zscode":"41500"},{"statNm":"필무드","statId":"CSPM0001","addr":"경기도 파주시 광탄면 기산로 129","location":"주차장","lat":"37.776293","lng":"126.912009","zcode":"41","zscode":"41480"},{"statNm":"골프렉스","statId":"CSPP0001","addr":"경기도 김포시 하성면 월하로 989","location":"주차장","lat":"37.701699","lng":"126.661746","zcode":"41","zscode":"41570"},{"statNm":"컴인워시 별빛전기충전소점","statId":"CSS00001","addr":"경기도 안산시 상록구 건건로 162","location":"컴인워시 별빛전기충전소점","lat":"37.314245","lng":"126.907933","zcode":"41","zscode":"41270"},{"statNm":"상천장어성","statId":"CSSCJ001","addr":"경기도 김포시 통진읍 도이곶로 2-14","location":"주차장","lat":"37.685956","lng":"126.613851","zcode":"41","zscode":"41570"},{"statNm":"소담정","statId":"CSSDJ001","addr":"경기도 이천시 부발읍 경충대로1722번길 45-12","location":"주차장","lat":"37.234607","lng":"127.523393","zcode":"41","zscode":"41500"},{"statNm":"성진그린타운","statId":"CSSG0001","addr":"경기도 부천시 부천로440번길 28","location":"성진그린타운","lat":"37.523067","lng":"126.785825","zcode":"41","zscode":"41190"},{"statNm":"에스지스크린골프","statId":"CSSGS001","addr":"경기도 용인시 기흥구 동백죽전대로175번길 13","location":"주차장","lat":"37.257835","lng":"127.160884","zcode":"41","zscode":"41460"},{"statNm":"송림골프연습장","statId":"CSSL0001","addr":"경기도 광주시 중앙로346번길 59","location":"주차장","lat":"37.428539","lng":"127.264915","zcode":"41","zscode":"41610"},{"statNm":"쇼룸샤인 셀프세차장","statId":"CSSR0001","addr":"경기도 화성시 효행로1265번길 68","location":"쇼룸샤인 셀프세차장","lat":"37.225025","lng":"127.055723","zcode":"41","zscode":"41590"},{"statNm":"토이키즈풀빌라","statId":"CSTK0001","addr":"경기도 가평군 상면 돌아우길 27","location":"주차장","lat":"37.790394","lng":"127.321459","zcode":"41","zscode":"41820"},{"statNm":"워시클럽 비봉점","statId":"CSWA0001","addr":"경기도 화성시 비봉면 비봉로 112","location":"워시클럽 비봉점","lat":"37.235442","lng":"126.869566","zcode":"41","zscode":"41590"},{"statNm":"원가","statId":"CSWG0001","addr":"경기도 평택시 오성면 오성북로 3","location":"주차장","lat":"37.006083","lng":"126.964703","zcode":"41","zscode":"41220"},{"statNm":"워시랜드 김포점","statId":"CSWSL001","addr":"경기도 김포시 양촌읍 흥신로 243","location":"주차장","lat":"37.678034","lng":"126.611462","zcode":"41","zscode":"41570"},{"statNm":"양평숲 비룡캠프장","statId":"CSYP0001","addr":"경기도 양평군 청운면 목내미길 83-219","location":"주차장","lat":"37.523366","lng":"127.713548","zcode":"41","zscode":"41830"},{"statNm":"여운펜션","statId":"CSYW0001","addr":"경기도 양평군 용문면 벌터골길 14","location":"주차장","lat":"35.514376","lng":"127.596194","zcode":"41","zscode":"41830"},{"statNm":"중동해링턴플레이스","statId":"CU310001","addr":"경기도 부천시 심중로 67","location":"103동 B2","lat":"37.489621","lng":"126.770779","zcode":"41","zscode":"41190"},{"statNm":"강남마을계룡리슈빌아파트2","statId":"EV003578","addr":"경기도 용인시 기흥구 강남동로 54","location":"707동 지하2층","lat":"37.269008552","lng":"127.13347635","zcode":"41","zscode":"41460"},{"statNm":"경기수원_광교호반마을22단지","statId":"EV003580","addr":"경기도 수원시 영통구 광교호수로152번길 24","location":"관리사무소동지하1층 A17~A18","lat":"37.280439225","lng":"127.06978000","zcode":"41","zscode":"41110"},{"statNm":"고양원흥 테마주차타워","statId":"EV003581","addr":"경기도 고양시 덕양구 의장로 144","location":"주차타워 지상5층","lat":"37.635432479","lng":"126.87044871","zcode":"41","zscode":"41280"},{"statNm":"경기구리_한라비발디아파트1","statId":"EV003601","addr":"경기도 구리시 갈매중앙로 131","location":"301동 1,2라인 지하1층","lat":"37.635614326","lng":"127.11953803","zcode":"41","zscode":"41310"},{"statNm":"경기구리_한라비발디아파트2","statId":"EV003602","addr":"경기도 구리시 갈매중앙로 131","location":"지하2층","lat":"37.635614326","lng":"127.11953803","zcode":"41","zscode":"41310"},{"statNm":"경기고양_벽산블루밍6단지2","statId":"EV003603","addr":"경기도 고양시 일산서구 가좌2로 22","location":"605동 802주차장 지하2층 25 좌,우측","lat":"37.689062380","lng":"126.72288914","zcode":"41","zscode":"41280"},{"statNm":"경기시흥_금강2차아파트","statId":"EV003604","addr":"경기도 시흥시 수인로2857번길 44","location":"지하2층 주차장 계단 뒤","lat":"37.411204987","lng":"126.81590213","zcode":"41","zscode":"41390"},{"statNm":"경기평택_동광아파트1","statId":"EV003620","addr":"경기도 평택시 원칠원길 56","location":"102동 1,2라인 지하1층 A06 기둥좌측","lat":"37.031587184","lng":"127.10124827","zcode":"41","zscode":"41220"},{"statNm":"경기부천_부천동부센트레빌3단지","statId":"EV003628","addr":"경기도 부천시 안곡로279번길 42","location":"C주차장 지하 2층 c19기둥 우측","lat":"37.491874775","lng":"126.81200760","zcode":"41","zscode":"41190"},{"statNm":"경기평택_동광아파트2","statId":"EV003632","addr":"경기도 평택시 원칠원길 56","location":"106동 7,8라인 지하1층 B14 기둥좌,우측","lat":"37.031587184","lng":"127.101248","zcode":"41","zscode":"41220"},{"statNm":"경기 의왕_신미주해당화아파트2","statId":"EV003646","addr":"경기도 의왕시 보식골로 30","location":"102동 1,2라인 지하1층 21 기둥좌측","lat":"37.358737125","lng":"126.97166813","zcode":"41","zscode":"41430"},{"statNm":"SK텔레콤 인재개발원","statId":"EV003661","addr":"경기도 이천시 마장면 서이천로 481-28","location":"1층 주차장","lat":"37.266909125","lng":"127.39929619","zcode":"41","zscode":"41500"},{"statNm":"경기수원_화서주공4단지","statId":"EV003669","addr":"경기도 수원시 팔달구 덕영대로697번길 48","location":"3주차장 지하2층 10기둥우측","lat":"37.284544292","lng":"126.99197249","zcode":"41","zscode":"41110"},{"statNm":"경기남양주_신창비바패밀리1","statId":"EV003676","addr":"경기도 남양주시 진접읍 진벌로 85-2","location":"P1,2 주차장 지하2층 B14 기둥 맞은편","lat":"37.745789933","lng":"127.21695109","zcode":"41","zscode":"41360"},{"statNm":"경기남양주_신창비바패밀리2","statId":"EV003677","addr":"경기도 남양주시 진접읍 진벌로 85-2","location":"P7 주차장 지하2층 B22 기둥좌측","lat":"37.745789933","lng":"127.21695109","zcode":"41","zscode":"41360"},{"statNm":"신곡포레스타뷰1","statId":"EV003687","addr":"경기도 의정부시 금신로 276","location":"null","lat":"37.744226519","lng":"127.06593148","zcode":"41","zscode":"41150"},{"statNm":"신곡포레스타뷰2","statId":"EV003690","addr":"경기도 의정부시 금신로 276","location":"null","lat":"37.744226519","lng":"127.06593148","zcode":"41","zscode":"41150"},{"statNm":"신곡포레스타뷰3","statId":"EV003691","addr":"경기도 의정부시 금신로 276","location":"null","lat":"37.744226519","lng":"127.06593148","zcode":"41","zscode":"41150"},{"statNm":"신곡포레스타뷰4","statId":"EV003692","addr":"경기도 의정부시 금신로 276","location":"null","lat":"37.744226519","lng":"127.06593148","zcode":"41","zscode":"41150"},{"statNm":"신곡포레스타뷰5","statId":"EV003693","addr":"경기도 의정부시 금신로 276","location":"null","lat":"37.744226519","lng":"127.06593148","zcode":"41","zscode":"41150"},{"statNm":"배곧1동 행정복지센터","statId":"EV003699","addr":"경기도 시흥시 배곧4로 94-41","location":"null","lat":"37.371705422","lng":"126.73573300","zcode":"41","zscode":"41390"},{"statNm":"설봉KCC스위첸아파트1","statId":"EV003709","addr":"경기도 이천시 이섭대천로 1325","location":"102동 1,2라인 지하1층 30 기둥좌측","lat":"37.287725286","lng":"127.45021234","zcode":"41","zscode":"41500"},{"statNm":"설봉KCC스위첸아파트2","statId":"EV003710","addr":"경기도 이천시 이섭대천로 1325","location":"105동 1,2라인 지하1층  C17 기둥우측","lat":"37.287725286","lng":"127.450212","zcode":"41","zscode":"41500"},{"statNm":"동탄 메타폴리스아파트1","statId":"EV003712","addr":"경기도 화성시 동탄중앙로 220","location":"A동 지상 4층 36기둥","lat":"37.204857392","lng":"127.06931147","zcode":"41","zscode":"41590"},{"statNm":"동탄 메타폴리스아파트2","statId":"EV003713","addr":"경기도 화성시 동탄중앙로 220","location":"B동 지상4층 01기둥","lat":"37.204857392","lng":"127.06931147","zcode":"41","zscode":"41590"},{"statNm":"동탄 메타폴리스아파트3","statId":"EV003714","addr":"경기도 화성시 동탄중앙로 220","location":"C동 지상5층 32기둥","lat":"37.204857392","lng":"127.06931147","zcode":"41","zscode":"41590"},{"statNm":"동탄 메타폴리스아파트4","statId":"EV003715","addr":"경기도 화성시 동탄중앙로 220","location":"D동 지상5층 32기둥","lat":"37.204857392","lng":"127.06931147","zcode":"41","zscode":"41590"},{"statNm":"경기오산_교촌에프엔비본사","statId":"EV003716","addr":"경기도 오산시 동부대로436번길 55-18","location":"교촌에프엔비 지하1층","lat":"37.1419585","lng":"127.0832614","zcode":"41","zscode":"41370"},{"statNm":"우림루미아트클래식","statId":"EV003718","addr":"경기도 부천시 소향로 195","location":"지하5층주차장","lat":"37.501485992","lng":"126.76944487","zcode":"41","zscode":"41190"},{"statNm":"동두천드림파워","statId":"EV003724","addr":"경기도 동두천시 쇠목길 92","location":"null","lat":"37.899950636","lng":"127.08752932","zcode":"41","zscode":"41250"},{"statNm":"솔모로컨트리클럽","statId":"EV003738","addr":"경기도 여주시 가남읍 솔모로그린길 171","location":"null","lat":"37.192012227","lng":"127.58833619","zcode":"41","zscode":"41670"},{"statNm":"수원 스타힐스3단지아파트2","statId":"EV003745","addr":"경기도 수원시 장안구 덕영대로407번길 83","location":"지하2층 주차장 301동 3-7 출입구 앞","lat":"37.304644662","lng":"126.96678258","zcode":"41","zscode":"41110"},{"statNm":"에스에이타워","statId":"EV003746","addr":"경기도 군포시 엘에스로 175","location":"null","lat":"37.375243413","lng":"126.94338673","zcode":"41","zscode":"41410"},{"statNm":"경기성남 정든마을우성4차1","statId":"EV003748","addr":"경기도 성남시 분당구 정자로 144","location":"401동 지하1층주차장","lat":"37.362470923","lng":"127.11980024","zcode":"41","zscode":"41130"},{"statNm":"용인 신봉마을엘지빌리지5차아파트3","statId":"EV003749","addr":"경기도 용인시 수지구 신봉1로 112-2","location":"B주차장 지하2층","lat":"37.325921163","lng":"127.07309236","zcode":"41","zscode":"41460"},{"statNm":"경기시흥 미당","statId":"EV003751","addr":"경기도 시흥시 은계남길 26","location":"null","lat":"37.430626571","lng":"126.79769913","zcode":"41","zscode":"41390"},{"statNm":"경기용인 엘지빌리지5차4","statId":"EV003754","addr":"경기도 용인시 수지구 신봉1로 110","location":"1주차장(501~504동) 지하2층 3기둥","lat":"37.3272833","lng":"127.0741122","zcode":"41","zscode":"41460"},{"statNm":"경기용인 상록데시앙","statId":"EV003757","addr":"경기도 용인시 기흥구 보정로 26","location":"101동 지하2층","lat":"37.313442965","lng":"127.11065138","zcode":"41","zscode":"41460"},{"statNm":"경기용인 메종블루아 102동","statId":"EV003759","addr":"경기도 용인시 기흥구 동탄기흥로785번길 31","location":"102동 P2 주차장","lat":"37.227855198","lng":"127.09827092","zcode":"41","zscode":"41460"},{"statNm":"경기용인 메종블루아 103동","statId":"EV003760","addr":"경기도 용인시 기흥구 동탄기흥로785번길 32","location":"103동 주차장","lat":"37.228633783","lng":"127.09839194","zcode":"41","zscode":"41460"},{"statNm":"경기용인 메종블루아 104동","statId":"EV003761","addr":"경기도 용인시 기흥구 동탄기흥로785번길 34","location":"104동 주차장","lat":"37.228726241","lng":"127.09750749","zcode":"41","zscode":"41460"},{"statNm":"경기용인 메종블루아 105동","statId":"EV003762","addr":"경기도 용인시 기흥구 동탄기흥로785번길 38","location":"105동 주차장","lat":"37.228253554","lng":"127.09750463","zcode":"41","zscode":"41460"},{"statNm":"경기성남 정든마을우성4차2","statId":"EV003798","addr":"경기도 성남시 분당구 정자로 144","location":"406동 지하1층주차장","lat":"37.362470923","lng":"127.11980024","zcode":"41","zscode":"41130"},{"statNm":"경기군포_충무1차1","statId":"EV003802","addr":"경기도 군포시 산본로 299","location":"223동 1층","lat":"37.356485592","lng":"126.93600047","zcode":"41","zscode":"41410"},{"statNm":"경기군포_충무1차2","statId":"EV003803","addr":"경기도 군포시 산본로 299","location":"211동 1층","lat":"37.3557095","lng":"126.9338114","zcode":"41","zscode":"41410"},{"statNm":"경기화성 동탄역반도유보라70 2","statId":"EV003808","addr":"경기도 화성시 동탄광역환승로 63","location":"지하2층 104동 B2 -70기둥옆","lat":"37.203653140","lng":"127.08899592","zcode":"41","zscode":"41590"},{"statNm":"경기용인_신흥덕롯데캐슬레이시티1","statId":"EV003809","addr":"경기도 용인시 기흥구 신정로 25","location":"지하3층 108번기둥","lat":"37.2731067","lng":"127.1012804","zcode":"41","zscode":"41460"},{"statNm":"경기용인_신흥덕롯데캐슬레이시티2","statId":"EV003810","addr":"경기도 용인시 기흥구 신정로 25","location":"지하3층 173번 기둥","lat":"37.273106689","lng":"127.10128036","zcode":"41","zscode":"41460"},{"statNm":"경기용인_신흥덕롯데캐슬레이시티3","statId":"EV003811","addr":"경기도 용인시 기흥구 신정로 25","location":"지하3층 174번기둥","lat":"37.273106689","lng":"127.10128036","zcode":"41","zscode":"41460"},{"statNm":"경기용인_신흥덕롯데캐슬레이시티4","statId":"EV003812","addr":"경기도 용인시 기흥구 신정로 25","location":"지하3층 177번기둥","lat":"37.273106689","lng":"127.10128036","zcode":"41","zscode":"41460"},{"statNm":"경기용인_신흥덕롯데캐슬레이시티5","statId":"EV003813","addr":"경기도 용인시 기흥구 신정로 25","location":"지하3층 162번기둥","lat":"37.273106689","lng":"127.10128036","zcode":"41","zscode":"41460"},{"statNm":"경기용인_신흥덕롯데캐슬레이시티6","statId":"EV003814","addr":"경기도 용인시 기흥구 신정로 25","location":"지하2층 132번기둥","lat":"37.273106689","lng":"127.10128036","zcode":"41","zscode":"41460"},{"statNm":"경기용인_신흥덕롯데캐슬레이시티7","statId":"EV003815","addr":"경기도 용인시 기흥구 신정로 25","location":"지하2층 18번기둥","lat":"37.273106689","lng":"127.10128036","zcode":"41","zscode":"41460"},{"statNm":"경기용인_신흥덕롯데캐슬레이시티8","statId":"EV003816","addr":"경기도 용인시 기흥구 신정로 25","location":"지하2층 01번기둥","lat":"37.273106689","lng":"127.10128036","zcode":"41","zscode":"41460"},{"statNm":"경기용인_신흥덕롯데캐슬레이시티9","statId":"EV003817","addr":"경기도 용인시 기흥구 신정로 25","location":"지하2층 260번기둥","lat":"37.273106689","lng":"127.10128036","zcode":"41","zscode":"41460"},{"statNm":"신흥덕롯데캐슬레이시티_교체","statId":"EV003818","addr":"경기도 용인시 기흥구 신정로 25","location":"null","lat":"37.273106689","lng":"127.10128036","zcode":"41","zscode":"41460"},{"statNm":"경기부천_중동금호한양한신2","statId":"EV003842","addr":"경기도 부천시 조마루로285번길 47","location":"null","lat":"37.500383696","lng":"126.77204084","zcode":"41","zscode":"41190"},{"statNm":"경기부천_중동금호한양한신1","statId":"EV003843","addr":"경기도 부천시 조마루로285번길 47","location":"19,20,21동 지하1층 A20기둥좌,우측","lat":"37.500383696","lng":"126.77204084","zcode":"41","zscode":"41190"},{"statNm":"경기고양_벽산블루밍6단지1","statId":"EV003845","addr":"경기도 고양시 일산서구 가좌2로 22","location":"602동 803주차장 지하2층 61좌측","lat":"37.689062380","lng":"126.72288914","zcode":"41","zscode":"41280"},{"statNm":"경기화성_신창2차비바패밀리1","statId":"EV003872","addr":"경기도 화성시 병점2로 102","location":"211지하주차장 (205동)","lat":"37.208957647","lng":"127.04684112","zcode":"41","zscode":"41590"},{"statNm":"경기화성_신창2차비바패밀리2","statId":"EV003873","addr":"경기도 화성시 병점2로 102","location":"213지하주차장(204동)","lat":"37.208957647","lng":"127.04684112","zcode":"41","zscode":"41590"},{"statNm":"경기화성_신창2차비바패밀리3","statId":"EV003874","addr":"경기도 화성시 병점2로 102","location":"214지하주차장(209동)","lat":"37.208957647","lng":"127.04684112","zcode":"41","zscode":"41590"},{"statNm":"경기이천_대우1차아파트 1","statId":"EV003889","addr":"경기도 이천시 이섭대천로 1427","location":"지하1층 1주차장 계단맞은편","lat":"37.295132314","lng":"127.45592769","zcode":"41","zscode":"41500"},{"statNm":"경기이천_대우1차아파트 2","statId":"EV003890","addr":"경기도 이천시 이섭대천로 1427","location":"지하1층 2주차장 계단옆","lat":"37.295132314","lng":"127.45592769","zcode":"41","zscode":"41500"},{"statNm":"한국생산기술연구원","statId":"EV003891","addr":"경기도 안산시 상록구 항가울로 143","location":"null","lat":"37.292758753","lng":"126.84166071","zcode":"41","zscode":"41270"},{"statNm":"서울물연구원","statId":"EV003901","addr":"경기도 남양주시 경강로334번길 48-17","location":"null","lat":"37.595506138","lng":"127.19169363","zcode":"41","zscode":"41360"},{"statNm":"경기시흥_거모동동보아파트","statId":"EV003913","addr":"경기도 시흥시 군자로335번길 11","location":".","lat":"37.357818041","lng":"126.77287332","zcode":"41","zscode":"41390"},{"statNm":"강북아리수정수센터","statId":"EV003920","addr":"경기도 남양주시 경강로334번길 48-17","location":"null","lat":"37.595506138","lng":"127.19169363","zcode":"41","zscode":"41360"},{"statNm":"경기평택_동신행복마을아파트","statId":"EV003939","addr":"경기도 평택시 안중읍 안현로서7길 88","location":"지상주차장","lat":"36.981817948","lng":"126.91813517","zcode":"41","zscode":"41220"},{"statNm":"경기화성_세영리첼에듀파크","statId":"EV003941","addr":"경기도 화성시 수노을중앙로 257","location":"지하1층 85기둥 좌우측","lat":"37.277483098","lng":"126.82581648","zcode":"41","zscode":"41590"},{"statNm":"경기용인_금전마을리슈빌아파트","statId":"EV003944","addr":"경기도 용인시 처인구 포곡읍 둔전로 15","location":"107동 지하1층 전기실좌측 C13기둥좌,우측","lat":"37.266791157","lng":"127.21548037","zcode":"41","zscode":"41460"},{"statNm":"경기부천_그린타운금호한양아파트","statId":"EV003945","addr":"경기도 부천시 부흥로303번길 31","location":"금호2주차장 지하1층 42기둥좌,우측","lat":"37.495308901","lng":"126.77327021","zcode":"41","zscode":"41190"},