[{"statNm":"경상남도 서부청사","statId":"ME000406","addr":"경상남도 진주시 월아산로 2026","location":"null","lat":"35.2129639","lng":"128.1233299","zcode":"48","zscode":"48170","kind":"A0","kindDetail":"A003"},{"statNm":"신세계종합정비","statId":"ME000409","addr":"경상남도 통영시 광도면 죽림리 292-33","location":"null","lat":"34.8789124","lng":"128.4133694","zcode":"48","zscode":"48220","kind":"F0","kindDetail":"F001"},{"statNm":"진영문화센터","statId":"ME000415","addr":"경상남도 김해시 진영읍 김해대로 440","location":"null","lat":"35.3049134","lng":"128.7374389","zcode":"48","zscode":"48250","kind":"A0","kindDetail":"A004"},{"statNm":"고성휴게소(하남방향)","statId":"ME000424","addr":"경상남도 고성군 대가면 통영대전고속도로 32 ","location":"null","lat":"35.0571523","lng":"128.2511447","zcode":"48","zscode":"48820","kind":"C0","kindDetail":"C001"},{"statNm":"고성휴게소(통영방향)","statId":"ME000425","addr":"경상남도 고성군 대가면 통영대전고속도로 29 ","location":"null","lat":"35.0516247","lng":"128.2638664","zcode":"48","zscode":"48820","kind":"C0","kindDetail":"C001"},{"statNm":"이순신순국공원","statId":"ME000426","addr":"경상남도 남해군 고현면 차면리 ","location":"null","lat":"34.9105664","lng":"127.8587754","zcode":"48","zscode":"48840","kind":"D0","kindDetail":"D001"},{"statNm":"하동군청","statId":"ME000427","addr":"경상남도 하동군 하동읍 군청로 23","location":"null","lat":"35.0673835","lng":"127.7511601","zcode":"48","zscode":"48850","kind":"A0","kindDetail":"A001"},{"statNm":"석풍휴게소","statId":"ME000428","addr":"경상남도 산청군 신안면 산청대로 1169","location":"null","lat":"35.3629543","lng":"127.9186023","zcode":"48","zscode":"48860","kind":"C0","kindDetail":"C002"},{"statNm":"함양휴게소(하남방향)","statId":"ME000429","addr":"경상남도 함양군 지곡면 보산리","location":"null","lat":"35.5518867","lng":"127.7599314","zcode":"48","zscode":"48870","kind":"C0","kindDetail":"C001"},{"statNm":"함양휴게소(통영방향)","statId":"ME000430","addr":"경상남도 함양군 지곡면 보산리","location":"null","lat":"35.5511049","lng":"127.7586744","zcode":"48","zscode":"48870","kind":"C0","kindDetail":"C001"},{"statNm":"조망공원","statId":"ME000431","addr":"경상남도 함양군 함양읍 고운로 161-51","location":"null","lat":"35.5244553","lng":"127.7438188","zcode":"48","zscode":"48870","kind":"D0","kindDetail":"D001"},{"statNm":"거창휴게소(옥포방향)","statId":"ME000432","addr":"경상남도 거창군 가조면 도리","location":"null","lat":"35.7057972","lng":"128.0569946","zcode":"48","zscode":"48880","kind":"C0","kindDetail":"C001"},{"statNm":"거창휴게소(고서방향)","statId":"ME000433","addr":"경상남도 거창군 가조면 도리 산189-1 ","location":"null","lat":"35.7085155","lng":"128.0574192","zcode":"48","zscode":"48880","kind":"C0","kindDetail":"C001"},{"statNm":"거창군청","statId":"ME000434","addr":"경상남도 거창군 거창읍 중앙로 103","location":"null","lat":"35.6869125","lng":"127.9092271","zcode":"48","zscode":"48880","kind":"A0","kindDetail":"A001"},{"statNm":"합천군청","statId":"ME000436","addr":"경상남도 합천군 합천읍 동서로 119","location":"null","lat":"35.5666565","lng":"128.1667084","zcode":"48","zscode":"48890","kind":"A0","kindDetail":"A001"},{"statNm":"통도사휴게소(부산방향)","statId":"ME178013","addr":"경상남도 양산시 하북면 경부고속도로 31-1 (순지리)","location":"null","lat":"35.4885288","lng":"129.0914428","zcode":"48","zscode":"48330","kind":"C0","kindDetail":"C001"},{"statNm":"고성휴게소(통영방향)","statId":"ME178048","addr":"경상남도 고성군 대가면 통영대전고속도로 29 (송계리)","location":"null","lat":"35.0515247","lng":"128.2640664","zcode":"48","zscode":"48820","kind":"C0","kindDetail":"C001"},{"statNm":"고성휴게소(하남방향)","statId":"ME178049","addr":"경상남도 고성군 대가면 통영대전고속도로 32 (신전리)","location":"null","lat":"35.0570523","lng":"128.2513447","zcode":"48","zscode":"48820","kind":"C0","kindDetail":"C001"},{"statNm":"산청휴게소(통영방향)","statId":"ME178050","addr":"경상남도 산청군 단성면 통영대전고속도로 77 (방목리)","location":"null","lat":"35.3333219","lng":"127.9375368","zcode":"48","zscode":"48860","kind":"C0","kindDetail":"C001"},{"statNm":"산청휴게소(하남방향)","statId":"ME178051","addr":"경상남도 산청군 단성면 통영대전고속도로 76 (방목리)","location":"null","lat":"35.3340661","lng":"127.9386829","zcode":"48","zscode":"48860","kind":"C0","kindDetail":"C001"},{"statNm":"함양휴게소(통영방향)","statId":"ME178056","addr":"경상남도 함양군 지곡면 효산길 23-31 (보산리)","location":"null","lat":"35.5510049","lng":"127.7588744","zcode":"48","zscode":"48870","kind":"C0","kindDetail":"C001"},{"statNm":"함양휴게소(하남방향)","statId":"ME178057","addr":"경상남도 함양군 지곡면 효산길 23-11 (보산리)","location":"null","lat":"35.5517867","lng":"127.7601314","zcode":"48","zscode":"48870","kind":"C0","kindDetail":"C001"},{"statNm":"영산휴게소(마산방향)","statId":"ME178062","addr":"경상남도 창녕군 영산면 장척호수길 56-110 (신제리)","location":"null","lat":"35.4295445","lng":"128.4963675","zcode":"48","zscode":"48740","kind":"C0","kindDetail":"C001"},{"statNm":"칠서휴게소(양평방향)","statId":"ME178065","addr":"경상남도 함안군 칠서면 계룡로 122-1 (계내리)","location":"null","lat":"35.3704567","lng":"128.4967833","zcode":"48","zscode":"48730","kind":"C0","kindDetail":"C001"},{"statNm":"사천휴게소(부산방향)","statId":"ME178084","addr":"경상남도 사천시 곤양면 서삼로 619 (묵곡리)","location":"null","lat":"35.0732831","lng":"128.0110198","zcode":"48","zscode":"48240","kind":"C0","kindDetail":"C001"},{"statNm":"사천휴게소(순천방향)","statId":"ME178085","addr":"경상남도 사천시 곤양면 묵실길 31-11 (묵곡리)","location":"null","lat":"35.0748033","lng":"128.0134007","zcode":"48","zscode":"48240","kind":"C0","kindDetail":"C001"},{"statNm":"함안휴게소(부산방향)","statId":"ME178088","addr":"경상남도 함안군 군북면 현포로 205 (유현리)","location":"null","lat":"35.2940514","lng":"128.3473478","zcode":"48","zscode":"48730","kind":"C0","kindDetail":"C001"},{"statNm":"거창휴게소(고서방향)","statId":"ME178089","addr":"경상남도 거창군 가조면 가조가야로 1523 (도리)","location":"null","lat":"35.7084155","lng":"128.0576192","zcode":"48","zscode":"48880","kind":"C0","kindDetail":"C001"},{"statNm":"거창휴게소(옥포방향)","statId":"ME178090","addr":"경상남도 거창군 가조면 가조가야로 1543-81 (도리)","location":"null","lat":"35.7056972","lng":"128.0571946","zcode":"48","zscode":"48880","kind":"C0","kindDetail":"C001"},{"statNm":"장유휴게소(부산방향)","statId":"ME178125","addr":"경상남도 김해시 장유로116번길 44-82 (부곡동)","location":"null","lat":"35.2118159","lng":"128.794438","zcode":"48","zscode":"48250","kind":"C0","kindDetail":"C001"},{"statNm":"한국도로공사창원지사","statId":"ME178131","addr":"경상남도 창원시 의창구 의창대로 1024","location":"null","lat":"35.2842423","lng":"128.7006196","zcode":"48","zscode":"48120","kind":"A0","kindDetail":"A003"},{"statNm":"롯데마트 마산점","statId":"ME178152","addr":"경상남도 창원시 마산합포구 신마산시장길 33 (창포동3가)","location":"null","lat":"35.1813836","lng":"128.5606975","zcode":"48","zscode":"48120","kind":"E0","kindDetail":"E001"},{"statNm":"롯데마트 장유점","statId":"ME178157","addr":"경상남도 김해시 번화1로56번길 15 롯데마트","location":"null","lat":"35.193012","lng":"128.8013646","zcode":"48","zscode":"48250","kind":"E0","kindDetail":"E001"},{"statNm":"지리산국립공원 중산리주차장","statId":"ME181201","addr":"경상남도 산청군 시천면 중산리 619-12","location":"null","lat":"35.304022","lng":"127.74934","zcode":"48","zscode":"48860","kind":"D0","kindDetail":"D001"},{"statNm":"지리산국립공원 쌍계사 주차장","statId":"ME181202","addr":"경상남도 하동군 화개면 용강리 400-5","location":"null","lat":"35.230286","lng":"127.641776","zcode":"48","zscode":"48850","kind":"D0","kindDetail":"D001"},{"statNm":"한려해상국립공원사무소 노량분소","statId":"ME181203","addr":"경상남도 남해군 설천면 노량리 410-36","location":"null","lat":"34.939704","lng":"127.875309","zcode":"48","zscode":"48840","kind":"A0","kindDetail":"A003"},{"statNm":"한려해상국립공원사무소 금산분소","statId":"ME181204","addr":"경상남도 남해군 이동면 보리암로 287","location":"null","lat":"34.773405","lng":"127.987807","zcode":"48","zscode":"48840","kind":"A0","kindDetail":"A003"},{"statNm":"만포주유소","statId":"ME181211","addr":"경상남도 밀양시 삼랑진읍 삼랑진로 390","location":"null","lat":"35.39879","lng":"128.819108","zcode":"48","zscode":"48270","kind":"E0","kindDetail":"E007"},{"statNm":"통도호텔","statId":"ME181212","addr":"경상남도 양산시 신평강변8길 11","location":"null","lat":"35.493286","lng":"129.083243","zcode":"48","zscode":"48330","kind":"E0","kindDetail":"E003"},{"statNm":"포유주유소","statId":"ME181213","addr":"경상남도 양산시 어곡터널로40","location":"null","lat":"35.375148","lng":"129.031419","zcode":"48","zscode":"48330","kind":"E0","kindDetail":"E007"},{"statNm":"S-oil 물금주유소","statId":"ME181214","addr":"경상남도 양산시 물금읍 황산로501","location":"null","lat":"35.31907","lng":"128.994332","zcode":"48","zscode":"48330","kind":"E0","kindDetail":"E007"},{"statNm":"중앙주유소","statId":"ME181215","addr":"경상남도 의령군 의령읍 백산로4","location":"null","lat":"35.320263","lng":"128.2645","zcode":"48","zscode":"48720","kind":"E0","kindDetail":"E007"},{"statNm":"마산의료원","statId":"ME181218","addr":"경상남도 창원시 장군동4가 3-6","location":"null","lat":"35.199462","lng":"128.565332","zcode":"48","zscode":"48120","kind":"I0","kindDetail":"I001"},{"statNm":"남광석유판매","statId":"ME181219","addr":"경상남도 창원시 의창구 창원대로314","location":"null","lat":"35.238045","lng":"128.633719","zcode":"48","zscode":"48120","kind":"E0","kindDetail":"E007"},{"statNm":"중앙모터스","statId":"ME181220","addr":"경상남도 창원시 의창구 소계로 33","location":"null","lat":"35.25481","lng":"128.603051","zcode":"48","zscode":"48120","kind":"F0","kindDetail":"F002"},{"statNm":"합천관광휴게소","statId":"ME181221","addr":"경상남도 합천군 쌍백면 쌍백중앙로162-8","location":"null","lat":"35.449674","lng":"128.14454","zcode":"48","zscode":"48890","kind":"C0","kindDetail":"C002"},{"statNm":"롯데마트 거제점","statId":"ME181226","addr":"경상남도 거제시 서간도길 9-9 (옥포동)","location":"null","lat":"34.888448","lng":"128.691064","zcode":"48","zscode":"48310","kind":"E0","kindDetail":"E001"},{"statNm":"롯데마트 시티세븐점","statId":"ME181227","addr":"경상남도 창원시 의창구 원이대로 320 (두대동)","location":"null","lat":"35.240183","lng":"128.653229","zcode":"48","zscode":"48120","kind":"E0","kindDetail":"E001"},{"statNm":"롯데마트 김해점","statId":"ME181228","addr":"경상남도 김해시 김해대로 2330 (부원동)","location":"null","lat":"35.225619","lng":"128.881964","zcode":"48","zscode":"48250","kind":"E0","kindDetail":"E001"},{"statNm":"롯데마트 양덕점","statId":"ME181229","addr":"경상남도 창원시 마산회원구 삼호로 80 (양덕동)","location":"null","lat":"35.223311","lng":"128.585287","zcode":"48","zscode":"48120","kind":"E0","kindDetail":"E001"},{"statNm":"사천만남의 광장","statId":"ME183025","addr":"경상남도 사천시 축동면 서삼로 1742","location":"null","lat":"35.1090735","lng":"128.085891","zcode":"48","zscode":"48240","kind":"D0","kindDetail":"D006"},{"statNm":"양산국민체육센터","statId":"ME183026","addr":"경상남도 양산시 물금읍 가촌리 990, 안쪽 주차장","location":"null","lat":"35.325638","lng":"128.9951935","zcode":"48","zscode":"48330","kind":"A0","kindDetail":"A004"},{"statNm":"덕계동주민센터","statId":"ME183027","addr":"경상남도 양산시 덕계동 1039-5","location":"null","lat":"35.3751747","lng":"129.1497396","zcode":"48","zscode":"48330","kind":"A0","kindDetail":"A002"},{"statNm":"웅상체육공원","statId":"ME183028","addr":"경상남도 양산시 평산동 283, 축구장 옆","location":"null","lat":"35.3778178","lng":"129.1434076","zcode":"48","zscode":"48330","kind":"A0","kindDetail":"A004"},{"statNm":"화왕산 자연휴양림","statId":"ME183029","addr":"경상남도 창녕군 고암면 청간길 128-126","location":"null","lat":"35.5462783","lng":"128.5678712","zcode":"48","zscode":"48740","kind":"A0","kindDetail":"A004"},{"statNm":"봉곡 공영주차장","statId":"ME183030","addr":"null","location":"null","lat":"35.24630","lng":"128.67092","zcode":"48","zscode":"48120","kind":"B0","kindDetail":"B001"},{"statNm":"풍호동공영주차장(노외주차장)","statId":"ME183031","addr":"경상남도 창원시 진해구 풍호동 305-21","location":"null","lat":"35.1327351","lng":"128.7041533","zcode":"48","zscode":"48120","kind":"B0","kindDetail":"B001"},{"statNm":"부림공설운동장 주차장","statId":"ME183032","addr":"경상남도 의령군 부림면 감암리 1254","location":"null","lat":"35.4714534","lng":"128.3227612","zcode":"48","zscode":"48720","kind":"A0","kindDetail":"A004"},{"statNm":"롯데마트 웅상점","statId":"ME183033","addr":"경상남도 양산시 삼호1길 34, 4층 주차장 02","location":"null","lat":"35.4125843","lng":"129.1671829","zcode":"48","zscode":"48330","kind":"E0","kindDetail":"E001"},{"statNm":"롯데마트 진주점","statId":"ME183034","addr":"경상남도 진주시 동진로 440, 지하2층 주차장 C6","location":"null","lat":"35.1800924","lng":"128.139958","zcode":"48","zscode":"48170","kind":"E0","kindDetail":"E001"},{"statNm":"롯데마트 통영점","statId":"ME183035","addr":"경상남도 통영시 무전대로 65, 4층 주차장 ","location":"null","lat":"34.8603378","lng":"128.4287301","zcode":"48","zscode":"48220","kind":"E0","kindDetail":"E001"},{"statNm":"삼천포종합정비","statId":"ME183036","addr":"경상남도 사천시 삼천포대교로 577","location":"null","lat":"34.9493441","lng":"128.0777738","zcode":"48","zscode":"48240","kind":"F0","kindDetail":"F002"},{"statNm":"진주현대서비스","statId":"ME183037","addr":"경상남도 진주시 내동면 내동로 110","location":"null","lat":"35.1551221","lng":"128.079304","zcode":"48","zscode":"48170","kind":"F0","kindDetail":"F002"},{"statNm":"비학에너지","statId":"ME183038","addr":"경상남도 양산시 상북면 양산대로 1510 ","location":"null","lat":"35.402327","lng":"129.0565632","zcode":"48","zscode":"48330","kind":"E0","kindDetail":"E007"},{"statNm":"근로자복지공단창원병원","statId":"ME183039","addr":"경상남도 창원시 성산구 창원대로 721, 건물 우측","location":"null","lat":"35.2187322","lng":"128.6722464","zcode":"48","zscode":"48120","kind":"I0","kindDetail":"I001"},{"statNm":"금호통영마리나리조트주차장","statId":"ME183040","addr":"경상남도 통영시 큰발개 1길 33, 마리나요트클럽 앞","location":"null","lat":"34.827381","lng":"128.439006","zcode":"48","zscode":"48220","kind":"E0","kindDetail":"E003"},{"statNm":"명동노외공영주차장(노외주차장)","statId":"ME183114","addr":"경상남도 창원시 진해구 명동580, 좌측 주차장","location":"null","lat":"35.1015619","lng":"128.7173541","zcode":"48","zscode":"48120","kind":"B0","kindDetail":"B001"},{"statNm":"북면골프연습장","statId":"ME183115","addr":"경상남도 창원시 의창구 월계리 162-4, 골프장 밑 주차장","location":"null","lat":"35.356198","lng":"128.6334696","zcode":"48","zscode":"48120","kind":"A0","kindDetail":"A004"},{"statNm":"호암이병철생가 공영주차장","statId":"ME183116","addr":"경상남도 의령군 정곡면 중교리 487","location":"null","lat":"35.3805686","lng":"128.3257161","zcode":"48","zscode":"48720","kind":"B0","kindDetail":"B001"},{"statNm":"함안군종합사회복지관","statId":"ME183117","addr":"경상남도 함안군 칠원읍 삼칠로 155","location":"null","lat":"35.3093994","lng":"128.5170739","zcode":"48","zscode":"48730","kind":"I0","kindDetail":"I006"},{"statNm":"양산시청","statId":"ME183118","addr":"경상남도 양산시 남부동 876-1, 양산문화회관 건너편 주차장","location":"null","lat":"35.3328921","lng":"129.0361143","zcode":"48","zscode":"48330","kind":"A0","kindDetail":"A001"},{"statNm":"상북면사무소","statId":"ME183119","addr":"경상남도 양산시 상북면 석계리 272-20","location":"null","lat":"35.4182066","lng":"129.0644296","zcode":"48","zscode":"48330","kind":"A0","kindDetail":"A002"},{"statNm":"동면상동체육공원","statId":"ME183120","addr":"경상남도 양산시 동면 여락리 301-1","location":"null","lat":"35.3063267","lng":"129.0900302","zcode":"48","zscode":"48330","kind":"A0","kindDetail":"A004"},{"statNm":"법기수원지","statId":"ME183121","addr":"경상남도 양산시 동면 법기리 523-3","location":"null","lat":"35.3439657","lng":"129.1151315","zcode":"48","zscode":"48330","kind":"A0","kindDetail":"A004"},{"statNm":"김해휴게소 기장방향","statId":"ME183209","addr":"경상남도 김해시 대동면 월촌리 770","location":"null","lat":"35.2689882","lng":"129.0028827","zcode":"48","zscode":"48250","kind":"C0","kindDetail":"C001"},{"statNm":"김해휴게소 창원방향","statId":"ME183210","addr":"경상남도 김해시 대동면 월촌리 770","location":"null","lat":"35.2698823","lng":"129.003926","zcode":"48","zscode":"48250","kind":"C0","kindDetail":"C001"},{"statNm":"양산디자인공원","statId":"ME183217","addr":"경상남도 양산시 백호로23, 축구장 옆","location":"null","lat":"35.3209906","lng":"128.9998986","zcode":"48","zscode":"48330","kind":"A0","kindDetail":"A004"},{"statNm":"진주휴게소(부산방향)","statId":"ME184030","addr":"경상남도 진주시 남해고속도로 194 ","location":"null","lat":"35.1596748","lng":"128.1225553","zcode":"48","zscode":"48170","kind":"C0","kindDetail":"C001"},{"statNm":"거제시청","statId":"ME184031","addr":"경상남도 거제시 계룡로 125","location":"null","lat":"34.880628","lng":"128.622013","zcode":"48","zscode":"48310","kind":"A0","kindDetail":"A001"},{"statNm":"김해시 차량등록사업소","statId":"ME184032","addr":"경상남도 김해시 김해대로 2401","location":"null","lat":"35.2261","lng":"128.8904","zcode":"48","zscode":"48250","kind":"A0","kindDetail":"A003"},{"statNm":"밀양공설운동장","statId":"ME184033","addr":"경상남도 밀양시 밀양대로 2057-21","location":"null","lat":"35.504852","lng":"128.747453","zcode":"48","zscode":"48270","kind":"A0","kindDetail":"A004"},{"statNm":"목화휴게소","statId":"ME184034","addr":"경상남도 사천시 용현면 사천대로 912","location":"null","lat":"35.001863","lng":"128.054131","zcode":"48","zscode":"48240","kind":"C0","kindDetail":"C002"},{"statNm":"의령군종합사회복지관","statId":"ME184036","addr":"경상남도 의령군 의령읍 의병로8길 44","location":"null","lat":"35.316636","lng":"128.256632","zcode":"48","zscode":"48720","kind":"A0","kindDetail":"A004"},{"statNm":"문산휴게소(순천방향)","statId":"ME184037","addr":"경상남도 진주시 문산읍 남해고속도로 195","location":"null","lat":"35.171173","lng":"128.151099","zcode":"48","zscode":"48170","kind":"C0","kindDetail":"C001"},{"statNm":"창녕군민체육관","statId":"ME184038","addr":"경상남도 창녕군 창녕읍 창녕대로 307","location":"null","lat":"35.519905","lng":"128.505764","zcode":"48","zscode":"48740","kind":"A0","kindDetail":"A004"},{"statNm":"이마트 마산점","statId":"ME184039","addr":"경상남도 창원시 마산합포구 서성로 3","location":"null","lat":"35.198189","lng":"128.570069","zcode":"48","zscode":"48120","kind":"E0","kindDetail":"E001"},{"statNm":"진동면사무소","statId":"ME184040","addr":"경상남도 창원시 마산합포구 진동면 신서촌로 13","location":"null","lat":"35.115256","lng":"128.48190","zcode":"48","zscode":"48120","kind":"A0","kindDetail":"A002"},{"statNm":"성주동주민센터","statId":"ME184041","addr":", 외부화장실 앞","location":"null","lat":"35.1895","lng":"128.694279","zcode":"48","zscode":"48120","kind":"A0","kindDetail":"A002"},{"statNm":"이마트 창원점","statId":"ME184042","addr":"경상남도 창원시 성산구 원이대로 608","location":"null","lat":"35.22639048","lng":"128.67981855","zcode":"48","zscode":"48120","kind":"E0","kindDetail":"E001"},{"statNm":"동읍사무소","statId":"ME184043","addr":"경상남도 창원시 의창구 동읍 동읍로 88","location":"null","lat":"35.2846599","lng":"128.6822931","zcode":"48","zscode":"48120","kind":"A0","kindDetail":"A002"},{"statNm":"가야읍사무소","statId":"ME184045","addr":"경상남도 함안군 가야읍 함안대로 505","location":"null","lat":"35.272348","lng":"128.407920","zcode":"48","zscode":"48730","kind":"A0","kindDetail":"A002"},{"statNm":"황매산만남의광장","statId":"ME184046","addr":"경상남도 합천군 가회면 서부로 1563","location":"null","lat":"35.485834","lng":"128.024710","zcode":"48","zscode":"48890","kind":"D0","kindDetail":"D007"},{"statNm":"사등면사무소","statId":"ME18C101","addr":"경상남도 거제시 사등면 성포로 104","location":"null","lat":"34.918191","lng":"128.522367","zcode":"48","zscode":"48310","kind":"A0","kindDetail":"A002"},{"statNm":"거제 학동주차장","statId":"ME18C102","addr":"경상남도 거제시 동부면 학동리 264","location":"null","lat":"34.775660","lng":"128.640934","zcode":"48","zscode":"48310","kind":"B0","kindDetail":"B001"},{"statNm":"조선해양문화관","statId":"ME18C103","addr":"경상남도 거제시 일운면 지세포해안로 41","location":"null","lat":"34.832916","lng":"128.702094","zcode":"48","zscode":"48310","kind":"D0","kindDetail":"D008"},{"statNm":"와현모래숲해변(해수욕장)","statId":"ME18C104","addr":"경상남도 거제시 일운면 와현리431-2","location":"null","lat":"34.813671","lng":"128.707103","zcode":"48","zscode":"48310","kind":"B0","kindDetail":"B002"},{"statNm":"거제관광안내소","statId":"ME18C105","addr":"경상남도 거제시 사등면 오량리 841","location":"null","lat":"34.888354","lng":"128.494865","zcode":"48","zscode":"48310","kind":"D0","kindDetail":"D006"},{"statNm":"거창군 농업기술센터","statId":"ME18C106","addr":"경상남도 거창군 거창읍 거함대로 3322","location":"null","lat":"35.677924","lng":"127.922673","zcode":"48","zscode":"48880","kind":"A0","kindDetail":"A004"},{"statNm":"수승대","statId":"ME18C107","addr":"경상남도 거창군 위천면 황산1길 60-6","location":"null","lat":"35.760428","lng":"127.834155","zcode":"48","zscode":"48880","kind":"B0","kindDetail":"B002"},{"statNm":"가조역권 커뮤니티센터","statId":"ME18C108","addr":"경상남도 거창군 가조면 지산로 1488-30","location":"null","lat":"35.709585","lng":"128.017193","zcode":"48","zscode":"48880","kind":"A0","kindDetail":"A004"},{"statNm":"고성읍 사무소","statId":"ME18C109","addr":"경상남도 고성군 고성읍 송학로 93","location":"null","lat":"34.978136","lng":"128.319916","zcode":"48","zscode":"48820","kind":"A0","kindDetail":"A002"},{"statNm":"문화체육센터","statId":"ME18C110","addr":"경상남도 고성군 고성읍 송학고분로 193","location":"null","lat":"34.979713","lng":"128.312236","zcode":"48","zscode":"48820","kind":"A0","kindDetail":"A004"},{"statNm":"대청계곡 공영주차장","statId":"ME18C111","addr":"경상남도 김해시 대청동 산112-130","location":"null","lat":"35.184191","lng":"128.773486","zcode":"48","zscode":"48250","kind":"B0","kindDetail":"B001"},{"statNm":"가야테마파크","statId":"ME18C112","addr":"경상남도 김해시 가야테마길 161","location":"null","lat":"35.251751","lng":"128.893001","zcode":"48","zscode":"48250","kind":"B0","kindDetail":"B002"},{"statNm":"삼문공용주차장","statId":"ME18C113","addr":"경상남도 밀양시 삼문동 24-40","location":"null","lat":"35.484263","lng":"128.760117","zcode":"48","zscode":"48270","kind":"B0","kindDetail":"B001"},{"statNm":"사천공항","statId":"ME18C114","addr":"경상남도 사천시 사천읍 사천대로 1971","location":"null","lat":"35.092235","lng":"128.087129","zcode":"48","zscode":"48240","kind":"A0","kindDetail":"A003"},{"statNm":"사천휴게소(부산방향)","statId":"ME18C115","addr":"경상남도 사천시 곤양면 서삼로 619","location":"null","lat":"35.073612","lng":"128.011383","zcode":"48","zscode":"48240","kind":"C0","kindDetail":"C001"},{"statNm":"사천휴게소(순천방향)","statId":"ME18C116","addr":"경상남도 사천시 곤양면 묵실길 31-11","location":"null","lat":"35.074722","lng":"128.013336","zcode":"48","zscode":"48240","kind":"C0","kindDetail":"C001"},{"statNm":"지리산 중산 관광지","statId":"ME18C117","addr":"경상남도 산청군 시천면 중산리501-4","location":"null","lat":"35.291821","lng":"127.754710","zcode":"48","zscode":"48860","kind":"B0","kindDetail":"B002"},{"statNm":"평산동 행정복지센터","statId":"ME18C118","addr":"경상남도 양산시 평산로 71","location":"null","lat":"35.381661","lng":"129.147043","zcode":"48","zscode":"48330","kind":"A0","kindDetail":"A002"},{"statNm":"화정면공설운동장","statId":"ME18C119","addr":"경상남도 의령군 화정면 화정로 328","location":"null","lat":"35.275702","lng":"128.212536","zcode":"48","zscode":"48720","kind":"J0","kindDetail":"J007"},{"statNm":"금산면사무소","statId":"ME18C120","addr":"경상남도 진주시 금산로 107","location":"null","lat":"35.213871","lng":"128.147722","zcode":"48","zscode":"48170","kind":"A0","kindDetail":"A002"},{"statNm":"문산휴게소(순천방향)","statId":"ME18C121","addr":"경상남도 진주시 문산읍 남해고속도로 195","location":"null","lat":"35.171061","lng":"128.151105","zcode":"48","zscode":"48170","kind":"C0","kindDetail":"C001"},{"statNm":"진주휴게소(부산방향)","statId":"ME18C122","addr":"경상남도 진주시 남해고속도로 194","location":"null","lat":"35.159721","lng":"128.120834","zcode":"48","zscode":"48170","kind":"C0","kindDetail":"C001"},{"statNm":"남지시외버스터미널 인근 공용주차장","statId":"ME18C123","addr":"경상남도 창녕군 남지읍 남지리 167-4 일원","location":"null","lat":"35.391654","lng":"128.483389","zcode":"48","zscode":"48740","kind":"B0","kindDetail":"B001"},{"statNm":"입곡군립공원(입곡지 주차장)","statId":"ME18C124","addr":"경상남도 함안군 산인면 입곡리 1180-1","location":"null","lat":"35.263328","lng":"128.449638","zcode":"48","zscode":"48730","kind":"D0","kindDetail":"D001"},{"statNm":"공동육아나눔터 (구 칠원보건지소)","statId":"ME18C125","addr":"경상남도 함안군 칠원읍 용산1길 28","location":"null","lat":"35.308514","lng":"128.517627","zcode":"48","zscode":"48730","kind":"A0","kindDetail":"A004"},{"statNm":"함안휴게소(부산방향)","statId":"ME18C126","addr":"경상남도 함안군 군북면 현포로 205","location":"null","lat":"35.293769","lng":"128.347844","zcode":"48","zscode":"48730","kind":"C0","kindDetail":"C001"},{"statNm":"농월정 관광단지 주차장","statId":"ME18C127","addr":"경상남도 함양군 안의면 농월정길9-13","location":"null","lat":"35.623657","lng":"127.783039","zcode":"48","zscode":"48870","kind":"B0","kindDetail":"B002"},{"statNm":"심원정(용추계곡)주차장","statId":"ME18C128","addr":"경상남도 함양군 안의면 하원리 1201-3","location":"null","lat":"35.668293","lng":"127.787960","zcode":"48","zscode":"48870","kind":"D0","kindDetail":"D001"},{"statNm":"함양문화시설사업소","statId":"ME18C129","addr":"경상남도 함양군 함양읍 필봉산길 55","location":"null","lat":"35.524093","lng":"127.721746","zcode":"48","zscode":"48870","kind":"A0","kindDetail":"A004"},{"statNm":"가야산국립공원사무소 주차장","statId":"ME18C130","addr":"경상남도 합천군 가야면 가야산로 1200","location":"null","lat":"35.767368","lng":"128.132487","zcode":"48","zscode":"48890","kind":"D0","kindDetail":"D001"},{"statNm":"군북면사무소","statId":"ME18C131","addr":"경상남도 함안군 군북면 지두2길 15","location":"null","lat":"35.261188","lng":"128.345317","zcode":"48","zscode":"48730","kind":"A0","kindDetail":"A002"},{"statNm":"스포츠파크 주차장","statId":"ME18C204","addr":"경상남도 거창군 거창읍 심소정길39-36","location":"null","lat":"35.693631","lng":"127.926266","zcode":"48","zscode":"48880","kind":"A0","kindDetail":"A004"},{"statNm":"남산공원","statId":"ME18C205","addr":"경상남도 고성군 고성읍 동외리 595","location":"null","lat":"34.967214","lng":"128.326964","zcode":"48","zscode":"48820","kind":"D0","kindDetail":"D001"},{"statNm":"김해서부문화센터","statId":"ME18C206","addr":"경상남도 김해시 율하2로 210","location":"null","lat":"35.172807","lng":"128.821536","zcode":"48","zscode":"48250","kind":"A0","kindDetail":"A004"},{"statNm":"미조항 북항주차장","statId":"ME18C207","addr":"경상남도 남해군 미조면 미조리 107-6","location":"null","lat":"34.713333","lng":"128.044998","zcode":"48","zscode":"48840","kind":"B0","kindDetail":"B001"},{"statNm":"창선교 주차장","statId":"ME18C208","addr":"경상남도 남해군 삼동면 지족리 291-11","location":"null","lat":"34.832542","lng":"128.000230","zcode":"48","zscode":"48840","kind":"B0","kindDetail":"B001"},{"statNm":"상주해수욕장 주차장","statId":"ME18C209","addr":"경상남도 남해군 상주면 상주리 1227","location":"null","lat":"34.721943","lng":"127.988609","zcode":"48","zscode":"48840","kind":"B0","kindDetail":"B002"},{"statNm":"밀양아리랑대공원 주차장","statId":"ME18C210","addr":"경상남도 밀양시 교동 556번지","location":"null","lat":"35.505375","lng":"128.758272","zcode":"48","zscode":"48270","kind":"D0","kindDetail":"D001"},{"statNm":"표충사 관광지 공영주차장","statId":"ME18C211","addr":"경상남도 밀양시 단장면 구천리 2052번지","location":"null","lat":"35.531126","lng":"128.942964","zcode":"48","zscode":"48270","kind":"B0","kindDetail":"B001"},{"statNm":"얼음골 공영주차장","statId":"ME18C212","addr":"경상남도 밀양시 산내면 삼양리 190-1번지","location":"null","lat":"35.580564","lng":"128.980919","zcode":"48","zscode":"48270","kind":"B0","kindDetail":"B001"},{"statNm":"무안용호놀이 전수관","statId":"ME18C213","addr":"경상남도 밀양시 무안면 사명로 537","location":"null","lat":"35.472743","lng":"128.652629","zcode":"48","zscode":"48270","kind":"A0","kindDetail":"A003"},{"statNm":"남일대해수욕장 주차장","statId":"ME18C214","addr":"경상남도 사천시 향촌동 631-6","location":"null","lat":"34.927781","lng":"128.097806","zcode":"48","zscode":"48240","kind":"B0","kindDetail":"B002"},{"statNm":"양산휴게소(서울방향)","statId":"ME18C215","addr":"경상남도 양산시 목장길 15-50","location":"null","lat":"35.322863","lng":"129.057296","zcode":"48","zscode":"48330","kind":"C0","kindDetail":"C001"},{"statNm":"의령소방서","statId":"ME18C216","addr":"경상남도 의령군 의령읍 의령로 108-17","location":"null","lat":"35.320372","lng":"128.248660","zcode":"48","zscode":"48720","kind":"A0","kindDetail":"A003"},{"statNm":"진주시농산물도매시장","statId":"ME18C217","addr":"경상남도 진주시 남강로 1689","location":"null","lat":"35.211713","lng":"128.124520","zcode":"48","zscode":"48170","kind":"A0","kindDetail":"A003"},{"statNm":"kbs창원방송총국","statId":"ME18C218","addr":"경상남도 창원시 의창구 중앙대로 178(신월동 97-1)","location":"null","lat":"35.228260","lng":"128.684869","zcode":"48","zscode":"48120","kind":"A0","kindDetail":"A003"},{"statNm":"칠서지방산업단지","statId":"ME18C219","addr":"경상남도 함안군 칠서면 공단안길 12 (농협)","location":"null","lat":"35.362112","lng":"128.485533","zcode":"48","zscode":"48730","kind":"A0","kindDetail":"A003"},{"statNm":"대산면사무소","statId":"ME18C220","addr":"경상남도 함안군 대산면 대산중앙로 176","location":"null","lat":"35.350010","lng":"128.431837","zcode":"48","zscode":"48730","kind":"A0","kindDetail":"A002"},{"statNm":"창녕군청","statId":"ME18C301","addr":"경상남도 창녕군 창녕읍 군청길 1","location":"null","lat":"35.545162","lng":"128.490355","zcode":"48","zscode":"48740","kind":"A0","kindDetail":"A001"},{"statNm":"구산면사무소","statId":"ME18C302","addr":"경상남도 창원시 마산합포구 구산면 구산로 554 ","location":"null","lat":"35.119364","lng":"128.580546","zcode":"48","zscode":"48120","kind":"A0","kindDetail":"A002"},{"statNm":"청학동 박물관 (청학동 공영주차장)","statId":"ME18C303","addr":"경상남도 하동군 청학로 2526","location":"null","lat":"35.242544","lng":"127.710520","zcode":"48","zscode":"48850","kind":"D0","kindDetail":"D008"},{"statNm":"사천종합운동장","statId":"ME190443","addr":"경상남도 사천시 사천읍 구암두문로 85","location":"null","lat":"35.0884591","lng":"128.0939464","zcode":"48","zscode":"48240","kind":"A0","kindDetail":"A004"},{"statNm":"삼천포대교공원","statId":"ME190444","addr":"경상남도 사천시 사천대로 17","location":"null","lat":"34.9324694","lng":"128.0521274","zcode":"48","zscode":"48240","kind":"D0","kindDetail":"D001"},{"statNm":"창원시청","statId":"ME190445","addr":"경상남도 창원시 의창구 중앙대로 151","location":"null","lat":"35.2282982","lng":"128.6831979","zcode":"48","zscode":"48120","kind":"A0","kindDetail":"A001"},{"statNm":"진전면사무소","statId":"ME190446","addr":"경상남도 창원시 마산합포구 진전면 오서리 604-3","location":"null","lat":"35.1028645","lng":"128.4190036","zcode":"48","zscode":"48120","kind":"A0","kindDetail":"A002"},{"statNm":"성산스포츠센터","statId":"ME190447","addr":"경상남도 창원시 성산구 창이대로 888","location":"null","lat":"35.2063615","lng":"128.7055198","zcode":"48","zscode":"48120","kind":"A0","kindDetail":"A004"},{"statNm":"마산합포스포츠센터","statId":"ME190448","addr":"경상남도 창원시 마산합포구 드림베이대로 56","location":"null","lat":"35.1765576","lng":"128.5675444","zcode":"48","zscode":"48120","kind":"A0","kindDetail":"A004"},{"statNm":"진해노인종합복지관","statId":"ME190449","addr":"경상남도 창원시 진해구 풍호동 27-3 ","location":"null","lat":"35.1352978","lng":"128.7112004","zcode":"48","zscode":"48120","kind":"I0","kindDetail":"I006"},{"statNm":"송림공원주차장","statId":"ME195022","addr":"경상남도 하동군 하동읍 광평리 443-17","location":"null","lat":"35.063820","lng":"127.742021","zcode":"48","zscode":"48850","kind":"B0","kindDetail":"B002"},{"statNm":"진교공영주차장","statId":"ME195023","addr":"경상남도 하동군 진교면 진교리 426-41","location":"null","lat":"35.029967","lng":"127.904228","zcode":"48","zscode":"48850","kind":"B0","kindDetail":"B001"},{"statNm":"연초면사무소","statId":"ME19C101","addr":"경상남도 거제시 연초면 죽토리 781-1","location":"null","lat":"34.914778","lng":"128.656056","zcode":"48","zscode":"48310","kind":"A0","kindDetail":"A002"},{"statNm":"국민연금공단 거창사옥","statId":"ME19C102","addr":"경상남도 거창군 거창읍 대동리 992-2","location":"null","lat":"35.693720","lng":"127.922976","zcode":"48","zscode":"48880","kind":"A0","kindDetail":"A003"},{"statNm":"수태보건진료소 주차장","statId":"ME19C104","addr":"경상남도 고성군 하일면 용태리 188-1","location":"null","lat":"34.952415","lng":"128.213715","zcode":"48","zscode":"48820","kind":"I0","kindDetail":"I003"},{"statNm":"상리면 보건지소 주차장","statId":"ME19C105","addr":"경상남도 고성군 상리면 척번정리 804","location":"null","lat":"34.998000","lng":"128.189000","zcode":"48","zscode":"48820","kind":"I0","kindDetail":"I003"},{"statNm":"상족암군립공원 주차장","statId":"ME19C106","addr":"경상남도 고성군 하이면 덕명리 284","location":"null","lat":"34.908385","lng":"128.147083","zcode":"48","zscode":"48820","kind":"D0","kindDetail":"D001"},{"statNm":"불암동주민센터","statId":"ME19C108","addr":"경상남도 김해시 불암동 220-17","location":"null","lat":"35.222333","lng":"128.926861","zcode":"48","zscode":"48250","kind":"A0","kindDetail":"A002"},{"statNm":"봉화마을주차장","statId":"ME19C109","addr":"경상남도 김해시 진영읍 본산리 40-9","location":"null","lat":"35.313889","lng":"128.770028","zcode":"48","zscode":"48250","kind":"B0","kindDetail":"B001"},{"statNm":"임호체육공원","statId":"ME19C110","addr":"경상남도 김해시 외동 산 28-1","location":"null","lat":"35.229106","lng":"128.850674","zcode":"48","zscode":"48250","kind":"D0","kindDetail":"D001"},{"statNm":"하남읍행정복지센터","statId":"ME19C111","addr":"경상남도 밀양시 하남읍 수산리 469-13","location":"null","lat":"35.375194","lng":"128.711278","zcode":"48","zscode":"48270","kind":"A0","kindDetail":"A002"},{"statNm":"생초시외버스터미널주차장","statId":"ME19C112","addr":"경상남도 산청군 생초면 어서리 290-2","location":"null","lat":"35.492167","lng":"127.832944","zcode":"48","zscode":"48860","kind":"B0","kindDetail":"B001"},{"statNm":"차황면사무소주차장","statId":"ME19C113","addr":"경상남도 산청군 차황면 장위리 18-3","location":"null","lat":"35.463389","lng":"127.927806","zcode":"48","zscode":"48860","kind":"A0","kindDetail":"A002"},{"statNm":"만남의광장","statId":"ME19C114","addr":"경상남도 양산시 다방동 572-1","location":"null","lat":"35.330778","lng":"129.036556","zcode":"48","zscode":"48330","kind":"B0","kindDetail":"B001"},{"statNm":"내조마을 공용주차장","statId":"ME19C116","addr":"경상남도 의령군 칠곡면 내조리 429-1","location":"null","lat":"35.354083","lng":"128.195417","zcode":"48","zscode":"48720","kind":"B0","kindDetail":"B001"},{"statNm":"대지면사무소","statId":"ME19C118","addr":"경상남도 창녕군 대지면 모산리 501-1","location":"null","lat":"35.555417","lng":"128.467806","zcode":"48","zscode":"48740","kind":"A0","kindDetail":"A002"},{"statNm":"부곡 공설주차장","statId":"ME19C119","addr":"경상남도 창녕군 부곡면 거문리 824","location":"null","lat":"35.438139","lng":"128.587472","zcode":"48","zscode":"48740","kind":"B0","kindDetail":"B001"},{"statNm":"한국전기연구원 창업보육센터 주차장","statId":"ME19C121","addr":"경상남도 창원시 성산구 성주동 178","location":"null","lat":"35.191122","lng":"128.719432","zcode":"48","zscode":"48120","kind":"A0","kindDetail":"A003"},{"statNm":"북면행정복지센터","statId":"ME19C122","addr":"경상남도 창원시 의창구 북면 신촌리 954-4","location":"null","lat":"35.347889","lng":"128.607444","zcode":"48","zscode":"48120","kind":"A0","kindDetail":"A002"},{"statNm":"하동문화예술회관","statId":"ME19C124","addr":"경상남도 하동군 하동읍 읍내리 962-2","location":"null","lat":"35.073139","lng":"127.740917","zcode":"48","zscode":"48850","kind":"A0","kindDetail":"A004"},{"statNm":"군북3.1기념체육관","statId":"ME19C125","addr":"경상남도 함안군 군북면 소포리 516-2","location":"null","lat":"35.265778","lng":"128.348972","zcode":"48","zscode":"48730","kind":"J0","kindDetail":"J007"},{"statNm":"봉산면사무소 공영주차장","statId":"ME19C126","addr":"경상남도 합천군 봉산면 김봉리 344-11","location":"null","lat":"35.625806","lng":"128.042056","zcode":"48","zscode":"48890","kind":"B0","kindDetail":"B001"},{"statNm":"한국세라믹기술원 본원","statId":"ME19C131","addr":"경상남도 진주시 충무공동 15-4","location":"null","lat":"35.177417","lng":"128.135278","zcode":"48","zscode":"48170","kind":"A0","kindDetail":"A003"},{"statNm":"웅양면사무소","statId":"ME19C165","addr":"경상남도 거창군 웅양면 노현리 217-1","location":"null","lat":"35.805167","lng":"127.917944","zcode":"48","zscode":"48880","kind":"A0","kindDetail":"A002"},{"statNm":"민원청사 주차장(김해시청)","statId":"ME19C166","addr":"경상남도 김해시 부원동 625-1","location":"null","lat":"35.227444","lng":"128.890261","zcode":"48","zscode":"48250","kind":"A0","kindDetail":"A001"},{"statNm":"통영시청1청사","statId":"ME19C167","addr":"경상남도 통영시 무전동 357","location":"null","lat":"34.854783","lng":"128.433358","zcode":"48","zscode":"48220","kind":"A0","kindDetail":"A001"},{"statNm":"자동차부품혁신센터","statId":"ME19C205","addr":"경상남도 창원시 마산회원구 내서읍 중리 1127-28","location":"null","lat":"35.237556","lng":"128.507361","zcode":"48","zscode":"48120","kind":"A0","kindDetail":"A003"},{"statNm":"진영공설운동장","statId":"ME19C206","addr":"경상남도 김해시 진영읍 진영리 1347","location":"null","lat":"35.307361","lng":"128.717333","zcode":"48","zscode":"48250","kind":"J0","kindDetail":"J007"},{"statNm":"롯데마트 창원중앙점","statId":"ME19C207","addr":"경상남도 창원시 성산구 중앙동 92","location":"null","lat":"35.225389","lng":"128.680389","zcode":"48","zscode":"48120","kind":"E0","kindDetail":"E001"},{"statNm":"하북문화의집","statId":"ME19C208","addr":"경상남도 양산시 하북면 순지리 756-93","location":"null","lat":"35.489306","lng":"129.085694","zcode":"48","zscode":"48330","kind":"A0","kindDetail":"A004"},{"statNm":"계성면보건지소","statId":"ME19C290","addr":"경상남도 창녕군 계성면 계성리 606","location":"null","lat":"35.486722","lng":"128.509694","zcode":"48","zscode":"48740","kind":"I0","kindDetail":"I003"},{"statNm":"문산읍 사무소","statId":"ME19C291","addr":"경상남도 진주시 문산읍 삼곡리 1265-1","location":"null","lat":"35.168500","lng":"128.164361","zcode":"48","zscode":"48170","kind":"A0","kindDetail":"A002"},{"statNm":"승강기안전기술원","statId":"ME19C292","addr":"경상남도 거창군 남상면 대산리 1572","location":"null","lat":"35.653000","lng":"127.930361","zcode":"48","zscode":"48880","kind":"A0","kindDetail":"A003"},{"statNm":"웅동하수처리장","statId":"ME19C401","addr":"경상남도 창원시 진해구 남문동 1190-1","location":"null","lat":"35.096333","lng":"128.783056","zcode":"48","zscode":"48120","kind":"A0","kindDetail":"A003"},{"statNm":"사천휴게소(부산방향)","statId":"ME19D108","addr":"경상남도 사천시 곤양면 서삼로 619","location":"null","lat":"35.07480619","lng":"128.01343224","zcode":"48","zscode":"48240","kind":"C0","kindDetail":"C099"},{"statNm":"사천휴게소(순천방향)","statId":"ME19D109","addr":"경상남도 사천시 곤양면 묵실길 31-11","location":"null","lat":"35.07332245","lng":"128.0119393","zcode":"48","zscode":"48240","kind":"C0","kindDetail":"C099"},{"statNm":"양산휴게소(서울방향)","statId":"ME19D201","addr":"경상남도 양산시 동면 목장길 15-50","location":"null","lat":"35.32279605","lng":"129.057324","zcode":"48","zscode":"48330","kind":"C0","kindDetail":"C099"},{"statNm":"진주휴게소(부산방향)","statId":"ME19D208","addr":"경상남도 진주시 남해고속도로 194","location":"null","lat":"35.15966892","lng":"128.12071116","zcode":"48","zscode":"48170","kind":"C0","kindDetail":"C099"},{"statNm":"노량대교 홍보관 주차장","statId":"ME19D210","addr":"경상남도 하동군 금남면 노량리 704","location":"null","lat":"34.94723855","lng":"127.8653781","zcode":"48","zscode":"48850","kind":"D0","kindDetail":"D005"},{"statNm":"공군 교육사령부 제1정문 1주차장","statId":"ME19D212","addr":"경상남도 진주시 속사리 175","location":"null","lat":"35.1863062","lng":"128.14891013","zcode":"48","zscode":"48170","kind":"B0","kindDetail":"B004"},{"statNm":"공군 교육사령부 제2정문 주차장","statId":"ME19D213","addr":"경상남도 진주시 금산면 송백로46","location":"null","lat":"35.2054418","lng":"128.14950082","zcode":"48","zscode":"48170","kind":"B0","kindDetail":"B004"},{"statNm":"와룡스포츠센타 주차장","statId":"ME19D214","addr":"경상남도 사천시 사천읍 사주리 263-1","location":"null","lat":"35.08185327","lng":"128.07988553","zcode":"48","zscode":"48240","kind":"J0","kindDetail":"J099"},{"statNm":"진영휴게소(순천방향)","statId":"ME19D401","addr":"경상남도 김해시 진영읍 하계로96번길 68","location":"null","lat":"35.27970412","lng":"128.71683077","zcode":"48","zscode":"48250","kind":"C0","kindDetail":"C099"},{"statNm":"문산휴게소(순천방향)","statId":"ME19D402","addr":"경상남도 진주시 문산읍 남해고속도로 195","location":"null","lat":"35.17208503","lng":"128.15257103","zcode":"48","zscode":"48170","kind":"C0","kindDetail":"C099"},{"statNm":"둔덕면사무소","statId":"ME19E101","addr":"경상남도 거제시 둔덕면 하둔리 365-64","location":"null","lat":"34.836942","lng":"128.505418","zcode":"48","zscode":"48310","kind":"A0","kindDetail":"A002"},{"statNm":"남부면사무소","statId":"ME19E102","addr":"경상남도 거제시 남부면 저구리 70","location":"null","lat":"34.731932","lng":"128.60991","zcode":"48","zscode":"48310","kind":"A0","kindDetail":"A002"},{"statNm":"하청면사무소","statId":"ME19E103","addr":"경상남도 거제시 하청면 하청리 665-1","location":"null","lat":"34.954985","lng":"128.655134","zcode":"48","zscode":"48310","kind":"A0","kindDetail":"A002"},{"statNm":"능포동사무소","statId":"ME19E104","addr":"경상남도 거제시 능포동 401-4","location":"null","lat":"34.879464","lng":"128.734313","zcode":"48","zscode":"48310","kind":"A0","kindDetail":"A002"},{"statNm":"남상면사무소","statId":"ME19E105","addr":"경상남도 거창군 남상면 무촌리 632-2","location":"null","lat":"35.643478","lng":"127.91032","zcode":"48","zscode":"48880","kind":"A0","kindDetail":"A002"},{"statNm":"당항포관광지 주차장","statId":"ME19E106","addr":"경상남도 고성군 회화면 봉동리 1060","location":"null","lat":"35.061286","lng":"128.396953","zcode":"48","zscode":"48820","kind":"D0","kindDetail":"D007"},{"statNm":"하이면생활체육관","statId":"ME19E107","addr":"경상남도 고성군 하이면 덕호리 474-1","location":"null","lat":"34.930988","lng":"128.121033","zcode":"48","zscode":"48820","kind":"J0","kindDetail":"J007"},{"statNm":"동해면 복지회관 주차장","statId":"ME19E108","addr":"경상남도 고성군 동해면 장기리 251-9","location":"null","lat":"35.041111","lng":"128.419444","zcode":"48","zscode":"48820","kind":"I0","kindDetail":"I006"},{"statNm":"갈모봉산림욕장 주차장","statId":"ME19E109","addr":"경상남도 고성군 고성읍 이당리 253-4","location":"null","lat":"34.977953","lng":"128.271891","zcode":"48","zscode":"48820","kind":"D0","kindDetail":"D007"},{"statNm":"동부스포츠센터","statId":"ME19E110","addr":"경상남도 김해시 삼방동 840-2","location":"null","lat":"35.256222","lng":"128.905852","zcode":"48","zscode":"48250","kind":"J0","kindDetail":"J007"},{"statNm":"반룡공원주차장","statId":"ME19E111","addr":"경상남도 김해시 관동동 332","location":"null","lat":"35.177564","lng":"128.805999","zcode":"48","zscode":"48250","kind":"B0","kindDetail":"B002"},{"statNm":"화포천생태학습관(주차장)","statId":"ME19E112","addr":"경상남도 김해시 한림면 퇴래리 1363","location":"null","lat":"35.310938","lng":"128.789435","zcode":"48","zscode":"48250","kind":"D0","kindDetail":"D007"},{"statNm":"둔촌샛들마을숲주차장","statId":"ME19E113","addr":"경상남도 남해군 삼동면 금송리 1416-1","location":"null","lat":"34.826293","lng":"128.034875","zcode":"48","zscode":"48840","kind":"B0","kindDetail":"B002"},{"statNm":"창선면공용주차장","statId":"ME19E114","addr":"경상남도 남해군 창선면 상죽리 143","location":"null","lat":"34.857605","lng":"128.012465","zcode":"48","zscode":"48840","kind":"B0","kindDetail":"B001"},{"statNm":"청도면행정복지센터 민원인주차장","statId":"ME19E115","addr":"경상남도 밀양시 청도면 구기리 140-6","location":"null","lat":"35.549093","lng":"128.624155","zcode":"48","zscode":"48270","kind":"A0","kindDetail":"A002"},{"statNm":"시천면사무소주차장","statId":"ME19E116","addr":"경상남도 산청군 시천면 사리 932-1","location":"null","lat":"35.27669","lng":"127.838242","zcode":"48","zscode":"48860","kind":"A0","kindDetail":"A002"},{"statNm":"궁류면사무소 주차장","statId":"ME19E117","addr":"경상남도 의령군 궁류면 토곡리 602-1","location":"null","lat":"35.446987","lng":"128.24899","zcode":"48","zscode":"48720","kind":"A0","kindDetail":"A002"},{"statNm":"지정면복지회관","statId":"ME19E118","addr":"경상남도 의령군 지정면 봉곡리 793-11","location":"null","lat":"35.381916","lng":"128.388268","zcode":"48","zscode":"48720","kind":"I0","kindDetail":"I006"},{"statNm":"진주시성관리사무소","statId":"ME19E119","addr":"경상남도 진주시 남성동 3-1","location":"null","lat":"35.190932","lng":"128.078485","zcode":"48","zscode":"48170","kind":"D0","kindDetail":"D007"},{"statNm":"우포잠자리나라","statId":"ME19E120","addr":"경상남도 창녕군 대합면 주매리 508-2","location":"null","lat":"35.565113","lng":"128.417919","zcode":"48","zscode":"48740","kind":"D0","kindDetail":"D007"},{"statNm":"옥야공용주차장","statId":"ME19E121","addr":"경상남도 창녕군 이방면 거남리 436-1","location":"null","lat":"35.60093","lng":"128.383458","zcode":"48","zscode":"48740","kind":"B0","kindDetail":"B001"},{"statNm":"반송공원 까치A 뒤 주차장","statId":"ME19E122","addr":"경상남도 창원시 성산구 반송동 201","location":"null","lat":"35.243462","lng":"128.666837","zcode":"48","zscode":"48120","kind":"B0","kindDetail":"B001"},{"statNm":"산양스포츠파크 주차장","statId":"ME19E123","addr":"경상남도 통영시 산양읍 남평리 741-9","location":"null","lat":"34.803423","lng":"128.396925","zcode":"48","zscode":"48220","kind":"J0","kindDetail":"J007"},{"statNm":"통영RCE세자트라숲","statId":"ME19E124","addr":"경상남도 통영시 용남면 화삼리 202","location":"null","lat":"34.850788489","lng":"128.44965241","zcode":"48","zscode":"48220","kind":"D0","kindDetail":"D007"},{"statNm":"옥종면사무소 주차장","statId":"ME19E125","addr":"경상남도 하동군 옥종면 청룡리 124-7","location":"null","lat":"35.18255","lng":"127.879212","zcode":"48","zscode":"48850","kind":"A0","kindDetail":"A002"},{"statNm":"국민체육센터","statId":"ME19E126","addr":"경상남도 하동군 적량면 고절리 1209-1","location":"null","lat":"35.06103","lng":"127.778333","zcode":"48","zscode":"48850","kind":"J0","kindDetail":"J007"},{"statNm":"금남면 복합커뮤니티센터","statId":"ME19E127","addr":"경상남도 하동군 금남면 송문리 824-1","location":"null","lat":"34.950783","lng":"127.858453","zcode":"48","zscode":"48850","kind":"J0","kindDetail":"J007"},{"statNm":"구재봉자연휴양림","statId":"ME19E128","addr":"경상남도 하동군 적량면 서리 1765-13","location":"null","lat":"35.128028","lng":"127.74567","zcode":"48","zscode":"48850","kind":"D0","kindDetail":"D007"},{"statNm":"청소년수련원","statId":"ME19E129","addr":"경상남도 하동군 중평리 763","location":"null","lat":"34.982526","lng":"127.894606","zcode":"48","zscode":"48850","kind":"I0","kindDetail":"I007"},{"statNm":"칠원면 도서관 주차장","statId":"ME19E130","addr":"경상남도 함안군 칠원읍 용산리 144-2","location":"null","lat":"35.304764","lng":"128.515922","zcode":"48","zscode":"48730","kind":"I0","kindDetail":"I005"},{"statNm":"합천군민체육관(일해공원 공설주차장)","statId":"ME19E131","addr":"경상남도 합천군 합천읍 합천리 925-2","location":"null","lat":"35.561124","lng":"128.153891","zcode":"48","zscode":"48890","kind":"J0","kindDetail":"J007"},{"statNm":"삼가브랜드육타운","statId":"ME19E132","addr":"경상남도 합천군 삼가면 소오리 450-25","location":"null","lat":"35.413312","lng":"128.11835","zcode":"48","zscode":"48890","kind":"D0","kindDetail":"D007"},{"statNm":"하청스포츠타운","statId":"ME19E201","addr":"경상남도 거제시 하청면 실전리 656-2","location":"null","lat":"34.958278","lng":"128.651713","zcode":"48","zscode":"48310","kind":"A0","kindDetail":"A004"},{"statNm":"배내골홍보관","statId":"ME19E202","addr":"경상남도 양산시 원동면 선리 1421-5","location":"null","lat":"35.48595","lng":"128.984693","zcode":"48","zscode":"48330","kind":"D0","kindDetail":"D005"},{"statNm":"곤충생태학습관 주차장","statId":"ME19E203","addr":"경상남도 의령군 의령읍 무전리 124-1","location":"null","lat":"35.319692","lng":"128.282267","zcode":"48","zscode":"48720","kind":"D0","kindDetail":"D007"},{"statNm":"창녕스포츠파크","statId":"ME19E204","addr":"경상남도 창녕군 부곡면 사창리 328","location":"null","lat":"35.434565","lng":"128.59224","zcode":"48","zscode":"48740","kind":"J0","kindDetail":"J007"},{"statNm":"파크랜드옆 공영주차장","statId":"ME19E205","addr":"경상남도 창원시 진해구 태백동 104","location":"null","lat":"35.170449","lng":"128.655602","zcode":"48","zscode":"48120","kind":"B0","kindDetail":"B001"},{"statNm":"부산경남연수원","statId":"ME19E206","addr":"경상남도 창원시 진해구 남양동 166-1","location":"null","lat":"35.112214","lng":"128.778985","zcode":"48","zscode":"48120","kind":"A0","kindDetail":"A003"},{"statNm":"주상면사무소","statId":"ME19E225","addr":"경상남도 거창군 주상면 도평리 718","location":"null","lat":"35.749023","lng":"127.91326","zcode":"48","zscode":"48880","kind":"A0","kindDetail":"A002"},{"statNm":"수양동주민센터","statId":"ME19E502","addr":"경상남도 거제시 양정동 665-1","location":"null","lat":"34.887944","lng":"128.646466","zcode":"48","zscode":"48310","kind":"A0","kindDetail":"A002"},{"statNm":"수곡면 농산물산지 유통센터","statId":"ME19E504","addr":"경상남도 진주시 수곡면 대천리 118-2","location":"null","lat":"35.197927","lng":"127.930152","zcode":"48","zscode":"48170","kind":"E0","kindDetail":"E001"},{"statNm":"길곡 체육공원","statId":"ME19E505","addr":"경상남도 창녕군 길곡면 증산리 901-1","location":"null","lat":"35.384708","lng":"128.56978","zcode":"48","zscode":"48740","kind":"B0","kindDetail":"B002"},{"statNm":"벽계야영장","statId":"ME19E506","addr":"경상남도 의령군 궁류면 벽계리 63","location":"null","lat":"35.435147","lng":"128.226941","zcode":"48","zscode":"48720","kind":"D0","kindDetail":"D001"},{"statNm":"국민건강보험공단 김해지사","statId":"ME19F102","addr":"경상남도 김해시 전하로176번길 79, 1층","location":"null","lat":"35.223576848215","lng":"128.87445786","zcode":"48","zscode":"48250","kind":"A0","kindDetail":"A003"},{"statNm":"한국폴리텍대학 항공캠퍼스","statId":"ME19F103","addr":"경상남도 사천시 대학길 46","location":"null","lat":"34.947849438808","lng":"128.10798724","zcode":"48","zscode":"48240","kind":"J0","kindDetail":"J001"},{"statNm":"상문동주민센터","statId":"ME19F116","addr":"경상남도 거제시 거제중앙로 1641","location":"null","lat":"34.867833482867","lng":"128.63823282","zcode":"48","zscode":"48310","kind":"A0","kindDetail":"A002"},{"statNm":"탄소없는 마을(의신) 생태주차장","statId":"ME19F117","addr":"경상남도 하동군 화개면 대성리 1212-1","location":"null","lat":"35.2819955","lng":"127.6526147","zcode":"48","zscode":"48850","kind":"B0","kindDetail":"B001"},{"statNm":"함양군 종합폐기물처리장","statId":"ME19F124","addr":"경상남도 함양군 함양읍 함양남서로 996-166","location":"null","lat":"35.5067047","lng":"127.7483634","zcode":"48","zscode":"48870","kind":"A0","kindDetail":"A004"},{"statNm":"석전동행정복지센터","statId":"ME19F236","addr":"경상남도 창원시 마산회원구 석전동4길 52","location":"null","lat":"35.233115","lng":"128.572418","zcode":"48","zscode":"48120","kind":"A0","kindDetail":"A002"},{"statNm":"대산면행정복지센터","statId":"ME19F237","addr":"경상남도 창원시 의창구 대산면 가술산단동로 10","location":"null","lat":"35.3310296","lng":"128.7087061","zcode":"48","zscode":"48120","kind":"A0","kindDetail":"A002"},{"statNm":"성산아트홀","statId":"ME19F238","addr":"경상남도 창원시 의창구 중앙대로 181","location":"null","lat":"35.2300313","lng":"128.6836696","zcode":"48","zscode":"48120","kind":"J0","kindDetail":"J004"},{"statNm":"내서읍스포츠센터","statId":"ME19F239","addr":"경상남도 창원시 마산회원구 내서읍 중리 391-3","location":"null","lat":"35.2497473","lng":"128.5216128","zcode":"48","zscode":"48120","kind":"J0","kindDetail":"J007"},{"statNm":"곤양체육공원 주차장","statId":"ME19F240","addr":"경상남도 사천시 곤양면 서정리 83","location":"null","lat":"35.061452750462","lng":"127.961088652","zcode":"48","zscode":"48240","kind":"B0","kindDetail":"B002"},{"statNm":"장유도서관","statId":"ME19F241","addr":"경상남도 김해시 대청로176번길 7","location":"null","lat":"35.191353658729","lng":"128.797031580","zcode":"48","zscode":"48250","kind":"I0","kindDetail":"I005"},{"statNm":"김해산업진흥의생명융합재단","statId":"ME19F242","addr":"경상남도 김해시 골든루트로 80-59","location":"null","lat":"35.214974720433","lng":"128.83228128","zcode":"48","zscode":"48250","kind":"A0","kindDetail":"A003"},{"statNm":"농산물종합가공센터","statId":"ME19F243","addr":"경상남도 밀양시 상남면 기산리 1053","location":"null","lat":"35.4456099","lng":"128.7564157","zcode":"48","zscode":"48270","kind":"A0","kindDetail":"A004"},{"statNm":"농업기술센터","statId":"ME19F244","addr":"경상남도 밀양시 상남면 기산리 1039","location":"null","lat":"35.446988368703","lng":"128.756266405","zcode":"48","zscode":"48270","kind":"A0","kindDetail":"A099"},{"statNm":"산내면 행정복지센터 ","statId":"ME19F245","addr":"경상남도 밀양시 산내면 산내로 322","location":"null","lat":"35.5846907","lng":"128.8806439","zcode":"48","zscode":"48270","kind":"A0","kindDetail":"A002"},{"statNm":"함안군농업기술센터","statId":"ME19F246","addr":"경상남도 함안군 가야읍 함안대로 755","location":"null","lat":"35.2939896","lng":"128.3978479","zcode":"48","zscode":"48730","kind":"A0","kindDetail":"A004"},{"statNm":"솔정솔바람해변주차장","statId":"ME19F247","addr":"경상남도 남해군 미조면 송정리 1133-1","location":"null","lat":"34.723706270411","lng":"128.02459962","zcode":"48","zscode":"48840","kind":"B0","kindDetail":"B001"},{"statNm":"함양군청 주차장","statId":"ME19F248","addr":"경상남도 함양군 함양읍 고운로 35","location":"null","lat":"35.520240302074","lng":"127.72455714","zcode":"48","zscode":"48870","kind":"A0","kindDetail":"A001"},{"statNm":"진주국토관리사무소","statId":"ME19F249","addr":"경상남도 진주시 남강로 50","location":"null","lat":"35.1637333","lng":"128.0378899","zcode":"48","zscode":"48170","kind":"A0","kindDetail":"A001"},{"statNm":"진영국토관리사무소","statId":"ME19F250","addr":"경상남도 김해시 진영읍 하계로 70","location":"null","lat":"35.285779756994","lng":"128.71200697","zcode":"48","zscode":"48250","kind":"A0","kindDetail":"A001"},{"statNm":"창원역사민속관","statId":"ME19F251","addr":"경상남도 창원시 의창구 사림동 70","location":"null","lat":"35.2439314","lng":"128.6811405","zcode":"48","zscode":"48120","kind":"D0","kindDetail":"D003"},{"statNm":"진성농공단지 주차장","statId":"ME19F252","addr":"경상남도 진주시 진성면 동부로1259번길 32","location":"null","lat":"35.1799765","lng":"128.2198122","zcode":"48","zscode":"48170","kind":"B0","kindDetail":"B001"},{"statNm":"진주지식산업센터","statId":"ME19F253","addr":"경상남도 진주시 망경남길 60번길 18","location":"null","lat":"35.183593094978","lng":"128.08489122","zcode":"48","zscode":"48170","kind":"A0","kindDetail":"A003"},{"statNm":"조명군총 주차장","statId":"ME19F262","addr":"경상남도 사천시 용현면 통양리 249","location":"null","lat":"35.04065696405","lng":"128.0480343329","zcode":"48","zscode":"48240","kind":"D0","kindDetail":"D009"},{"statNm":"소방교육훈련장","statId":"ME19F263","addr":"경상남도 의령군 가례면 가례로 677","location":"null","lat":"35.3772045","lng":"128.2339601","zcode":"48","zscode":"48720","kind":"A0","kindDetail":"A003"},{"statNm":"합천박물관","statId":"ME19F264","addr":"경상남도 합천군 쌍책면 성산리 234","location":"null","lat":"35.5797407","lng":"128.2840263","zcode":"48","zscode":"48890","kind":"D0","kindDetail":"D008"},{"statNm":"선진리성 주차장","statId":"ME19F267","addr":"경상남도 사천시 용현면 선진길 467","location":"null","lat":"35.042908098580","lng":"128.04419616","zcode":"48","zscode":"48240","kind":"D0","kindDetail":"D009"},{"statNm":"시루봉공영주차장","statId":"ME19F411","addr":"경상남도 창원시 진해구 자은동 401-2","location":"null","lat":"35.1481279","lng":"128.7112329","zcode":"48","zscode":"48120","kind":"B0","kindDetail":"B001"},{"statNm":"사천시청","statId":"ME19F413","addr":"경상남도 사천시 용현면 시청로 77 (덕곡리 501)","location":"null","lat":"35.0036209","lng":"128.064206","zcode":"48","zscode":"48240","kind":"A0","kindDetail":"A001"},{"statNm":"내서농산물도매시장 채소공판장앞","statId":"ME19X406","addr":"경상남도 창원시 마산회원구 내서읍 유통단지로","location":"null","lat":"35.255635","lng":"128.511913","zcode":"48","zscode":"48120","kind":"G0","kindDetail":"G004"},{"statNm":"김해유통센터","statId":"ME19X416","addr":"경상남도 김해시 칠산로 128","location":"null","lat":"35.184192","lng":"128.836648","zcode":"48","zscode":"48250","kind":"G0","kindDetail":"G004"},{"statNm":"롯데마트 통영점 옥상(지상3층)주차장","statId":"ME19X427","addr":"경상남도 통영시 무전대로","location":"null","lat":"34.860807","lng":"128.428305","zcode":"48","zscode":"48220","kind":"E0","kindDetail":"E001"},{"statNm":"한국폴리텍7대학 창원캠퍼스 보육관 앞","statId":"ME19X443","addr":"경상남도 창원시 성산구 외동반림로","location":"null","lat":"35.228511","lng":"128.668974","zcode":"48","zscode":"48120","kind":"J0","kindDetail":"J001"},{"statNm":"이마트 양산점","statId":"ME19Z222","addr":"경상남도 양산시 양산역6길 12","location":"null","lat":"35.336834","lng":"129.026741","zcode":"48","zscode":"48330","kind":"E0","kindDetail":"E001"},{"statNm":"이마트 통영점","statId":"ME19Z225","addr":"경상남도 통영시 광도면 죽림4로 9","location":"null","lat":"34.887106","lng":"128.418269","zcode":"48","zscode":"48220","kind":"E0","kindDetail":"E001"},{"statNm":"거제국민체육센터","statId":"ME20C101","addr":"경상남도 거제시 거제면 서정리 790-1","location":"null","lat":"34.8539289","lng":"128.5813105","zcode":"48","zscode":"48310","kind":"J0","kindDetail":"J007"},{"statNm":"한려해상국립공원 학동 주차장","statId":"ME20C102","addr":"경상남도 거제시 동부면 학동리 264","location":"null","lat":"34.7755353","lng":"128.6410963","zcode":"48","zscode":"48310","kind":"A0","kindDetail":"A003"},{"statNm":"개천면사무소 주차장","statId":"ME20C103","addr":"경상남도 고성군 개천면 옥천로 1278","location":"null","lat":"35.0985295","lng":"128.2589495","zcode":"48","zscode":"48820","kind":"A0","kindDetail":"A002"},{"statNm":"거류면사무소 주차장","statId":"ME20C104","addr":"경상남도 고성군 거류면 당동3길 5","location":"null","lat":"34.99183689","lng":"128.40443497","zcode":"48","zscode":"48820","kind":"A0","kindDetail":"A001"},{"statNm":"구만면사무소 주차장","statId":"ME20C105","addr":"경상남도 고성군 구만면 영회로 1765","location":"null","lat":"35.0878113","lng":"128.3348437","zcode":"48","zscode":"48820","kind":"A0","kindDetail":"A001"},{"statNm":"대가면사무소 주차장","statId":"ME20C106","addr":"경상남도 고성군 대가면 대가로 471","location":"null","lat":"35.0171391","lng":"128.2985725","zcode":"48","zscode":"48820","kind":"A0","kindDetail":"A001"},{"statNm":"삼산면사무소 주차장","statId":"ME20C107","addr":"경상남도 고성군 삼산면 공룡로 2137","location":"null","lat":"34.9367554","lng":"128.2734778","zcode":"48","zscode":"48820","kind":"A0","kindDetail":"A001"},{"statNm":"상리면사무소 주차장","statId":"ME20C108","addr":"경상남도 고성군 상리면 척번정1길 105","location":"null","lat":"34.9997367","lng":"128.1862299","zcode":"48","zscode":"48820","kind":"A0","kindDetail":"A001"},{"statNm":"영현면사무소 주차장","statId":"ME20C109","addr":"경상남도 고성군 영현면 침점리 356-2","location":"null","lat":"35.0541445","lng":"128.2057497","zcode":"48","zscode":"48820","kind":"A0","kindDetail":"A001"},{"statNm":"하이면사무소 주차장","statId":"ME20C110","addr":"경상남도 고성군 하이면 공룡로 979","location":"null","lat":"35.4216175","lng":"127.8685360","zcode":"48","zscode":"48820","kind":"A0","kindDetail":"A001"},{"statNm":"하일면사무소 주차장","statId":"ME20C111","addr":"경상남도 고성군 하일면 공룡로 979","location":"null","lat":"34.9433200","lng":"128.1928425","zcode":"48","zscode":"48820","kind":"A0","kindDetail":"A001"},{"statNm":"회화면사무소 주차장","statId":"ME20C112","addr":"경상남도 고성군 회화면 배둔로 80","location":"null","lat":"35.0604335","lng":"128.3730498","zcode":"48","zscode":"48820","kind":"A0","kindDetail":"A001"},{"statNm":"봉황동유적지","statId":"ME20C113","addr":"경상남도 김해시 봉황동 465","location":"null","lat":"35.2324727","lng":"128.8746114","zcode":"48","zscode":"48250","kind":"D0","kindDetail":"D007"},{"statNm":"김해하키경기장","statId":"ME20C114","addr":"경상남도 김해시 신어산길 44","location":"null","lat":"35.2560185","lng":"128.9070152","zcode":"48","zscode":"48250","kind":"J0","kindDetail":"J007"},{"statNm":"김해문화의전당","statId":"ME20C115","addr":"null","location":"null","lat":"35.243673100","lng":"128.86531649","zcode":"48","zscode":"48250","kind":"A0","kindDetail":"A004"},{"statNm":"김해중소기업비즈니스센터","statId":"ME20C116","addr":"경상남도 김해시 주촌면 골든루트로 80-16","location":"null","lat":"35.21265548","lng":"128.83131973","zcode":"48","zscode":"48250","kind":"A0","kindDetail":"A004"},{"statNm":"남해군종합사회복지관","statId":"ME20C117","addr":"경상남도 남해군 남해읍 망운로 32","location":"null","lat":"34.8383382","lng":"127.8908154","zcode":"48","zscode":"48840","kind":"I0","kindDetail":"I006"},{"statNm":"밀양아리랑 천문대","statId":"ME20C118","addr":"경상남도 밀양시 밀양대공원로 86","location":"null","lat":"35.50204940","lng":"128.76138311","zcode":"48","zscode":"48270","kind":"A0","kindDetail":"A004"},{"statNm":"사천읍종합행정타운","statId":"ME20C119","addr":"경상남도 사천시 사천읍 수석리 126","location":"null","lat":"35.0875407","lng":"128.08828720","zcode":"48","zscode":"48240","kind":"A0","kindDetail":"A001"},{"statNm":"삼장면사무소","statId":"ME20C120","addr":"경상남도 산청군 삼장면 덕산대포로 257 ","location":"null","lat":"35.2980419","lng":"127.8318175","zcode":"48","zscode":"48860","kind":"A0","kindDetail":"A001"},{"statNm":"단성면사무소","statId":"ME20C121","addr":"경상남도 산청군 단성면 목화로 985","location":"null","lat":"35.2991194","lng":"128.9876557","zcode":"48","zscode":"48860","kind":"A0","kindDetail":"A001"},{"statNm":"신등면사무소","statId":"ME20C122","addr":"경상남도 산청군 신등면 신차로 576","location":"null","lat":"35.382803","lng":"128.0070211","zcode":"48","zscode":"48860","kind":"A0","kindDetail":"A001"},{"statNm":"유곡면사무소 주차장","statId":"ME20C123","addr":"경상남도 의령군 유곡면 마장로 10","location":"null","lat":"35.4330222","lng":"128.3138635","zcode":"48","zscode":"48720","kind":"A0","kindDetail":"A001"},{"statNm":"부림공영주차장","statId":"ME20C124","addr":"경상남도 의령군 부림면 신반리 398","location":"null","lat":"35.4661886","lng":"128.3262315","zcode":"48","zscode":"48720","kind":"B0","kindDetail":"B001"},{"statNm":"지정면종합운동장","statId":"ME20C125","addr":"경상남도 의령군 지정면 봉곡리511-2","location":"null","lat":"35.3794593","lng":"128.3946687","zcode":"48","zscode":"48720","kind":"J0","kindDetail":"J007"},{"statNm":"시외버스터미널 (경남 의령군)","statId":"ME20C126","addr":"경상남도 의령군 의령읍 서동리 277","location":"null","lat":"35.3199803","lng":"128.2542802","zcode":"48","zscode":"48720","kind":"B0","kindDetail":"B004"},{"statNm":"의령시장제1주차장","statId":"ME20C127","addr":"경상남도 의령군 의령읍 서동리 509-4","location":"null","lat":"35.3170164","lng":"128.2604734","zcode":"48","zscode":"48720","kind":"B0","kindDetail":"B004"},{"statNm":"이반성면사무소","statId":"ME20C128","addr":"경상남도 진주시 오봉산로 719","location":"null","lat":"35.1393698","lng":"128.3262865","zcode":"48","zscode":"48170","kind":"A0","kindDetail":"A001"},{"statNm":"평거공영주차장","statId":"ME20C129","addr":"경상남도 진주시 평거동 202-1","location":"null","lat":"35.1722552","lng":"128.0618444","zcode":"48","zscode":"48170","kind":"B0","kindDetail":"B001"},{"statNm":"진주실내수영장","statId":"ME20C130","addr":"경상남도 진주시 남강로 1655","location":"null","lat":"35.2094108","lng":"128.1248224","zcode":"48","zscode":"48170","kind":"A0","kindDetail":"A004"},{"statNm":"나불천복개도로 공영주차장","statId":"ME20C131","addr":"경상남도 진주시 신안동 9-3","location":"null","lat":"35.1885431","lng":"128.0722122","zcode":"48","zscode":"48170","kind":"B0","kindDetail":"B001"},{"statNm":"논개시장 공영주차장","statId":"ME20C132","addr":"경상남도 진주시 장대로43번길 3-1","location":"null","lat":"35.1951486","lng":"128.0876258","zcode":"48","zscode":"48170","kind":"B0","kindDetail":"B001"},{"statNm":"정촌면사무소","statId":"ME20C133","addr":"경상남도 진주시 정촌면 화개리 976","location":"null","lat":"35.131473","lng":"128.1025175","zcode":"48","zscode":"48170","kind":"A0","kindDetail":"A001"},{"statNm":"창녕읍사무소 ","statId":"ME20C134","addr":"경상남도 창녕군 창녕읍 종로 38-9","location":"null","lat":"35.5409246","lng":"128.5010126","zcode":"48","zscode":"48740","kind":"A0","kindDetail":"A001"},{"statNm":"조산공영주차장","statId":"ME20C135","addr":"경상남도 창녕군 창녕읍 조산리 16","location":"null","lat":"35.5378079","lng":"128.4851175","zcode":"48","zscode":"48740","kind":"B0","kindDetail":"B001"},{"statNm":"성산노인복지관","statId":"ME20C136","addr":"경상남도 창원시 성산구 창이대로 781","location":"null","lat":"35.215925","lng":"128.7043743","zcode":"48","zscode":"48120","kind":"I0","kindDetail":"I006"},{"statNm":"진동종합복지관","statId":"ME20C137","addr":"경상남도 창원시 마산합포구 진동면 신서촌로15","location":"null","lat":"35.1166146","lng":"128.4845083","zcode":"48","zscode":"48120","kind":"I0","kindDetail":"I006"},{"statNm":"상복공원","statId":"ME20C138","addr":"경상남도 창원시 성산구 공단로 474","location":"null","lat":"35.1973046","lng":"128.6622088","zcode":"48","zscode":"48120","kind":"B0","kindDetail":"B002"},{"statNm":"창원축구센터","statId":"ME20C139","addr":"경상남도 창원시 성산구 비음로 97","location":"null","lat":"35.2217293","lng":"128.705347","zcode":"48","zscode":"48120","kind":"J0","kindDetail":"J007"},{"statNm":"가야전통시장","statId":"ME20C140","addr":"경상남도 함안군 가야읍 말산리113","location":"null","lat":"35.2764008","lng":"128.4085196","zcode":"48","zscode":"48730","kind":"B0","kindDetail":"B001"},{"statNm":"칠서면사무소","statId":"ME20C141","addr":"경상남도 함안군 칠서면 청계2길 35","location":"null","lat":"35.3332896","lng":"128.4983307","zcode":"48","zscode":"48730","kind":"A0","kindDetail":"A001"},{"statNm":"가회면사무소","statId":"ME20C142","addr":"경상남도 합천군 가회면 황매산로 52","location":"null","lat":"35.4349244","lng":"128.0337785","zcode":"48","zscode":"48890","kind":"A0","kindDetail":"A001"},{"statNm":"거제시청","statId":"ME20C201","addr":"경상남도 거제시 계룡로 125","location":"null","lat":"34.8805898","lng":"128.6219976","zcode":"48","zscode":"48310","kind":"A0","kindDetail":"A001"},{"statNm":"한려해상국립공원 해금강 주차장","statId":"ME20C202","addr":"경상남도 거제시 남부면 갈곶리 85-2","location":"null","lat":"34.7380989","lng":"128.6737220","zcode":"48","zscode":"48310","kind":"B0","kindDetail":"B002"},{"statNm":"고성군의회 주차장","statId":"ME20C203","addr":"경상남도 고성군 고성읍 대가로 13","location":"null","lat":"34.9838008","lng":"128.3186308","zcode":"48","zscode":"48820","kind":"A0","kindDetail":"A004"},{"statNm":"고성군 폐기물종합처리장","statId":"ME20C204","addr":"경상남도 고성군 삼산면 대독산업로 7","location":"null","lat":"34.9607033","lng":"128.3127061","zcode":"48","zscode":"48820","kind":"A0","kindDetail":"A004"},{"statNm":"대가저수지연꽃테마공원 주차장","statId":"ME20C205","addr":"경상남도 고성군 대가면 유흥리 304","location":"null","lat":"35.0082948","lng":"128.2987137","zcode":"48","zscode":"48820","kind":"D0","kindDetail":"D001"},{"statNm":"고성군보건소 주차장","statId":"ME20C206","addr":"경상남도 고성군 고성읍 남포로79번길 103-3","location":"null","lat":"34.9694961","lng":"128.3150966","zcode":"48","zscode":"48820","kind":"I0","kindDetail":"I003"},{"statNm":"무척산 주차장","statId":"ME20C208","addr":"경상남도 김해시 생림면 생철리 201","location":"null","lat":"35.3470854","lng":"128.8549582","zcode":"48","zscode":"48250","kind":"B0","kindDetail":"B004"},{"statNm":"창선생활 체육공원","statId":"ME20C209","addr":"경상남도 남해군 창선면 상죽리 10-9","location":"null","lat":"34.8622626","lng":"128.0157225","zcode":"48","zscode":"48840","kind":"B0","kindDetail":"B002"},{"statNm":"서면사무소","statId":"ME20C210","addr":"경상남도 남해군 서면 스포츠로 676","location":"null","lat":"34.8102374","lng":"127.8379232","zcode":"48","zscode":"48840","kind":"A0","kindDetail":"A001"},{"statNm":"남해실내체육관","statId":"ME20C211","addr":"경상남도 남해군 남해읍 화전로43번길 16","location":"null","lat":"34.83355","lng":"127.8942124","zcode":"48","zscode":"48840","kind":"A0","kindDetail":"A004"},{"statNm":"중현힐링센터","statId":"ME20C212","addr":"경상남도 남해군 서면 남서대로 2645","location":"null","lat":"34.8746487","lng":"127.8284182","zcode":"48","zscode":"48840","kind":"A0","kindDetail":"A004"},{"statNm":"문화예술회관 주차장","statId":"ME20C213","addr":"경상남도 사천시 동림동 200","location":"null","lat":"34.9412753","lng":"128.0753973","zcode":"48","zscode":"48240","kind":"A0","kindDetail":"A004"},{"statNm":"국민연금공단 사천남해지사","statId":"ME20C214","addr":"경상남도 사천시 용현면 대밭담로 13","location":"null","lat":"35.0083953","lng":"128.0605416","zcode":"48","zscode":"48240","kind":"A0","kindDetail":"A003"},{"statNm":"삼천포유람선 관광종합지원시설","statId":"ME20C215","addr":"경상남도 사천시 대방동 765-3","location":"null","lat":"34.9287627","lng":"128.06310270","zcode":"48","zscode":"48240","kind":"D0","kindDetail":"D006"},{"statNm":"산청농업기술센터","statId":"ME20C216","addr":"경상남도 산청군 산청읍 물안실로8","location":"null","lat":"35.4054609","lng":"127.9008281","zcode":"48","zscode":"48860","kind":"A0","kindDetail":"A004"},{"statNm":"금서면(온누리관)","statId":"ME20C217","addr":"경상남도 산청군 금서면 매촌리 710-4","location":"null","lat":"35.417444","lng":"127.8628701","zcode":"48","zscode":"48860","kind":"A0","kindDetail":"A004"},{"statNm":"한국도로공사 산청지사","statId":"ME20C218","addr":"경상남도 산청군 친환경로 2593-43","location":"null","lat":"35.4216175","lng":"127.8685360","zcode":"48","zscode":"48860","kind":"A0","kindDetail":"A003"},{"statNm":"지리산국립공원 경남사무소","statId":"ME20C219","addr":"경상남도 산청군 시천면 남명로 376","location":"null","lat":"35.2700176","lng":"127.8533788","zcode":"48","zscode":"48860","kind":"A0","kindDetail":"A003"},{"statNm":"덕계동 제1공영주차장","statId":"ME20C220","addr":"경상남도 양산시 덕계동 989","location":"null","lat":"35.3749599","lng":"129.1508988","zcode":"48","zscode":"48330","kind":"B0","kindDetail":"B001"},{"statNm":"한국도로공사 양산지사","statId":"ME20C221","addr":"경상남도 양산시 동면 양산대로 542-45","location":"null","lat":"35.3225047","lng":"129.0320021","zcode":"48","zscode":"48330","kind":"A0","kindDetail":"A003"},{"statNm":"금곡면사무소","statId":"ME20C222","addr":"경상남도 진주시 금곡면 월아산로 140","location":"null","lat":"35.0941845","lng":"128.1880206","zcode":"48","zscode":"48170","kind":"A0","kindDetail":"A001"},{"statNm":"바이오산업진흥원","statId":"ME20C223","addr":"경상남도 진주시 문산읍 월아산로 991","location":"null","lat":"35.1609239","lng":"128.1630138","zcode":"48","zscode":"48170","kind":"A0","kindDetail":"A004"},{"statNm":"진주시청 주차장","statId":"ME20C224","addr":"경상남도 진주시 동진로 155","location":"null","lat":"35.18024326","lng":"128.10882283","zcode":"48","zscode":"48170","kind":"B0","kindDetail":"B004"},{"statNm":"경상남도 산림환경연구원","statId":"ME20C225","addr":"null","location":"null","lat":"35.1622299","lng":"128.2974872","zcode":"48","zscode":"48170","kind":"A0","kindDetail":"A003"},{"statNm":"한국도로공사 창녕지사","statId":"ME20C226","addr":"경상남도 창녕군 창녕읍 우포유어농로 684","location":"null","lat":"35.53673900","lng":"128.47920660","zcode":"48","zscode":"48740","kind":"A0","kindDetail":"A003"},{"statNm":"국립생태원 습지센터","statId":"ME20C227","addr":"경상남도 창녕군 이방면 이산길 38","location":"null","lat":"35.5339285","lng":"128.3842828","zcode":"48","zscode":"48740","kind":"A0","kindDetail":"A003"},{"statNm":"삼진체육시설","statId":"ME20C228","addr":"경상남도 창원시 진동면 삼진의거대로 440","location":"null","lat":"35.11378409","lng":"128.47126828","zcode":"48","zscode":"48120","kind":"J0","kindDetail":"J007"},{"statNm":"진해구청","statId":"ME20C229","addr":"경상남도 창원시 진해대로 1101","location":"null","lat":"35.1323194","lng":"128.7092482","zcode":"48","zscode":"48120","kind":"A0","kindDetail":"A001"},{"statNm":"팔용농산물도매시장","statId":"ME20C230","addr":"경상남도 창원시 의창구 차상로18번길 45","location":"null","lat":"35.2287951","lng":"128.6372843","zcode":"48","zscode":"48120","kind":"G0","kindDetail":"G004"},{"statNm":"마산종합운동장","statId":"ME20C231","addr":"경상남도 창원시 마산회원구 삼호로 63","location":"null","lat":"35.2237949","lng":"128.5809706","zcode":"48","zscode":"48120","kind":"J0","kindDetail":"J007"},{"statNm":"시립테니스장","statId":"ME20C232","addr":"경상남도 창원시 성산구 비음로25번길 17","location":"null","lat":"35.2308341","lng":"128.699075","zcode":"48","zscode":"48120","kind":"A0","kindDetail":"A004"},{"statNm":"창원국제사격장","statId":"ME20C233","addr":"경상남도 창원시 의창구 사림로 99번길63","location":"null","lat":"35.2490817","lng":"128.6845347","zcode":"48","zscode":"48120","kind":"J0","kindDetail":"J007"},{"statNm":"해양공원 (경남 창원시)","statId":"ME20C234","addr":"경상남도 창원시 진해구 명동로 62","location":"null","lat":"35.092728","lng":"128.7200478","zcode":"48","zscode":"48120","kind":"D0","kindDetail":"D001"},{"statNm":"한국교통안전공단 창원검사소","statId":"ME20C235","addr":"경상남도 창원시 의창구 창원대로 494","location":"null","lat":"35.2290064","lng":"128.6499141","zcode":"48","zscode":"48120","kind":"A0","kindDetail":"A003"},{"statNm":"국민연금공단 통영지사","statId":"ME20C236","addr":"경상남도 통영시 광도면 신죽3길 16","location":"null","lat":"34.8739506","lng":"128.4179382","zcode":"48","zscode":"48220","kind":"A0","kindDetail":"A003"},{"statNm":"한려해상국립공원 연화 주차장","statId":"ME20C237","addr":"null","location":"null","lat":"34.77008387","lng":"128.4007875","zcode":"48","zscode":"48220","kind":"B0","kindDetail":"B002"},{"statNm":"횡천면 복지회관","statId":"ME20C238","addr":"경상남도 하동군 횡천면 횡보길 10","location":"null","lat":"35.110085","lng":"127.8087485","zcode":"48","zscode":"48850","kind":"A0","kindDetail":"A004"},{"statNm":"양보문화센터","statId":"ME20C239","addr":"경상남도 하동군 양보면 운암리 154","location":"null","lat":"35.046651","lng":"127.8441555","zcode":"48","zscode":"48850","kind":"A0","kindDetail":"A004"},{"statNm":"백무동주차장","statId":"ME20C240","addr":"경상남도 함양군 마천면 강청리 197-3","location":"null","lat":"35.3630808","lng":"127.6801809","zcode":"48","zscode":"48870","kind":"D0","kindDetail":"D007"},{"statNm":"합천군 농업기술센터","statId":"ME20C241","addr":"경상남도 합천군 합천읍 합천리 863-1","location":"null","lat":"35.5625098","lng":"128.1597963","zcode":"48","zscode":"48890","kind":"A0","kindDetail":"A004"},{"statNm":"야로면사무소","statId":"ME20C242","addr":"경상남도 합천군 야로면 구정리 280-3","location":"null","lat":"35.5567885","lng":"128.1668261","zcode":"48","zscode":"48890","kind":"D0","kindDetail":"D001"},{"statNm":"황강레포츠공원","statId":"ME20C243","addr":"경상남도 합천군 대양면 정양리 101-9","location":"null","lat":"35.5567885","lng":"128.1668261","zcode":"48","zscode":"48890","kind":"D0","kindDetail":"D001"},{"statNm":"황매산군립공원(은행나무주차장)","statId":"ME20C244","addr":"경상남도 합천군 가회면 둔내리 산219-16","location":"null","lat":"35.4870902","lng":"127.9843445","zcode":"48","zscode":"48890","kind":"A0","kindDetail":"A004"},{"statNm":"당항포관광지 주차장","statId":"ME20C401","addr":"경상남도 고성군 회화면 봉동리 1060-6","location":"null","lat":"35.05322275","lng":"128.39159747","zcode":"48","zscode":"48820","kind":"D0","kindDetail":"D007"},{"statNm":"진주스포츠파크","statId":"ME20C402","addr":"경상남도 진주시  문산읍 월아산로 973","location":"null","lat":"35.15852470","lng":"128.163705","zcode":"48","zscode":"48170","kind":"A0","kindDetail":"A004"},{"statNm":"진주 화물자동차 공영차고지","statId":"ME20C403","addr":"경상남도 진주시 호탄동 769","location":"null","lat":"35.1609547","lng":"128.1158885","zcode":"48","zscode":"48170","kind":"B0","kindDetail":"B001"},{"statNm":"창원스포츠파크","statId":"ME20C404","addr":"경상남도 창원시 성산구 원이대로 450","location":"null","lat":"35.233896","lng":"128.6628591","zcode":"48","zscode":"48120","kind":"A0","kindDetail":"A004"},{"statNm":"경상남도교육청","statId":"ME20C405","addr":"경상남도 창원시 의창구 중앙대로 241","location":"null","lat":"35.23474470","lng":"128.68864520","zcode":"48","zscode":"48120","kind":"A0","kindDetail":"A001"},{"statNm":"안정주차장","statId":"ME20C406","addr":"경상남도 통영시 광도면 황리 1645-2","location":"null","lat":"34.9578857","lng":"128.4200156","zcode":"48","zscode":"48220","kind":"B0","kindDetail":"B004"},{"statNm":"통영 유람선 터미널","statId":"ME20C407","addr":"경상남도 통영시 도남동 635","location":"null","lat":"34.8277662","lng":"128.4328477","zcode":"48","zscode":"48220","kind":"B0","kindDetail":"B001"},{"statNm":"케이블카파크랜드 주차장","statId":"ME20C408","addr":"경상남도 통영시 도남동 354","location":"null","lat":"34.825838","lng":"128.422977","zcode":"48","zscode":"48220","kind":"B0","kindDetail":"B002"},{"statNm":"거창사건사업소","statId":"ME20D101","addr":"경상남도 거창군 신원면 신차로2924","location":"null","lat":"35.555478","lng":"127.925965","zcode":"48","zscode":"48880","kind":"A0","kindDetail":"A004"},{"statNm":"안동체육공원","statId":"ME20D102","addr":"경상남도 김해시 삼안로 112번길20-61","location":"null","lat":"35.241421","lng":"128.923131","zcode":"48","zscode":"48250","kind":"B0","kindDetail":"B002"},{"statNm":"김해시민체육공원","statId":"ME20D103","addr":"경상남도 김해시 삼계로104-32","location":"null","lat":"35.259065","lng":"128.877667","zcode":"48","zscode":"48250","kind":"B0","kindDetail":"B002"},{"statNm":"설뫼충효테마파크 주차장","statId":"ME20D104","addr":"경상남도 의령군 부림면 입산로178 ","location":"null","lat":"35.459055","lng":"128.351987","zcode":"48","zscode":"48720","kind":"D0","kindDetail":"D007"},{"statNm":"연화복지센터","statId":"ME20D105","addr":"경상남도 의령군 낙서면 낙동강로859 ","location":"null","lat":"35.489146","lng":"128.413399","zcode":"48","zscode":"48720","kind":"A0","kindDetail":"A004"},{"statNm":"유곡송산진료소 ","statId":"ME20D106","addr":"경상남도 의령군 유곡면 청정로1679 ","location":"null","lat":"35.419718","lng":"128.286592","zcode":"48","zscode":"48720","kind":"I0","kindDetail":"I003"},{"statNm":"한국환경공단 부산울산경남압수물사업소","statId":"ME20D107","addr":"경상남도 의령군 구룡16","location":"null","lat":"35.307475","lng":"128.285731","zcode":"48","zscode":"48720","kind":"A0","kindDetail":"A003"},{"statNm":"길곡면사무소","statId":"ME20D108","addr":"경상남도 창녕군 길곡면 증산2길19","location":"null","lat":"35.387214","lng":"128.56921","zcode":"48","zscode":"48740","kind":"A0","kindDetail":"A002"},{"statNm":"성산면사무소 (복지회관)","statId":"ME20D109","addr":"경상남도 창녕군 성산면 성산로237","location":"null","lat":"35.628654","lng":"128.493536","zcode":"48","zscode":"48740","kind":"A0","kindDetail":"A002"},{"statNm":"유어면사무소","statId":"ME20D110","addr":"경상남도 창녕군 유어면 우포1대로583 ","location":"null","lat":"35.508104","lng":"128.411159","zcode":"48","zscode":"48740","kind":"A0","kindDetail":"A002"},{"statNm":"소계체육공원 자율방범대 주차장","statId":"ME20D111","addr":"경상남도 창원시 의창구 소계로135","location":"null","lat":"35.260349","lng":"128.595532","zcode":"48","zscode":"48120","kind":"B0","kindDetail":"B002"},{"statNm":"웅천동행정복지센터","statId":"ME20D112","addr":"경상남도 창원시 진해구 웅천중로59","location":"null","lat":"35.111393","lng":"128.749373","zcode":"48","zscode":"48120","kind":"A0","kindDetail":"A002"},{"statNm":"현동 행정복지센터","statId":"ME20D113","addr":"경상남도 창원시 마산합포구 현동7길27","location":"null","lat":"35.147941","lng":"128.557611","zcode":"48","zscode":"48120","kind":"A0","kindDetail":"A001"},{"statNm":"통영해양경찰서 (광도면)","statId":"ME20D114","addr":"경상남도 통영시 광도면 죽림2로45","location":"null","lat":"34.880835","lng":"128.417336","zcode":"48","zscode":"48220","kind":"I0","kindDetail":"I004"},{"statNm":"함양볼링장주차장","statId":"ME20D115","addr":"경상남도 함양군 함양읍 삼휴길60-30","location":"null","lat":"35.517618","lng":"127.714853","zcode":"48","zscode":"48870","kind":"G0","kindDetail":"G004"},{"statNm":"(사)대한노인회 합천군지회","statId":"ME20D116","addr":"경상남도 합천군 합천읍 교동1길33 ","location":"null","lat":"35.565351","lng":"128.164995","zcode":"48","zscode":"48890","kind":"I0","kindDetail":"I006"},{"statNm":"대양면사무소","statId":"ME20D117","addr":"경상남도 합천군 대양면 대한로5 ","location":"null","lat":"35.516655","lng":"128.174687","zcode":"48","zscode":"48890","kind":"A0","kindDetail":"A002"},{"statNm":"묘산면사무소","statId":"ME20D118","addr":"경상남도 합천군 묘산면 묘산로173-1","location":"null","lat":"35.658245","lng":"128.11289","zcode":"48","zscode":"48890","kind":"A0","kindDetail":"A001"},{"statNm":"용주면사무소","statId":"ME20D119","addr":"경상남도 합천군 용주면 황계폭포로1154 ","location":"null","lat":"35.540623","lng":"128.113509","zcode":"48","zscode":"48890","kind":"A0","kindDetail":"A002"},{"statNm":"적중면사무소","statId":"ME20D120","addr":"경상남도 합천군 적중면 적중로98","location":"null","lat":"35.547882","lng":"128.278344","zcode":"48","zscode":"48890","kind":"A0","kindDetail":"A001"},{"statNm":"초계대공원","statId":"ME20D121","addr":"경상남도 합천군 초계면 동부로1240 ","location":"null","lat":"35.556819","lng":"128.164615","zcode":"48","zscode":"48890","kind":"B0","kindDetail":"B002"},{"statNm":"합천원폭피해자복지회관","statId":"ME20D122","addr":"경상남도 합천군 합천읍 대야로991","location":"null","lat":"35.575808","lng":"128.164615","zcode":"48","zscode":"48890","kind":"I0","kindDetail":"I006"},{"statNm":"동동소입주차장","statId":"ME20D168","addr":"경상남도 의령군 의령읍 충익로86-2","location":"null","lat":"35.322329","lng":"128.264463","zcode":"48","zscode":"48720","kind":"B0","kindDetail":"B004"},{"statNm":"얼음골 공영주차장","statId":"ME20D172","addr":"경상남도 밀양시 산내면 얼음골로177","location":"null","lat":"35.579995","lng":"128.982113","zcode":"48","zscode":"48270","kind":"B0","kindDetail":"B001"},{"statNm":"의창구청 본관","statId":"ME20D174","addr":"경상남도 창원시 의창구 태복산로15번길8","location":"null","lat":"35.253564","lng":"128.640286","zcode":"48","zscode":"48120","kind":"A0","kindDetail":"A001"},{"statNm":"호박소주차장","statId":"ME20D175","addr":"경상남도 밀양시 산내면 얼음골로334","location":"null","lat":"35.585691","lng":"128.995386","zcode":"48","zscode":"48270","kind":"D0","kindDetail":"D007"},{"statNm":"창녕공설장례식장","statId":"ME20D201","addr":"경상남도 창녕군 창녕읍 탐하로201","location":"null","lat":"35.532303","lng":"128.490569","zcode":"48","zscode":"48740","kind":"A0","kindDetail":"A004"},{"statNm":"산양읍사무소 ","statId":"ME20D202","addr":"경상남도 통영시 산양읍 산양일주로1683-25","location":"null","lat":"34.803504","lng":"128.386534","zcode":"48","zscode":"48220","kind":"A0","kindDetail":"A001"},{"statNm":"경상국립대학교","statId":"ME20D401","addr":"경상남도 통영시 통영해안로2","location":"null","lat":"34.8380995","lng":"128.4009821","zcode":"48","zscode":"48220","kind":"J0","kindDetail":"J001"},{"statNm":"경상대학교 가좌캠퍼스","statId":"ME20D403","addr":"경상남도 진주시 가좌길29번길63","location":"null","lat":"35.150628","lng":"128.098621","zcode":"48","zscode":"48170","kind":"J0","kindDetail":"J001"},{"statNm":"청덕면다목적복지회관","statId":"ME21A129","addr":"경상남도 합천군 청덕면 중회1길 4","location":"null","lat":"35.5604762","lng":"128.3216817","zcode":"48","zscode":"48890","kind":"I0","kindDetail":"I006"},{"statNm":"가례마을복지회관","statId":"ME21A137","addr":"경상남도 의령군 가례면 가례리 320-1","location":"null","lat":"35.3236456","lng":"128.2425199","zcode":"48","zscode":"48720","kind":"I0","kindDetail":"I006"},{"statNm":"양산시보건소","statId":"ME21A138","addr":"경상남도 양산시 삽량로 169","location":"null","lat":"35.3354419","lng":"129.0249037","zcode":"48","zscode":"48330","kind":"I0","kindDetail":"I003"},{"statNm":"산동119안전센터 청사 앞 주차장","statId":"ME21A139","addr":"경상남도 밀양시 산외면 금곡리 84-17","location":"null","lat":"35.5106736","lng":"128.839966","zcode":"48","zscode":"48270","kind":"A0","kindDetail":"A003"},{"statNm":"한국농어촌공사 하동남해지사 주차장","statId":"ME21A142","addr":"경상남도 하동군 하동읍 송림1길 12","location":"null","lat":"35.0642305","lng":"127.7477578","zcode":"48","zscode":"48850","kind":"A0","kindDetail":"A003"},{"statNm":"국립용지봉자연휴양림","statId":"ME21A149","addr":"경상남도 김해시 대청동 산63-2","location":"null","lat":"35.1852583","lng":"128.7756482","zcode":"48","zscode":"48250","kind":"G0","kindDetail":"G002"},{"statNm":"거창군청","statId":"ME21A206","addr":"경상남도 거창군 거창읍 중앙로 103","location":"null","lat":"35.6864465","lng":"127.9096486","zcode":"48","zscode":"48880","kind":"A0","kindDetail":"A001"},{"statNm":"거창휴게소(광주)","statId":"ME21A219","addr":"경상남도 거창군 가조면 가조가야로 1523","location":"null","lat":"35.7082702","lng":"128.0579304","zcode":"48","zscode":"48880","kind":"C0","kindDetail":"C001"},{"statNm":"거창휴게소(대구)","statId":"ME21A220","addr":"경상남도 거창군 가조면 도리 454-9","location":"null","lat":"35.7061194","lng":"128.0569299","zcode":"48","zscode":"48880","kind":"C0","kindDetail":"C001"},{"statNm":"이반성농공단지","statId":"ME21A222","addr":"경상남도 진주시 이반성면 길성리 916","location":"null","lat":"35.1489505","lng":"128.3234795","zcode":"48","zscode":"48170","kind":"G0","kindDetail":"G004"},{"statNm":"주택관리공단","statId":"ME21A224","addr":"경상남도 진주시 사들로 137","location":"null","lat":"35.1800852","lng":"128.1483808","zcode":"48","zscode":"48170","kind":"A0","kindDetail":"A003"},{"statNm":"김해의생명센터 주차장","statId":"ME21A225","addr":"경상남도 김해시 주촌면 소망길 88","location":"null","lat":"35.2150961","lng":"128.8337677","zcode":"48","zscode":"48250","kind":"B0","kindDetail":"B004"},{"statNm":"한국농어촌공사 고성통영거제지사","statId":"ME21A227","addr":"경상남도 고성군 고성읍 기월2길 51","location":"null","lat":"34.9825583","lng":"128.3161649","zcode":"48","zscode":"48820","kind":"A0","kindDetail":"A003"},{"statNm":"창원복합문화센터 주차장","statId":"ME21B169","addr":"경상남도 창원시 성산구 창원대로 524","location":"null","lat":"35.2276592","lng":"128.6522397","zcode":"48","zscode":"48120","kind":"B0","kindDetail":"B004"},{"statNm":"함안면사무소","statId":"ME21B174","addr":"경상남도 함안군 함안면 성산로 15","location":"null","lat":"35.2419157","lng":"128.4238627","zcode":"48","zscode":"48730","kind":"A0","kindDetail":"A003"},{"statNm":"의령동동신시가지 주차장","statId":"ME21B175","addr":"경상남도 의령군 의령읍 동동리 1633","location":"null","lat":"35.3190552","lng":"128.2716995","zcode":"48","zscode":"48720","kind":"B0","kindDetail":"B004"},{"statNm":"창녕경찰서","statId":"ME21B182","addr":"경상남도 창녕군 창녕읍 교상리 28-35","location":"null","lat":"35.5402455","lng":"128.501101","zcode":"48","zscode":"48740","kind":"I0","kindDetail":"I004"},{"statNm":"산청경찰서","statId":"ME21B186","addr":"경상남도 산청군 산청읍 중앙로 1","location":"null","lat":"35.4163937","lng":"127.8747494","zcode":"48","zscode":"48860","kind":"I0","kindDetail":"I004"},{"statNm":"김해서부경찰서","statId":"ME21B1A2","addr":"경상남도 김해시 장유면 계동로 175","location":"null","lat":"35.1895896","lng":"128.797925","zcode":"48","zscode":"48250","kind":"I0","kindDetail":"I004"},{"statNm":"고성군치매안심센터","statId":"ME21B1A4","addr":"경상남도 고성군 고성읍 중앙로 35","location":"null","lat":"34.9744992","lng":"128.3244149","zcode":"48","zscode":"48820","kind":"I0","kindDetail":"I003"},{"statNm":"한국농어촌공사 사천지사","statId":"ME21B1B6","addr":"경상남도 사천시 사천읍 사천대로 1803","location":"null","lat":"35.0781597","lng":"128.0815712","zcode":"48","zscode":"48240","kind":"A0","kindDetail":"A003"},{"statNm":"천성산 스포츠파크","statId":"ME21B213","addr":"경상남도 양산시 상북면 봉수대길 29-10","location":"null","lat":"35.420604","lng":"129.0685284","zcode":"48","zscode":"48330","kind":"G0","kindDetail":"G004"},{"statNm":"더힘찬체육관","statId":"ME21B216","addr":"경상남도 양산시 물금읍 가촌리 990","location":"null","lat":"35.3258307","lng":"128.9953015","zcode":"48","zscode":"48330","kind":"G0","kindDetail":"G004"},{"statNm":"함안경찰서","statId":"ME21B222","addr":"경상남도 함안군 가야읍 가야로 85","location":"null","lat":"35.2785967","lng":"128.4103298","zcode":"48","zscode":"48730","kind":"I0","kindDetail":"I004"},{"statNm":"금봉졸음쉼터","statId":"ME21B223","addr":"경상남도 김해시 진영읍 본산리 121-84","location":"null","lat":"35.3149254","lng":"128.7617411","zcode":"48","zscode":"48250","kind":"C0","kindDetail":"C003"},{"statNm":"합천경찰서","statId":"ME21B225","addr":"경상남도 합천군 황강체육공원로 67","location":"null","lat":"35.5633466","lng":"128.1693827","zcode":"48","zscode":"48890","kind":"I0","kindDetail":"I004"},{"statNm":"부곡졸음쉼터","statId":"ME21B230","addr":"경상남도 고성군 마암면 삼락리 산96-20","location":"null","lat":"35.0244702","lng":"128.3479009","zcode":"48","zscode":"48820","kind":"C0","kindDetail":"C003"},{"statNm":"하동이화 스마트 복합쉼터","statId":"ME21B238","addr":"경상남도 하동군 하동읍 화심리 1681","location":"null","lat":"35.0907516","lng":"127.7135533","zcode":"48","zscode":"48850","kind":"C0","kindDetail":"C003"},{"statNm":"파독전시관","statId":"ME21B261","addr":"경상남도 남해군 삼동면 봉화리 2572-1","location":"null","lat":"34.8002319","lng":"128.037963","zcode":"48","zscode":"48840","kind":"A0","kindDetail":"A003"},{"statNm":"한국농어촌공사 진주산청지사","statId":"ME21B311","addr":"경상남도 진주시 소호로 96","location":"null","lat":"35.1768855","lng":"128.1358262","zcode":"48","zscode":"48170","kind":"A0","kindDetail":"A003"},{"statNm":"양산경찰서","statId":"ME21B313","addr":"경상남도 양산시 물금읍 신주4길 8","location":"null","lat":"35.3379235","lng":"129.016581","zcode":"48","zscode":"48330","kind":"I0","kindDetail":"I004"},{"statNm":"개방형다목적체육관 주차장","statId":"ME21C205","addr":"경상남도 양산시 상북면 봉수대길 29-10","location":"null","lat":"35.419781","lng":"129.069092","zcode":"48","zscode":"48330","kind":"J0","kindDetail":"J007"},{"statNm":"거창버스터미널 공영주차장","statId":"ME21C206","addr":"경상남도 거창군 거창읍 대평리 598","location":"null","lat":"35.685213","lng":"127.923441","zcode":"48","zscode":"48880","kind":"B0","kindDetail":"B001"},{"statNm":"고성경찰서","statId":"ME21C208","addr":"경상남도 고성군 고성읍 중앙로 113","location":"null","lat":"34.975603","lng":"128.332067","zcode":"48","zscode":"48820","kind":"I0","kindDetail":"I004"},{"statNm":"석류공원 주차장","statId":"ME21C209","addr":"경상남도 진주시 진주대로 685","location":"null","lat":"35.165106","lng":"128.105208","zcode":"48","zscode":"48170","kind":"A0","kindDetail":"A004"},{"statNm":"근로복지공단 창원병원","statId":"ME21C213","addr":"경상남도 창원시 성산구 창원대로 721","location":"null","lat":"35.218969","lng":"128.672539","zcode":"48","zscode":"48120","kind":"I0","kindDetail":"I001"},{"statNm":"산인면종합복지관","statId":"ME21C215","addr":"경상남도 함안군 산인면 가야로 217","location":"null","lat":"35.278989","lng":"128.424433","zcode":"48","zscode":"48730","kind":"A0","kindDetail":"A001"},{"statNm":"삼천포대교공원 주차장","statId":"ME21C239","addr":"경상남도 사천시 사천대로 3-16","location":"null","lat":"34.933022","lng":"128.051228","zcode":"48","zscode":"48240","kind":"D0","kindDetail":"D001"},{"statNm":"실안관광지 주차장","statId":"ME21C248","addr":"경상남도 사천시 실안동 1234-1","location":"null","lat":"34.943736","lng":"128.042078","zcode":"48","zscode":"48240","kind":"D0","kindDetail":"D007"},{"statNm":"제3아파트형공장 주차장","statId":"ME21C257","addr":"경상남도 창원시 의창구 창원대로363번길 11","location":"null","lat":"35.239706","lng":"128.636381","zcode":"48","zscode":"48120","kind":"G0","kindDetail":"G004"},{"statNm":"진주뿌리기술센터","statId":"ME21C261","addr":"경상남도 진주시 정촌면 연꽃로165번길 25","location":"null","lat":"35.11815","lng":"128.108258","zcode":"48","zscode":"48170","kind":"A0","kindDetail":"A004"},{"statNm":"집현면사무소","statId":"ME21C262","addr":"경상남도 진주시 집현면 진산로 697","location":"null","lat":"35.23905","lng":"128.086597","zcode":"48","zscode":"48170","kind":"A0","kindDetail":"A001"},{"statNm":"창원중부경찰서","statId":"ME21C263","addr":"경상남도 창원시 성산구 상남로 177","location":"null","lat":"35.228456","lng":"128.686669","zcode":"48","zscode":"48120","kind":"I0","kindDetail":"I004"},{"statNm":"통영경찰서","statId":"ME21C269","addr":"경상남도 통영시 광도면 죽림3로 53","location":"null","lat":"34.882469","lng":"128.419797","zcode":"48","zscode":"48220","kind":"I0","kindDetail":"I004"},{"statNm":"사천시농업기술센터","statId":"ME21C401","addr":"경상남도 사천시 용현면 진삼로 902","location":"null","lat":"35.03734","lng":"128.06689","zcode":"48","zscode":"48240","kind":"A0","kindDetail":"A001"},{"statNm":"합천군청","statId":"ME21C411","addr":"경상남도 합천군 합천읍 동서로 119","location":"null","lat":"35.566969","lng":"128.166939","zcode":"48","zscode":"48890","kind":"A0","kindDetail":"A001"},{"statNm":"진영휴게소(순천방향)","statId":"ME21D001","addr":"경상남도 김해시 진영읍 하계리 96번길 68","location":"null","lat":"35.27977","lng":"128.7152512","zcode":"48","zscode":"48250","kind":"C0","kindDetail":"C001"},{"statNm":"마금산온천 제2공구공영주차장","statId":"ME21D003","addr":"경상남도 창원시 의창구 북면 천주로1173번길 30","location":"null","lat":"35.3561286","lng":"128.6085122","zcode":"48","zscode":"48120","kind":"B0","kindDetail":"B001"},{"statNm":"웅동2동주민센터","statId":"ME21D004","addr":"경상남도 창원시 진해구 용재로 46","location":"null","lat":"35.1011552","lng":"128.8147227","zcode":"48","zscode":"48120","kind":"A0","kindDetail":"A002"},{"statNm":"구산면사무소","statId":"ME21D005","addr":"경상남도 창원시 마산합포구 구산면 구산로 554","location":"null","lat":"35.1195455","lng":"128.580407","zcode":"48","zscode":"48120","kind":"A0","kindDetail":"A002"},{"statNm":"경남도청","statId":"ME21D006","addr":"경상남도 창원시 의창구  중앙대로 300","location":"null","lat":"35.2371215","lng":"128.6918908","zcode":"48","zscode":"48120","kind":"A0","kindDetail":"A001"},{"statNm":"속천 공영주차장","statId":"ME21D007","addr":"경상남도 창원시 진해구 속촌로 8-18","location":"null","lat":"35.1450103","lng":"128.6731487","zcode":"48","zscode":"48120","kind":"B0","kindDetail":"B001"},{"statNm":"김해시 북부동 행정복지센터","statId":"BNFA0101","addr":"경상남도 김해시 해반천로 160","location":"북부동 행정복지센터","lat":"35.2627149","lng":"128.8677677","zcode":"48","zscode":"48250","kind":"A0","kindDetail":"A001"},{"statNm":"경남도청 어린이집 주차장","statId":"BNFA0102","addr":"경상남도 창원시 의창구 중앙대로 300","location":"경남도청 어린이집 주차장","lat":"35.237985","lng":"128.695435","zcode":"48","zscode":"48120","kind":"A0","kindDetail":"A001"},{"statNm":"경남도청 서부청사 주차장","statId":"BNFA0103","addr":"경상남도 진주시 월아산로 2026","location":"경남도청 서부청사 주차장","lat":"35.212842","lng":"128.123326","zcode":"48","zscode":"48170","kind":"A0","kindDetail":"A001"},{"statNm":"경남남부세관","statId":"BNFA0302","addr":"경상남도 거제시 장승로 127","location":"주차장","lat":"34.865849","lng":"128.723718","zcode":"48","zscode":"48310","kind":"A0","kindDetail":"A003"},{"statNm":"창원시 회성종합시장 공영주차장","statId":"BNFB0501","addr":"경상남도 창원시 마산회원구 회성시장1길 16","location":"회성종합시장 공영주차장","lat":"35.232884","lng":"128.559365","zcode":"48","zscode":"48120","kind":"B0","kindDetail":"B001"},{"statNm":"김해동상시장 공영주차장 3층4층","statId":"BNFB0502","addr":"경상남도 김해시 호계로499번길 4","location":"김해동상시장 공영주차장 3층,4층","lat":"35.235150","lng":"128.884025","zcode":"48","zscode":"48250","kind":"B0","kindDetail":"B001"},{"statNm":"통영 스탠포드 호텔","statId":"BNFE2301","addr":"경상남도 통영시 도남로 347","location":"null","lat":"34.824195","lng":"128.439317","zcode":"48","zscode":"48220","kind":"E0","kindDetail":"E003"},{"statNm":"남해아라힐펜션","statId":"CP100000","addr":"경상남도 남해군 서면 남서대로 1949-15","location":"null","lat":"34.826443","lng":"127.819898","zcode":"48","zscode":"48840","kind":"C0","kindDetail":"C003"},{"statNm":"에이스 골프연습장","statId":"CSAC0001","addr":"경상남도 창녕군 창녕읍 조산서재골로 74","location":"주차장","lat":"35.536941","lng":"128.493268","zcode":"48","zscode":"48740","kind":"E0","kindDetail":"E004"},{"statNm":"백운산협동조합 캠핑장","statId":"CSBS0001","addr":"경상남도 함양군 백전면 함양남서로 2755","location":"주차장","lat":"35.588495","lng":"127.637155","zcode":"48","zscode":"48870","kind":"E0","kindDetail":"E003"},{"statNm":"브로드웨이42번가 모텔","statId":"CSBW0001","addr":"경상남도 진주시 진주대로891번길 29","location":"주차장","lat":"35.181112","lng":"128.088606","zcode":"48","zscode":"48170","kind":"E0","kindDetail":"E003"},{"statNm":"카페라핀","statId":"CSCAF001","addr":"경상남도 거창군 가조면 방촌길 46","location":"주차장","lat":"35.705019","lng":"128.015507","zcode":"48","zscode":"48880","kind":"E0","kindDetail":"E005"},{"statNm":"카워시180","statId":"CSCW0001","addr":"경상남도 양산시 양산대로 682","location":"카워시180","lat":"35.332016","lng":"129.035039","zcode":"48","zscode":"48330","kind":"G0","kindDetail":"G004"},{"statNm":"댕댕이 풀빌라","statId":"CSDD0001","addr":"경상남도 거제시 동부면 거제남서로 2189","location":"주차장","lat":"34.781925","lng":"128.575991","zcode":"48","zscode":"48310","kind":"E0","kindDetail":"E003"},{"statNm":"대호골프클럽","statId":"CSDHG001","addr":"경상남도 함양군 함양읍 고운로 306-1","location":"주차장","lat":"35.524022","lng":"127.754853","zcode":"48","zscode":"48870","kind":"E0","kindDetail":"E004"},{"statNm":"동성펜션","statId":"CSDS0001","addr":"경상남도 고성군 동해면 조선특구로 2157","location":"주차장","lat":"35.065024","lng":"128.475147","zcode":"48","zscode":"48820","kind":"E0","kindDetail":"E003"},{"statNm":"엘리펀트 샤워","statId":"CSEP0001","addr":"경상남도 진주시 비봉로53번길 3","location":"주차장","lat":"35.195161","lng":"128.079891","zcode":"48","zscode":"48170","kind":"E0","kindDetail":"E003"},{"statNm":"프렌즈스크린 합천중앙점","statId":"CSFS0001","addr":"경상남도 합천군 합천읍 대야로 888-8","location":"주차장","lat":"35.567442","lng":"128.163898","zcode":"48","zscode":"48890","kind":"E0","kindDetail":"E004"},{"statNm":"갯내음식당","statId":"CSGN0001","addr":"경상남도 남해군 미조면 동부대로 37","location":"갯내음식당","lat":"34.731624","lng":"128.033071","zcode":"48","zscode":"48840","kind":"E0","kindDetail":"E006"},{"statNm":"공룡모텔","statId":"CSGR0001","addr":"경상남도 고성군 거류면 거류로 142","location":"공룡모텔","lat":"34.968355","lng":"128.368845","zcode":"48","zscode":"48820","kind":"E0","kindDetail":"E003"},{"statNm":"해플스 팜사이더리","statId":"CSHSP001","addr":"경상남도 거창군 거창읍 갈지2길 192-8","location":"주차장","lat":"35.713719","lng":"127.901132","zcode":"48","zscode":"48880","kind":"E0","kindDetail":"E005"},{"statNm":"기용 거제점","statId":"CSKY0001","addr":"경상남도 거제시 일운면 거제대로 2577","location":"주차장","lat":"34.835986","lng":"128.698485","zcode":"48","zscode":"48310","kind":"E0","kindDetail":"E006"},{"statNm":"엠제이골프클럽","statId":"CSMJG001","addr":"경상남도 진주시 동진로 233","location":"주차장","lat":"35.180270","lng":"128.116707","zcode":"48","zscode":"48170","kind":"E0","kindDetail":"E004"},{"statNm":"합천머물당글램핑","statId":"CSMUL001","addr":"경상남도 합천군 가회면 황매산로 1070-6","location":"주차장","lat":"35.482994","lng":"128.024045","zcode":"48","zscode":"48890","kind":"E0","kindDetail":"E003"},{"statNm":"빛과소금 펜션","statId":"CSRS0001","addr":"경상남도 남해군 이동면 남해대로1553번길 9-10","location":"빛과소금 펜션","lat":"34.764630","lng":"127.948688","zcode":"48","zscode":"48840","kind":"E0","kindDetail":"E003"},{"statNm":"새미스포렉스 골프장","statId":"CSSE0001","addr":"경상남도 진주시 장재새미길 19","location":"주차장","lat":"35.208348","lng":"128.100034","zcode":"48","zscode":"48170","kind":"E0","kindDetail":"E004"},{"statNm":"일성레저산업(주)부곡지점","statId":"CU550001","addr":"경상남도 창녕군 부곡면 온천로 594","location":"지상주차장","lat":"35.436271","lng":"128.588193","zcode":"48","zscode":"48740","kind":"E0","kindDetail":"E003"},{"statNm":"사천시 장애인국민 체육센터(사천시청)","statId":"CU550003","addr":"경상남도 사천시 용현면 진삼로 449","location":"지상주차장","lat":"34.99666","lng":"128.05983","zcode":"48","zscode":"48240","kind":"G0","kindDetail":"G004"},{"statNm":"사천농협연합하나로마트","statId":"CU550004","addr":"경상남도 사천시 사천읍 구암두문로 24","location":"지상주차장","lat":"35.08633","lng":"128.08964","zcode":"48","zscode":"48240","kind":"E0","kindDetail":"E001"},{"statNm":"사천농협","statId":"CU550005","addr":"경상남도 사천시 사천읍 사천읍성로 51","location":"지상주차장","lat":"35.08567","lng":"128.09006","zcode":"48","zscode":"48240","kind":"E0","kindDetail":"E001"},{"statNm":"RNR거제통영고성대리점","statId":"CU550006","addr":"경상남도 거제시 신부로1길 30","location":"지상주차장","lat":"34.868941","lng":"128.730561","zcode":"48","zscode":"48310","kind":"G0","kindDetail":"G004"},{"statNm":"창녕군청","statId":"CU550007","addr":"경상남도 창녕군 창녕읍 군청길 1","location":"지상주차장","lat":"35.544627","lng":"128.492246","zcode":"48","zscode":"48740","kind":"A0","kindDetail":"A003"},{"statNm":"시엘로","statId":"CU550009","addr":"경상남도 사천시 서포면 용궁로 211","location":"null","lat":"34.9664844","lng":"127.974289","zcode":"48","zscode":"48240","kind":"G0","kindDetail":"G004"},{"statNm":"롤리폴리삼천포벌리점","statId":"CU550010","addr":"경상남도 사천시 주공로 41","location":"null","lat":"34.9421096","lng":"128.086329","zcode":"48","zscode":"48240","kind":"G0","kindDetail":"G004"},{"statNm":"창원시청","statId":"CU550011","addr":"경상남도 창원시 성산구 중앙대로 151","location":"null","lat":"35.2283472","lng":"128.681952","zcode":"48","zscode":"48120","kind":"A0","kindDetail":"A001"},{"statNm":"리더스골프클럽㈜","statId":"CU550012","addr":"경상남도 거제시 계룡로11길 17-35","location":"null","lat":"34.8797393","lng":"128.618215","zcode":"48","zscode":"48310","kind":"G0","kindDetail":"G004"},{"statNm":"(주)우형개발","statId":"CU550013","addr":"경상남도 거제시 거제중앙로29길 15","location":"null","lat":"34.8895564","lng":"128.620749","zcode":"48","zscode":"48310","kind":"G0","kindDetail":"G004"},{"statNm":"아르누보스위트호텔","statId":"CU550014","addr":"경상남도 거제시 장평1로 13","location":"null","lat":"34.8918495","lng":"128.617074","zcode":"48","zscode":"48310","kind":"G0","kindDetail":"G004"},{"statNm":"주식회사삼녹","statId":"CU550015","addr":"경상남도 거제시 연초면 오비4길 54","location":"null","lat":"34.9198575","lng":"128.613257","zcode":"48","zscode":"48310","kind":"G0","kindDetail":"G004"},{"statNm":"아주사우나","statId":"CU550016","addr":"경상남도 거제시 아주로9길 7","location":"null","lat":"34.8656394","lng":"128.680344","zcode":"48","zscode":"48310","kind":"G0","kindDetail":"G004"},{"statNm":"세일마트고현점","statId":"CU550017","addr":"경상남도 거제시 중곡로7길 12","location":"null","lat":"34.8966727","lng":"128.628447","zcode":"48","zscode":"48310","kind":"G0","kindDetail":"G004"},{"statNm":"신현농협수양동지점","statId":"CU550018","addr":"경상남도 거제시 수양로 473","location":"null","lat":"34.8910687","lng":"128.639712","zcode":"48","zscode":"48310","kind":"G0","kindDetail":"G004"},{"statNm":"진주시청 산림과","statId":"CU550019","addr":"경상남도 진주시 동진로 155","location":"null","lat":"35.1803143","lng":"128.107620","zcode":"48","zscode":"48170","kind":"A0","kindDetail":"A001"},{"statNm":"GS수퍼마켓 장유점","statId":"CV000031","addr":"경상남도 김해시 능동로 167번길 7","location":"null","lat":"35.2034470000","lng":"128.8085529999","zcode":"48","zscode":"48250","kind":"E0","kindDetail":"E001"},{"statNm":"양산시 웅상출장소","statId":"CV000043","addr":"경상남도 양산시 진등길 40","location":"null","lat":"35.409523","lng":"129.169578","zcode":"48","zscode":"48330","kind":"A0","kindDetail":"A001"},{"statNm":"양산시 디자인공원 주차장","statId":"CV000044","addr":"경상남도 양산시 물금읍 백호로 23","location":"null","lat":"35.323078","lng":"129.000720","zcode":"48","zscode":"48330","kind":"A0","kindDetail":"A004"},{"statNm":"양산시 종합운동장","statId":"CV000045","addr":"경상남도 양산시 양산대로 849","location":"null","lat":"35.344055","lng":"129.033731","zcode":"48","zscode":"48330","kind":"J0","kindDetail":"J007"},{"statNm":"양산시 친환경에너지타운","statId":"CV000052","addr":"경상남도 양산시 원동면 원동로 715-18","location":"외부주차장","lat":"35.354907","lng":"128.98134","zcode":"48","zscode":"48330","kind":"A0","kindDetail":"A004"},{"statNm":"의령군농업기술센터 동부지소","statId":"CV000053","addr":"경상남도 의령군 부림면 한지31길 6","location":"뒤쪽 주차장","lat":"35.464289","lng":"128.322294","zcode":"48","zscode":"48720","kind":"A0","kindDetail":"A004"},{"statNm":"양산시농수산물유통센터","statId":"CV000054","addr":"경상남도 양산시 동금면 금산리 1480","location":"null","lat":"35.306791","lng":"129.025179","zcode":"48","zscode":"48330","kind":"A0","kindDetail":"A004"},{"statNm":"GS25 사천터미널점","statId":"CV000099","addr":"경상남도 사천시 사천읍 옥산로 120","location":"null","lat":"35.078744","lng":"128.096423","zcode":"48","zscode":"48240","kind":"E0","kindDetail":"E001"},{"statNm":"GS25 진해속천점","statId":"CV000100","addr":"경상남도 창원시 진해구 진희로 36","location":"null","lat":"35.144168","lng":"128.673580","zcode":"48","zscode":"48120","kind":"E0","kindDetail":"E001"},{"statNm":"GS25 합천초계점","statId":"CV000105","addr":"경상남도 합천군 초계면 초계중앙로 84","location":"null","lat":"35.558972","lng":"128.269221","zcode":"48","zscode":"48890","kind":"E0","kindDetail":"E001"},{"statNm":"해인사(해인사시외버스터미널 주차장)","statId":"CV000148","addr":"경상남도 합천군 가야면 가야산로 1804","location":"null","lat":"35.792227999","lng":"128.08895700","zcode":"48","zscode":"48890","kind":"B0","kindDetail":"B004"},{"statNm":"양산베니키아호텔","statId":"CV000180","addr":"경상남도 양산시 동면 금오10길 51","location":"null","lat":"35.314773","lng":"129.025834","zcode":"48","zscode":"48330","kind":"E0","kindDetail":"E003"},{"statNm":"양산시 영어도서관","statId":"CV000198","addr":"경상남도 양산시 대평들1길 9-10","location":"null","lat":"35.414437","lng":"129.164002","zcode":"48","zscode":"48330","kind":"A0","kindDetail":"A004"},{"statNm":"양산 친환경타운","statId":"CV000199","addr":"경상남도 양산시 원동면 화제리 2730","location":"null","lat":"35.342027","lng":"128.969043","zcode":"48","zscode":"48330","kind":"A0","kindDetail":"A004"},{"statNm":"양산시청","statId":"CV000223","addr":"경상남도 양산시 중앙로 39","location":"null","lat":"35.33515","lng":"129.03811","zcode":"48","zscode":"48330","kind":"A0","kindDetail":"A001"},{"statNm":"한국전기안전공사 경남서부지사","statId":"CV000238","addr":"경상남도 진주시 동진로 255","location":"null","lat":"35.180493","lng":"128.1190189","zcode":"48","zscode":"48170","kind":"A0","kindDetail":"A003"},{"statNm":"한국전기안전공사 김해양산지사","statId":"CV000246","addr":"경상남도 김해시 가야로 217","location":"null","lat":"35.258404","lng":"128.872933","zcode":"48","zscode":"48250","kind":"A0","kindDetail":"A003"},{"statNm":"한국전기안전공사 경남지역본부","statId":"CV000250","addr":"경상남도 창원시 의창구 우곡로 215","location":"null","lat":"35.239363","lng":"128.6480199","zcode":"48","zscode":"48120","kind":"A0","kindDetail":"A003"},{"statNm":"GS수퍼마켓 거제신현점","statId":"CV000255","addr":"경상남도 거제시 서문로 51","location":"null","lat":"34.889621","lng":"128.621459","zcode":"48","zscode":"48310","kind":"E0","kindDetail":"E001"},{"statNm":"한국세라믹기술원","statId":"CV000260","addr":"경상남도 진주시 소호로 101","location":"null","lat":"35.1772329","lng":"128.1345127","zcode":"48","zscode":"48170","kind":"A0","kindDetail":"A003"},{"statNm":"산청군청 민원주차장","statId":"CV000270","addr":"경상남도 산청군 산청읍 산엔청로1","location":"null","lat":"35.4153792015","lng":"127.873555652","zcode":"48","zscode":"48860","kind":"A0","kindDetail":"A003"},{"statNm":"단성면 문화공원 주차장","statId":"CV000276","addr":"경상남도 산청군 단성면 사직단로 456-5","location":"null","lat":"35.29810496307","lng":"127.960385267","zcode":"48","zscode":"48860","kind":"A0","kindDetail":"A004"},{"statNm":"영산대학교 양산캠퍼스","statId":"CV000290","addr":"경상남도 양산시 주남로 288","location":"4관 앞 주차장","lat":"35.428846","lng":"129.148227","zcode":"48","zscode":"48330","kind":"J0","kindDetail":"J001"},{"statNm":"현대블루핸즈 김해율하점","statId":"CV000382","addr":"경상남도 김해시 율하2로236번길 8","location":"블루핸즈 김해율하점 맞은편 지상1층 야외주차장","lat":"35.174895","lng":"128.8216954","zcode":"48","zscode":"48250","kind":"F0","kindDetail":"F001"},{"statNm":"사천점현대자동차","statId":"CV000383","addr":"경상남도 사천시 사천읍 동문1길 87","location":"null","lat":"35.085521","lng":"128.096665","zcode":"48","zscode":"48240","kind":"F0","kindDetail":"F001"},{"statNm":"김해기독교청년회","statId":"CV000384","addr":"경상남도 김해시 분성로 277","location":"김해YMCA 건물 뒷편","lat":"35.2331082","lng":"128.876242","zcode":"48","zscode":"48250","kind":"I0","kindDetail":"I002"},{"statNm":"현대자동차 신안점","statId":"CV000387","addr":"경상남도 진주시 신안로 18","location":"null","lat":"35.179915","lng":"128.0717729","zcode":"48","zscode":"48170","kind":"F0","kindDetail":"F001"},{"statNm":"현대블루핸즈 거제현대서비스","statId":"CV000404","addr":"경상남도 거제시 연초면 연하해안로 316","location":"null","lat":"34.903931","lng":"128.623841","zcode":"48","zscode":"48310","kind":"F0","kindDetail":"F001"},{"statNm":"신항온천","statId":"CV000422","addr":"경상남도 창원시 진해구 신항동로 121","location":"null","lat":"35.088367","lng":"128.8149279","zcode":"48","zscode":"48120","kind":"G0","kindDetail":"G004"},{"statNm":"넥센타이어(주)","statId":"CV000480","addr":"경상남도 창녕군 대합면 대동월포로 291","location":"null","lat":"35.625341","lng":"128.437981","zcode":"48","zscode":"48740","kind":"F0","kindDetail":"F001"},