[{"statNm":"기장군청","statId":"ME000061","addr":"부산광역시 기장군 기장읍 기장대로 560","location":"null","lat":"35.2443","lng":"129.2232","zcode":"26","zscode":"26710","kind":"A0","kindDetail":"A001"},{"statNm":"장전역 공영주차장","statId":"ME174104","addr":"부산광역시 금정구 장전1동 242","location":"null","lat":"35.239348","lng":"129.0876819","zcode":"26","zscode":"26410","kind":"B0","kindDetail":"B001"},{"statNm":"동래역 공영주차장 ","statId":"ME174105","addr":"부산광역시 동래구 중앙대로 1324","location":"null","lat":"35.206922","lng":"129.0786666","zcode":"26","zscode":"26260","kind":"B0","kindDetail":"B001"},{"statNm":"부산진구청 지하1층 주차장","statId":"ME174106","addr":"부산광역시 부산진구 시민공원로 30","location":"null","lat":"35.162892","lng":"129.0530287","zcode":"26","zscode":"26230","kind":"A0","kindDetail":"A001"},{"statNm":"부산시민공원 지하 주차장","statId":"ME174107","addr":"부산광역시 부산진구 시민공원로 73","location":"null","lat":"35.1651212","lng":"129.0562968","zcode":"26","zscode":"26230","kind":"B0","kindDetail":"B002"},{"statNm":"삼락재첩거리","statId":"ME174108","addr":"부산광역시 사상구 낙동대로 1518번길 26","location":"null","lat":"35.1930058","lng":"128.985466","zcode":"26","zscode":"26530","kind":"B0","kindDetail":"B001"},{"statNm":"망미동 공영주차장","statId":"ME174109","addr":"부산광역시 수영구 망미동 979-73","location":"null","lat":"35.1701378","lng":"129.096877","zcode":"26","zscode":"26500","kind":"B0","kindDetail":"B001"},{"statNm":"수변공원","statId":"ME174110","addr":"부산광역시 수영구 민락수변로 95","location":"null","lat":"35.1547999","lng":"129.1318417","zcode":"26","zscode":"26500","kind":"B0","kindDetail":"B001"},{"statNm":"부산지방경찰청 앞 민원인 주차장","statId":"ME174111","addr":"부산광역시 연제구 중앙대로 999","location":"null","lat":"35.1794806","lng":"129.0734269","zcode":"26","zscode":"26470","kind":"B0","kindDetail":"B004"},{"statNm":"부산테크노파크 종합물류경영기술지원센터","statId":"ME174112","addr":"부산광역시 영도구 해양로 435-1","location":"null","lat":"35.0729995","lng":"129.080228","zcode":"26","zscode":"26200","kind":"A0","kindDetail":"A004"},{"statNm":"용두산 공영주차장","statId":"ME174113","addr":"부산광역시 중구 대청로 116번길 3","location":"null","lat":"35.1023192","lng":"129.0326838","zcode":"26","zscode":"26110","kind":"B0","kindDetail":"B001"},{"statNm":"중동역 공영주차장","statId":"ME174114","addr":"부산광역시 해운대구 해운대로 731","location":"null","lat":"35.1668257","lng":"129.1699787","zcode":"26","zscode":"26350","kind":"B0","kindDetail":"B001"},{"statNm":"한국마사회 부산경남지역본부","statId":"ME181206","addr":"부산광역시 강서구 가락대로 929","location":"null","lat":"35.15158","lng":"128.872972","zcode":"26","zscode":"26440","kind":"A0","kindDetail":"A003"},{"statNm":"부산 어린이 대공원","statId":"ME181207","addr":"부산광역시 부산진구 성지곡로 3","location":"null","lat":"35.184608","lng":"129.04349","zcode":"26","zscode":"26230","kind":"D0","kindDetail":"D001"},{"statNm":"부산시 교육청","statId":"ME181208","addr":"부산광역시 부산진구 화지로 12","location":"null","lat":"35.176287","lng":"129.064777","zcode":"26","zscode":"26230","kind":"A0","kindDetail":"A003"},{"statNm":"부산아시아드보조경기장VIP주차장","statId":"ME181210","addr":"부산광역시 연제구 거제동 1312","location":"null","lat":"35.188449","lng":"129.055808","zcode":"26","zscode":"26470","kind":"J0","kindDetail":"J007"},{"statNm":"롯데마트 사상점","statId":"ME181223","addr":"부산광역시 사상구 낙동대로 733 (엄궁동)","location":"null","lat":"35.127586","lng":"128.968375","zcode":"26","zscode":"26530","kind":"E0","kindDetail":"E001"},{"statNm":"롯데마트 동래점","statId":"ME181224","addr":"부산광역시 동래구 중앙대로 1393 (온천동)","location":"null","lat":"35.212005","lng":"129.077246","zcode":"26","zscode":"26260","kind":"E0","kindDetail":"E001"},{"statNm":"롯데마트 광복점","statId":"ME181225","addr":"부산광역시 중구 중앙대로2 (중앙동7가)","location":"null","lat":"35.097858","lng":"129.036146","zcode":"26","zscode":"26110","kind":"E0","kindDetail":"E001"},{"statNm":"김해공항","statId":"ME181250","addr":"부산광역시 강서구 공항진입로 108","location":"null","lat":"35.173216","lng":"128.946465","zcode":"26","zscode":"26440","kind":"A0","kindDetail":"A003"},{"statNm":"철마면사무소","statId":"ME183023","addr":"부산광역시 기장군 철마면 철마면 485","location":"null","lat":"35.2746745","lng":"129.1496941","zcode":"26","zscode":"26710","kind":"A0","kindDetail":"A002"},{"statNm":"장안읍사무소","statId":"ME183024","addr":"부산광역시 기장군 장안읍 좌방길 5","location":"null","lat":"35.3138644","lng":"129.2440318","zcode":"26","zscode":"26710","kind":"A0","kindDetail":"A002"},{"statNm":"정관읍사무소","statId":"ME183076","addr":"부산광역시 기장군 정관읍 용수로 4, 입구 우측","location":"null","lat":"35.3254808","lng":"129.1803974","zcode":"26","zscode":"26710","kind":"A0","kindDetail":"A002"},{"statNm":"롯데마트 사하점","statId":"ME184073","addr":"부산광역시 사하구 을숙도대로 610","location":"null","lat":"35.084840","lng":"128.971577","zcode":"26","zscode":"26380","kind":"E0","kindDetail":"E001"},{"statNm":"이마트 해운대점","statId":"ME184074","addr":"부산광역시 해운대구 좌동순환로 511","location":"null","lat":"35.165994","lng":"129.167388","zcode":"26","zscode":"26350","kind":"E0","kindDetail":"E001"},{"statNm":"동원 공영주차장","statId":"ME18C179","addr":"부산광역시 북구 만덕동 934","location":"null","lat":"35.210513","lng":"129.030131","zcode":"26","zscode":"26320","kind":"B0","kindDetail":"B001"},{"statNm":"롯데마트 화명점","statId":"ME18C180","addr":"부산광역시 북구 화명대로 47(화명동)","location":"null","lat":"35.235202","lng":"129.013075","zcode":"26","zscode":"26320","kind":"E0","kindDetail":"E001"},{"statNm":"엄궁초등학교지하 공영주차장","statId":"ME18C181","addr":"부산광역시 사상구 엄궁로191번길 23(엄궁동)","location":"null","lat":"35.128337","lng":"128.973424","zcode":"26","zscode":"26530","kind":"B0","kindDetail":"B001"},{"statNm":"사하경찰서","statId":"ME18C182","addr":"부산광역시 사하구 을숙도대로 665","location":"null","lat":"35.085868","lng":"128.978159","zcode":"26","zscode":"26380","kind":"I0","kindDetail":"I004"},{"statNm":"롯데마트 부산점","statId":"ME18C183","addr":"부산광역시 부산진구 신천대로 241","location":"null","lat":"35.163297","lng":"129.049257","zcode":"26","zscode":"26230","kind":"E0","kindDetail":"E001"},{"statNm":"부산조선해양기자재공업협동조합","statId":"ME18C184","addr":"부산광역시 강서구 미음산단로295번길 10","location":"null","lat":"35.150386","lng":"128.860380","zcode":"26","zscode":"26440","kind":"G0","kindDetail":"G003"},{"statNm":"기장시장 공영주차장","statId":"ME18C185","addr":"부산광역시 기장군 대라리 70-1","location":"null","lat":"35.244240","lng":"129.214857","zcode":"26","zscode":"26710","kind":"B0","kindDetail":"B001"},{"statNm":"철마체육시설","statId":"ME18C186","addr":"부산광역시 기장군 철마면 철마로 543","location":"null","lat":"35.272592","lng":"129.154704","zcode":"26","zscode":"26710","kind":"A0","kindDetail":"A004"},{"statNm":"장안천야구장","statId":"ME18C187","addr":"부산광역시 기장군 장안읍 고무로 294","location":"null","lat":"35.331684","lng":"129.279689","zcode":"26","zscode":"26710","kind":"J0","kindDetail":"J007"},{"statNm":"종합사회복지관","statId":"ME18C188","addr":"부산광역시 기장군 기장읍 차성로 206","location":"null","lat":"35.235986","lng":"129.213519","zcode":"26","zscode":"26710","kind":"I0","kindDetail":"I006"},{"statNm":"덕천 공영주차장","statId":"ME18C189","addr":"부산광역시 북구 덕천동 457-1","location":"null","lat":"35.214847","lng":"129.009685","zcode":"26","zscode":"26320","kind":"B0","kindDetail":"B001"},{"statNm":"영도구청","statId":"ME18C266","addr":"부산광역시 영도구 태종로 423","location":"null","lat":"35.090361","lng":"129.067457","zcode":"26","zscode":"26200","kind":"A0","kindDetail":"A001"},{"statNm":"정관노인복지관","statId":"ME18C267","addr":"부산광역시 기장군 정관읍 정관중앙로 83-14","location":"null","lat":"35.324964","lng":"129.178665","zcode":"26","zscode":"26710","kind":"I0","kindDetail":"I006"},{"statNm":"정관보건지소","statId":"ME18C268","addr":"부산광역시 기장군 정관읍 용수로 11","location":"null","lat":"35.325185","lng":"129.178786","zcode":"26","zscode":"26710","kind":"I0","kindDetail":"I003"},{"statNm":"kbs 부산방송총국","statId":"ME18C306","addr":"부산광역시 수영구 수영로 429","location":"null","lat":"35.145000","lng":"129.107728","zcode":"26","zscode":"26500","kind":"A0","kindDetail":"A003"},{"statNm":"기장현대드림볼파크","statId":"ME18C307","addr":"부산광역시 기장군 일광면 동백리 409","location":"null","lat":"35.297079","lng":"129.240358","zcode":"26","zscode":"26710","kind":"J0","kindDetail":"J007"},{"statNm":"국립부산과학관","statId":"ME19C144","addr":"부산광역시 기장군 기장읍 석산리 293","location":"null","lat":"35.205239","lng":"129.212284","zcode":"26","zscode":"26710","kind":"A0","kindDetail":"A003"},{"statNm":"명장동 공영주차장 ","statId":"ME19C145","addr":"부산광역시 동래구 명장동 538","location":"null","lat":"35.210417","lng":"129.098028","zcode":"26","zscode":"26260","kind":"B0","kindDetail":"B001"},{"statNm":"부전역 공영주차장","statId":"ME19C146","addr":"부산광역시 부산진구 부전1동 46","location":"null","lat":"35.163250","lng":"129.061667","zcode":"26","zscode":"26230","kind":"B0","kindDetail":"B001"},{"statNm":"암남동주민센터","statId":"ME19C147","addr":"부산광역시 서구 암남동 89-1","location":"null","lat":"35.079833","lng":"129.021333","zcode":"26","zscode":"26140","kind":"A0","kindDetail":"A002"},{"statNm":"한국수력원자력 고리원자력본부","statId":"ME19C228","addr":"부산광역시 기장군 장안읍 길천리 300","location":"null","lat":"35.330056","lng":"129.286083","zcode":"26","zscode":"26710","kind":"A0","kindDetail":"A003"},{"statNm":"부산도시공사","statId":"ME19C229","addr":"부산광역시 부산진구 신천대로 156","location":"null","lat":"35.155737","lng":"129.051412","zcode":"26","zscode":"26230","kind":"A0","kindDetail":"A003"},{"statNm":"한국공항공사 부산지역본부 김해공항 주차빌딩","statId":"ME19C406","addr":"부산광역시 강서구 대저2동 2764","location":"null","lat":"35.171012","lng":"128.950692","zcode":"26","zscode":"26440","kind":"A0","kindDetail":"A003"},{"statNm":"한국공항공사 부산지역본부 김해공항 옥외주차장","statId":"ME19C408","addr":"부산광역시 강서구 공항진입로 108","location":"null","lat":"35.171750","lng":"128.950861","zcode":"26","zscode":"26440","kind":"A0","kindDetail":"A003"},{"statNm":"장안휴게소(부산방향)","statId":"ME19D110","addr":"부산광역시 기장군 장안읍 동해고속도로 25","location":"null","lat":"35.37808076","lng":"129.24623603","zcode":"26","zscode":"26710","kind":"C0","kindDetail":"C099"},{"statNm":"장안휴게소(울산방향)","statId":"ME19D111","addr":"부산광역시 기장군 장안읍 동해고속도로 26","location":"null","lat":"35.38195967","lng":"129.24867346","zcode":"26","zscode":"26710","kind":"C0","kindDetail":"C099"},{"statNm":"부산 해군회관","statId":"ME19D117","addr":"부산광역시 남구 용호동 947-1","location":"null","lat":"35.10504679","lng":"129.11624615","zcode":"26","zscode":"26290","kind":"E0","kindDetail":"E003"},{"statNm":"바다별 어린이집","statId":"ME19D211","addr":"부산광역시 남구 용당동 454-2","location":"null","lat":"35.12019375","lng":"129.09663534","zcode":"26","zscode":"26290","kind":"J0","kindDetail":"J099"},{"statNm":"해성스포렉스 주차장","statId":"ME19D215","addr":"부산광역시 강서구 공항진입로42번길20","location":"null","lat":"35.18264211","lng":"128.95286651","zcode":"26","zscode":"26440","kind":"J0","kindDetail":"J099"},{"statNm":"신해운대역(제7508부대 면회실)","statId":"ME19D221","addr":"부산광역시 해운대구 좌동 사서함 321-16호","location":"null","lat":"35.1813107","lng":"129.17902065","zcode":"26","zscode":"26350","kind":"B0","kindDetail":"B004"},{"statNm":"해운대자동차검사소","statId":"ME19F209","addr":"부산광역시 해운대구 센텀동로 201","location":"null","lat":"35.1840451","lng":"129.1197533","zcode":"26","zscode":"26350","kind":"A0","kindDetail":"A003"},{"statNm":"기장현대차드림볼파크","statId":"ME19F226","addr":"부산광역시 기장군 일광면 동백리 425-1","location":"null","lat":"35.2968649","lng":"129.2431714","zcode":"26","zscode":"26710","kind":"J0","kindDetail":"J007"},{"statNm":"이마트 T명지S점","statId":"ME19Z221","addr":"부산광역시 강서구 명지국제6로 168","location":"null","lat":"35.092899","lng":"128.918406","zcode":"26","zscode":"26440","kind":"E0","kindDetail":"E001"},{"statNm":"대저역 (대저차량기지) ","statId":"ME20C190","addr":"부산광역시 강서구 대저1동 1619","location":"null","lat":"35.2132197","lng":"128.9542429","zcode":"26","zscode":"26440","kind":"A0","kindDetail":"A003"},{"statNm":"부산환경공단 명지사업소","statId":"ME20C191","addr":"부산광역시 강서구 명지오션시티 13로 12-11","location":"null","lat":"35.0907501","lng":"128.8980436","zcode":"26","zscode":"26440","kind":"A0","kindDetail":"A003"},{"statNm":"오일마트주유소","statId":"ME20C192","addr":"부산광역시 사하구 을숙도대로 767","location":"null","lat":"35.086253","lng":"128.988857","zcode":"26","zscode":"26380","kind":"E0","kindDetail":"E007"},{"statNm":"용호만유람선터미널","statId":"ME20C289","addr":"부산광역시 남구 분포로 101","location":"null","lat":"35.1323819","lng":"129.1154628","zcode":"26","zscode":"26290","kind":"D0","kindDetail":"D006"},{"statNm":"부산도서관","statId":"ME20C290","addr":"부산광역시 사상구 덕포동 415-2","location":"null","lat":"35.1731802","lng":"128.9849642","zcode":"26","zscode":"26530","kind":"I0","kindDetail":"I005"},{"statNm":"부산동부경찰서","statId":"ME21B158","addr":"부산광역시 동구 중앙대로 387","location":"null","lat":"35.1298626","lng":"129.0494392","zcode":"26","zscode":"26170","kind":"I0","kindDetail":"I004"},{"statNm":"부산사상경찰서","statId":"ME21B159","addr":"부산광역시 사상구 학감대로 264","location":"null","lat":"35.1542094","lng":"128.9913866","zcode":"26","zscode":"26530","kind":"I0","kindDetail":"I004"},{"statNm":"부산영도경찰서","statId":"ME21B172","addr":"부산광역시 영도구 태종로 46","location":"null","lat":"35.0942458","lng":"129.0367729","zcode":"26","zscode":"26200","kind":"I0","kindDetail":"I004"},{"statNm":"부산현대미술관","statId":"ME21B307","addr":"부산광역시 사하구 낙동남로 1191","location":"null","lat":"35.1090599","lng":"128.9435435","zcode":"26","zscode":"26380","kind":"D0","kindDetail":"D002"},{"statNm":"부산환경공단 명지사업소","statId":"ME21D008","addr":"부산광역시 강서구 명지오션시티13로 12-11","location":"null","lat":"35.0908066","lng":"128.8978984","zcode":"26","zscode":"26440","kind":"A0","kindDetail":"A003"},{"statNm":"온천장역 공영주차장","statId":"ME21D009","addr":"부산광역시 금정구  오시게로 20","location":"null","lat":"35.2192592","lng":"129.0861281","zcode":"26","zscode":"26410","kind":"B0","kindDetail":"B001"},{"statNm":"남산역 공영주차장","statId":"ME21D010","addr":"부산광역시 금정구 중앙대로 2030","location":"null","lat":"35.2653283","lng":"129.0930016","zcode":"26","zscode":"26410","kind":"B0","kindDetail":"B001"},{"statNm":"장안휴게소(울산방향)","statId":"ME21D011","addr":"부산광역시 기장군 장안읍 동해고속도로 26","location":"null","lat":"35.381878","lng":"129.2485774","zcode":"26","zscode":"26710","kind":"C0","kindDetail":"C001"},{"statNm":"장안휴게소(부산방향)","statId":"ME21D012","addr":"부산광역시 기장군 장안읍 명례리 835","location":"null","lat":"35.3782403","lng":"129.2462302","zcode":"26","zscode":"26710","kind":"C0","kindDetail":"C001"},{"statNm":"학장천 복개 공영주차장","statId":"ME21D013","addr":"부산광역시 사상구 가야대로 309","location":"null","lat":"35.1485431","lng":"129.0006964","zcode":"26","zscode":"26530","kind":"B0","kindDetail":"B001"},{"statNm":"하단역 공영주차장","statId":"ME21D014","addr":"부산광역시 사하구 하신중앙로 313","location":"null","lat":"35.1044339","lng":"128.9642576","zcode":"26","zscode":"26380","kind":"B0","kindDetail":"B001"},{"statNm":"부산세관 신항청사","statId":"BNOA0301","addr":"부산광역시 강서구 녹산산단178로 37-17","location":"주차장","lat":"35.086015","lng":"128.838608","zcode":"26","zscode":"26440","kind":"A0","kindDetail":"A003"},{"statNm":"부산 봉래산 역사테마공원 공영주차장","statId":"BNOB0502","addr":"부산광역시 영도구 청학동 483-6","location":"공영주차장","lat":"35.086012","lng":"129.059829","zcode":"26","zscode":"26200","kind":"B0","kindDetail":"B001"},{"statNm":"동래래미안아이파크 1단지","statId":"BNOG3201","addr":"부산광역시 동래구 금정마을로 147","location":"1단지 107동 지하2층 주차장","lat":"35.213019","lng":"129.0695122","zcode":"26","zscode":"26260","kind":"H0","kindDetail":"H001"},{"statNm":"동래 래미안아이파크 2단지","statId":"BNOG3202","addr":"부산광역시 동래구 금정마을로 150","location":"2단지 지하2층(201동),지하3층(209동) 주차장","lat":"35.211490065","lng":"129.06900962","zcode":"26","zscode":"26260","kind":"H0","kindDetail":"H001"},{"statNm":"동래 래미안아이파크 3단지","statId":"BNOG3203","addr":"부산광역시 동래구 충렬대로107번길 65","location":"3단지 지하2층(302동),지하3층(308동) 주차장","lat":"35.210858829","lng":"129.07193399","zcode":"26","zscode":"26260","kind":"H0","kindDetail":"H001"},{"statNm":"부산남부경찰서","statId":"BNOH3901","addr":"부산광역시 남구 황령대로319번가길 81","location":"null","lat":"36.153420","lng":"129.089271","zcode":"26","zscode":"26290","kind":"I0","kindDetail":"I004"},{"statNm":"카페지수","statId":"CSCPC001","addr":"부산광역시 금정구 산성로 428","location":"주차장","lat":"35.251213","lng":"129.053825","zcode":"26","zscode":"26410","kind":"E0","kindDetail":"E005"},{"statNm":"니즈호텔","statId":"CSNSH001","addr":"부산광역시 금정구 팔송로24번길 52","location":"니즈호텔","lat":"35.274506","lng":"129.089965","zcode":"26","zscode":"26410","kind":"E0","kindDetail":"E003"},{"statNm":"동의대학교 가야캠퍼스","statId":"CU510001","addr":"부산광역시 부산진구 엄광로 176","location":"상경관 주차장","lat":"35.1415342","lng":"129.033548","zcode":"26","zscode":"26230","kind":"G0","kindDetail":"G004"},{"statNm":"위클리스타","statId":"CU510002","addr":"부산광역시 부산진구 중앙대로680번길 22","location":"null","lat":"35.153393","lng":"129.060425","zcode":"26","zscode":"26230","kind":"G0","kindDetail":"G004"},{"statNm":"㈜그랜드베른호텔","statId":"CU510003","addr":"부산광역시 영도구 해양로 38","location":"null","lat":"35.0978125","lng":"129.059546","zcode":"26","zscode":"26200","kind":"G0","kindDetail":"G004"},{"statNm":"GS수퍼마켓 명장점","statId":"CV000036","addr":"부산광역시 동래구 반송로 291","location":"null","lat":"35.2063539999","lng":"129.1018410000","zcode":"26","zscode":"26260","kind":"E0","kindDetail":"E001"},{"statNm":"GS수퍼마켓 구포점","statId":"CV000041","addr":"부산광역시 북구 구포동","location":"null","lat":"35.2057270000","lng":"129.0033249999","zcode":"26","zscode":"26320","kind":"E0","kindDetail":"E001"},{"statNm":"기아오토Q 협신자동차서비스","statId":"CV000095","addr":"부산광역시 연제구 월드컵대로 180","location":"null","lat":"35.187937000","lng":"129.07716699","zcode":"26","zscode":"26470","kind":"F0","kindDetail":"F001"},{"statNm":"부산금곡주공6단지아파트","statId":"CV000133","addr":"부산광역시 북구 효열로 40","location":"null","lat":"35.2488869","lng":"129.0153981","zcode":"26","zscode":"26320","kind":"H0","kindDetail":"H001"},{"statNm":"부산산업용품유통단지","statId":"CV000147","addr":"부산광역시 사상구 괘감로 37","location":"지하2층 주차장 16동 290번 기둥","lat":"35.160019","lng":"128.979548","zcode":"26","zscode":"26530","kind":"E0","kindDetail":"E001"},{"statNm":"블루핸즈 현대기아 남구정비서비스","statId":"CV000177","addr":"부산광역시 남구 신선로 340","location":"null","lat":"35.1166211","lng":"129.0957107","zcode":"26","zscode":"26290","kind":"F0","kindDetail":"F001"},{"statNm":"한국전기안전공사 부산울산지역본부","statId":"CV000241","addr":"부산광역시 중구 해관로 27","location":"null","lat":"35.101373","lng":"129.035528","zcode":"26","zscode":"26110","kind":"A0","kindDetail":"A003"},{"statNm":"명지 KB타워","statId":"CV000266","addr":"부산광역시 강서구 명지국제8로10번길 16","location":"실내(지하3층 주차장)","lat":"35.092099","lng":"128.9027619","zcode":"26","zscode":"26440","kind":"G0","kindDetail":"G004"},{"statNm":"영산대학교 해운대캠퍼스","statId":"CV000291","addr":"부산광역시 해운대구 반송순환로 142","location":"호텔관광대학 옆 주차장","lat":"35.2244112","lng":"129.1558623","zcode":"26","zscode":"26350","kind":"J0","kindDetail":"J001"},{"statNm":"문현 범양레우스 아파트","statId":"CV000359","addr":"부산광역시 남구 황령대로90번길 55","location":"null","lat":"35.1479667","lng":"129.0701715","zcode":"26","zscode":"26290","kind":"H0","kindDetail":"H001"},{"statNm":"오토테크아트","statId":"CV000408","addr":"부산광역시 수영구 광남로 177","location":"null","lat":"35.156934","lng":"129.119311","zcode":"26","zscode":"26500","kind":"F0","kindDetail":"F001"},{"statNm":"해운대 온천센터 주차빌딩","statId":"CV000484","addr":"부산광역시 해운대구 중동2로10번길 21","location":"null","lat":"35.163468192738","lng":"129.1655011521","zcode":"26","zscode":"26350","kind":"G0","kindDetail":"G004"},{"statNm":"부산 명지 우방아이유쉘","statId":"CV000485","addr":"부산광역시 강서구 화전산단6로136번길 31","location":"null","lat":"35.110043590384","lng":"128.8865150725","zcode":"26","zscode":"26440","kind":"H0","kindDetail":"H001"},{"statNm":"GS25 대저프레쉬점","statId":"CV000588","addr":"부산광역시 강서구 대저로 153","location":"null","lat":"35.215068","lng":"128.96955","zcode":"26","zscode":"26440","kind":"E0","kindDetail":"E001"},{"statNm":"E편한세상광안비치아파트","statId":"CV000602","addr":"부산광역시 수영구 민락수변로7번길 60","location":"null","lat":"35.155075","lng":"129.1258407","zcode":"26","zscode":"26500","kind":"H0","kindDetail":"H001"},{"statNm":"부산항만공사","statId":"CV000608","addr":"부산광역시 중구 대교로 122","location":"null","lat":"35.100957","lng":"129.0385959","zcode":"26","zscode":"26110","kind":"A0","kindDetail":"A003"},{"statNm":"좋은강안병원(광은빌딩)","statId":"CV000650","addr":"부산광역시 수영구 수영로 480","location":"null","lat":"35.148660000000","lng":"129.1110579999","zcode":"26","zscode":"26500","kind":"I0","kindDetail":"I001"},{"statNm":"부산대학교","statId":"CV000666","addr":"부산광역시 금정구 부산대학로63번길 2","location":"null","lat":"35.236359561709","lng":"129.0824122823","zcode":"26","zscode":"26410","kind":"J0","kindDetail":"J001"},{"statNm":"아우디_사상 서비스센터 150KW","statId":"CV000768","addr":"부산광역시 사상구 학감대로191번길 19","location":"null","lat":"35.147728000000","lng":"128.9879539999","zcode":"26","zscode":"26530","kind":"F0","kindDetail":"F001"},{"statNm":"아우디_해운대 전시장","statId":"CV000771","addr":"부산광역시 해운대구 해운대해변로 305","location":"null","lat":"35.161617999999","lng":"129.1639430000","zcode":"26","zscode":"26350","kind":"F0","kindDetail":"F001"},{"statNm":"아우디_부산시 전시장","statId":"CV000780","addr":"부산광역시 금정구 중앙대로 1661","location":"null","lat":"35.23253300000","lng":"129.09151700000","zcode":"26","zscode":"26410","kind":"F0","kindDetail":"F001"},{"statNm":"해양플랜트고급기술엔지니어링센터","statId":"CV000786","addr":"부산광역시 강서구 생곡로189번길 10","location":"null","lat":"35.134454206433","lng":"128.8947973723","zcode":"26","zscode":"26440","kind":"A0","kindDetail":"A004"},{"statNm":"아우디_남천 전시장","statId":"CV000819","addr":"부산광역시 수영구 황령대로 501","location":"null","lat":"35.137865000000","lng":"129.1088100000","zcode":"26","zscode":"26500","kind":"F0","kindDetail":"F001"},{"statNm":"서동 미로시장 공영주차장","statId":"CV000821","addr":"부산광역시 금정구 서부로16번길 13-3","location":"null","lat":"35.216226400655","lng":"129.1043931220","zcode":"26","zscode":"26410","kind":"B0","kindDetail":"B001"},{"statNm":"현대엔지니어링 고려제강 제 1주차장","statId":"CV000861","addr":"부산광역시 수영구 구락로 150","location":"null","lat":"35.180812","lng":"129.1159369","zcode":"26","zscode":"26500","kind":"G0","kindDetail":"G004"},{"statNm":"부산모터스튜디오(고려제강)","statId":"CV000862","addr":"부산광역시 수영구 구락로 147-6","location":"null","lat":"35.1794062","lng":"129.1144143","zcode":"26","zscode":"26500","kind":"G0","kindDetail":"G004"},{"statNm":"해운대 경보이리스오션","statId":"CV000867","addr":"부산광역시 해운대구 중동1로19번길 24","location":"null","lat":"35.163542525","lng":"129.16294710","zcode":"26","zscode":"26350","kind":"H0","kindDetail":"H001"},{"statNm":"포르쉐 HPC 데스티네이션 부산 웨스틴 조선 호텔","statId":"CV000877","addr":"부산광역시 해운대구 동백로 67","location":"null","lat":"35.155973","lng":"129.154037","zcode":"26","zscode":"26350","kind":"E0","kindDetail":"E003"},{"statNm":"홈플러스 아시아드점","statId":"CV000916","addr":"부산광역시 연제구 종합운동장로 7","location":"null","lat":"35.191247","lng":"129.061989","zcode":"26","zscode":"26470","kind":"E0","kindDetail":"E001"},{"statNm":"포르쉐 데스티네이션 홈플러스 부산아시아드점","statId":"CV000917","addr":"부산광역시 연제구 종합운동장로 7","location":"null","lat":"35.1913128","lng":"129.0621768","zcode":"26","zscode":"26470","kind":"E0","kindDetail":"E001"},{"statNm":"오시리아 관광단지 루지 주차장","statId":"CV000923","addr":"부산광역시 기장군 기장읍 기장해안로 205","location":"null","lat":"35.194075777","lng":"129.2194779","zcode":"26","zscode":"26710","kind":"B0","kindDetail":"B004"},{"statNm":"가야누리애더센트리즈","statId":"CV000971","addr":"부산광역시 부산진구 범천로 16","location":"지하 1층 실내","lat":"35.14814000","lng":"129.05621200","zcode":"26","zscode":"26230","kind":"G0","kindDetail":"G004"},{"statNm":"인파크에비뉴 서면","statId":"CV000996","addr":"부산광역시 부산진구 서전로9번길 20","location":"null","lat":"35.158516999","lng":"129.06101200","zcode":"26","zscode":"26230","kind":"G0","kindDetail":"G004"},{"statNm":"금샘도서관","statId":"CV001074","addr":"부산광역시 금정구 기찰로 94","location":"null","lat":"35.238990999","lng":"129.09409600","zcode":"26","zscode":"26410","kind":"I0","kindDetail":"I005"},{"statNm":"거제4동 복합센터","statId":"CV001080","addr":"부산광역시 연제구 화지로52번길 33","location":"null","lat":"35.179970000","lng":"129.06590499","zcode":"26","zscode":"26470","kind":"A0","kindDetail":"A002"},{"statNm":"구포시장 공영주차장","statId":"CV001107","addr":"부산광역시 북구 낙동대로1780번길 46","location":"지상3층 주차장 물탱크 옆 위치","lat":"35.207467000","lng":"129.00435500","zcode":"26","zscode":"26320","kind":"B0","kindDetail":"B001"},{"statNm":"기술보증기금","statId":"CV001116","addr":"부산광역시 남구 문현금융로 33","location":"지하1층 주차장 A구역(B1A)","lat":"35.146168","lng":"129.064072","zcode":"26","zscode":"26290","kind":"H0","kindDetail":"H003"},{"statNm":"국회부산도서관 전기차 충전소","statId":"CV001159","addr":"부산광역시 강서구 명지국제1로 161","location":"null","lat":"35.103504999","lng":"128.904392","zcode":"26","zscode":"26440","kind":"I0","kindDetail":"I005"},{"statNm":"르네시떼 쇼핑몰","statId":"CV001261","addr":"부산광역시 사상구 광장로 7","location":"지상3층 실내주차장","lat":"35.16436","lng":"128.978024","zcode":"26","zscode":"26530","kind":"E0","kindDetail":"E001"},{"statNm":"수영구도서관","statId":"CV001296","addr":"부산광역시 수영구 남천서로 33","location":"null","lat":"35.144362999","lng":"129.10520799","zcode":"26","zscode":"26500","kind":"I0","kindDetail":"I005"},{"statNm":"노블레스아파트","statId":"CV001344","addr":"부산광역시 사하구 승학로 185","location":"null","lat":"35.10059727","lng":"128.98568508","zcode":"26","zscode":"26380","kind":"H0","kindDetail":"H001"},{"statNm":"남천코오롱하늘채골든비치","statId":"EC000008","addr":"부산광역시 수영구 남천동로 41","location":"null","lat":"35.1414337","lng":"129.1124672","zcode":"26","zscode":"26500","kind":"H0","kindDetail":"H001"},{"statNm":"구포협진태양아파트","statId":"EC000010","addr":"부산광역시 북구 백양대로 1025","location":"지하5층 G9번기둥","lat":"35.1973483","lng":"128.9950732","zcode":"26","zscode":"26320","kind":"H0","kindDetail":"H001"},{"statNm":"래미안해운대","statId":"EC000011","addr":"부산광역시 해운대구 좌동순환로 402","location":"null","lat":"35.1628829","lng":"129.1767799","zcode":"26","zscode":"26350","kind":"H0","kindDetail":"H001"},{"statNm":"쌍용더플래티넘사직아시아드","statId":"EC000028","addr":"부산광역시 동래구 아시아드대로134번길 14","location":"null","lat":"35.196472843","lng":"129.06676315","zcode":"26","zscode":"26260","kind":"H0","kindDetail":"H001"},{"statNm":"온천동반도보라스카이뷰","statId":"EC000030","addr":"부산광역시 동래구 아시아드대로 234","location":"null","lat":"35.204613162","lng":"129.06789490","zcode":"26","zscode":"26260","kind":"A0","kindDetail":"A003"},{"statNm":"주례청구아파트","statId":"EC000033","addr":"부산광역시 사상구 백양대로494번길 38","location":"null","lat":"35.155170512","lng":"128.99903749","zcode":"26","zscode":"26530","kind":"H0","kindDetail":"H001"},{"statNm":"대연SKView힐스","statId":"EC000044","addr":"부산광역시 남구 수영로 261","location":"null","lat":"35.136708716","lng":"129.09507345","zcode":"26","zscode":"26290","kind":"H0","kindDetail":"H001"},{"statNm":"부민e편한세상","statId":"EC000055","addr":"부산광역시 서구 해돋이로 313","location":"null","lat":"35.104269796","lng":"129.01693398","zcode":"26","zscode":"26140","kind":"H0","kindDetail":"H001"},{"statNm":"한솔폴라리스","statId":"EC000057","addr":"부산광역시 부산진구 가야대로 754","location":"지하4층 4대","lat":"35.157107197","lng":"129.05386635","zcode":"26","zscode":"26230","kind":"H0","kindDetail":"H001"},{"statNm":"문현이안아파트","statId":"EC000058","addr":"부산광역시 남구 전포대로 16","location":"null","lat":"35.138367397","lng":"129.06801577","zcode":"26","zscode":"26290","kind":"H0","kindDetail":"H001"},{"statNm":"진흥마제스타워범일","statId":"EC000059","addr":"부산광역시 동구 자성로133번길 6","location":"null","lat":"35.1377467","lng":"129.0649185","zcode":"26","zscode":"26170","kind":"H0","kindDetail":"H001"},{"statNm":"롯데캐슬아인스","statId":"EC000060","addr":"부산광역시 남구 용호로231번길 62","location":"null","lat":"35.111873645","lng":"129.11448659","zcode":"26","zscode":"26290","kind":"H0","kindDetail":"H001"},{"statNm":"하모니타워마브러스","statId":"EC000077","addr":"부산광역시 해운대구 해운대로 723","location":"null","lat":"35.166998919","lng":"129.16917307","zcode":"26","zscode":"26350","kind":"H0","kindDetail":"H001"},{"statNm":"다대현대아파트","statId":"EC000081","addr":"부산광역시 사하구 다대로 473","location":"null","lat":"35.061792149","lng":"128.97709179","zcode":"26","zscode":"26380","kind":"H0","kindDetail":"H001"},{"statNm":"해운대삼환아파트(부산)","statId":"EC000105","addr":"부산광역시 해운대구 좌동순환로299번길 22","location":"null","lat":"35.169154864","lng":"129.18549699","zcode":"26","zscode":"26350","kind":"H0","kindDetail":"H001"},{"statNm":"엄궁한신2차아파트","statId":"EC000110","addr":"부산광역시 사상구 엄궁로 40","location":"null","lat":"35.124173","lng":"128.9703758","zcode":"26","zscode":"26530","kind":"H0","kindDetail":"H001"},{"statNm":"e편한세상화명힐스","statId":"EC000136","addr":"부산광역시 북구 화명대로 68","location":"null","lat":"35.234242715","lng":"129.01553084","zcode":"26","zscode":"26320","kind":"H0","kindDetail":"H001"},{"statNm":"해운대대림아크로텔","statId":"EC000175","addr":"부산광역시 해운대구 해운대로 790","location":"null","lat":"35.168426703","lng":"129.17531436","zcode":"26","zscode":"26350","kind":"H0","kindDetail":"H001"},{"statNm":"당리동2차동원베네스트","statId":"EC000176","addr":"부산광역시 사하구 제석로 171","location":"null","lat":"35.1110534","lng":"128.9840343","zcode":"26","zscode":"26380","kind":"H0","kindDetail":"H001"},{"statNm":"화신거화아파트","statId":"EC000179","addr":"부산광역시 부산진구 진남로 388","location":"null","lat":"35.159436749","lng":"129.07125459","zcode":"26","zscode":"26230","kind":"H0","kindDetail":"H001"},{"statNm":"연산LG아파트","statId":"EC000186","addr":"부산광역시 연제구 고분로 200","location":"null","lat":"35.185075","lng":"129.1045283","zcode":"26","zscode":"26470","kind":"H0","kindDetail":"H001"},{"statNm":"장림역베스티움2차","statId":"EC000196","addr":"부산광역시 사하구 장림번영로 76","location":"null","lat":"35.080549660","lng":"128.97377750","zcode":"26","zscode":"26380","kind":"H0","kindDetail":"H001"},{"statNm":"우암일신보라아파트","statId":"EC000197","addr":"부산광역시 남구 유엔로 15","location":"null","lat":"35.1258263","lng":"129.0793368","zcode":"26","zscode":"26290","kind":"H0","kindDetail":"H001"},{"statNm":"함지그린아파트","statId":"EC000198","addr":"부산광역시 영도구 함지로 8","location":"null","lat":"35.070956271","lng":"129.05940358","zcode":"26","zscode":"26200","kind":"H0","kindDetail":"H001"},{"statNm":"아시아선수촌아파트","statId":"EC000200","addr":"부산광역시 해운대구 선수촌로 122","location":"null","lat":"35.2038514","lng":"129.1221038","zcode":"26","zscode":"26350","kind":"H0","kindDetail":"H001"},{"statNm":"금성타운아파트","statId":"EC000206","addr":"부산광역시 금정구 금사로 156","location":"null","lat":"35.225104996","lng":"129.11627540","zcode":"26","zscode":"26410","kind":"H0","kindDetail":"H001"},{"statNm":"감만현대1차아파트","statId":"EC000207","addr":"부산광역시 남구 우암로2번길 5","location":"null","lat":"35.111222816","lng":"129.08350464","zcode":"26","zscode":"26290","kind":"H0","kindDetail":"H001"},{"statNm":"협성휴포레시티즌파크","statId":"EC000228","addr":"부산광역시 부산진구 동평로 173","location":"null","lat":"35.166273876","lng":"129.04783683","zcode":"26","zscode":"26230","kind":"H0","kindDetail":"H001"},{"statNm":"대원칸타빌멤버스","statId":"EC000374","addr":"부산광역시 부산진구 거제대로 26","location":"null","lat":"35.170897390","lng":"129.06763126","zcode":"26","zscode":"26230","kind":"H0","kindDetail":"H001"},{"statNm":"연산LG아파트 P31","statId":"EC000457","addr":"부산광역시 연제구 고분로 200","location":"null","lat":"35.18480207","lng":"129.10377965","zcode":"26","zscode":"26470","kind":"H0","kindDetail":"H001"},{"statNm":"연산LG아파트 P32","statId":"EC000458","addr":"부산광역시 연제구 고분로 200","location":"null","lat":"35.184692855","lng":"129.10293439","zcode":"26","zscode":"26470","kind":"H0","kindDetail":"H001"},{"statNm":"연산LG아파트 P33","statId":"EC000459","addr":"부산광역시 연제구 고분로 200","location":"null","lat":"35.18352151","lng":"129.10305513","zcode":"26","zscode":"26470","kind":"H0","kindDetail":"H001"},{"statNm":"연산LG아파트 P34-1","statId":"EC000460","addr":"부산광역시 연제구 고분로 200","location":"null","lat":"35.183032122","lng":"129.10334436","zcode":"26","zscode":"26470","kind":"H0","kindDetail":"H001"},{"statNm":"연산LG아파트 P34-2","statId":"EC000461","addr":"부산광역시 연제구 고분로 200","location":"null","lat":"35.182738617","lng":"129.10338070","zcode":"26","zscode":"26470","kind":"H0","kindDetail":"H001"},{"statNm":"연산LG아파트 P35","statId":"EC000462","addr":"부산광역시 연제구 고분로 200","location":"null","lat":"35.185075","lng":"129.1045283","zcode":"26","zscode":"26470","kind":"H0","kindDetail":"H001"},{"statNm":"연산LG아파트 P36","statId":"EC000463","addr":"부산광역시 연제구 고분로 200","location":"null","lat":"35.184404301","lng":"129.10476003","zcode":"26","zscode":"26470","kind":"H0","kindDetail":"H001"},{"statNm":"연산LG아파트 P37","statId":"EC000464","addr":"부산광역시 연제구 고분로 200","location":"null","lat":"35.183777281","lng":"129.10480148","zcode":"26","zscode":"26470","kind":"H0","kindDetail":"H001"},{"statNm":"이진스카이빌 1-2라인","statId":"EC000469","addr":"부산광역시 기장군 기장읍 차성서로 158-12","location":"null","lat":"35.2475055","lng":"129.2120428","zcode":"26","zscode":"26710","kind":"H0","kindDetail":"H001"},{"statNm":"이진스카이빌 9-10라인","statId":"EC000470","addr":"부산광역시 기장군 기장읍 차성서로 158-12","location":"null","lat":"35.2472475","lng":"129.2119809","zcode":"26","zscode":"26710","kind":"H0","kindDetail":"H001"},{"statNm":"일광자이푸르지오1단지 105동","statId":"EC000471","addr":"부산광역시 기장군 일광읍 해빛로 39-15","location":"null","lat":"35.26617108","lng":"129.2230349","zcode":"26","zscode":"26710","kind":"H0","kindDetail":"H001"},{"statNm":"일광자이푸르지오1단지 104동","statId":"EC000472","addr":"부산광역시 기장군 일광읍 해빛로 39-15","location":"null","lat":"35.2651606","lng":"129.2226117","zcode":"26","zscode":"26710","kind":"H0","kindDetail":"H001"},{"statNm":"일광자이푸르지오1단지 102동-2","statId":"EC000473","addr":"부산광역시 기장군 일광읍 해빛로 39-15","location":"null","lat":"35.2659335","lng":"129.2219901","zcode":"26","zscode":"26710","kind":"H0","kindDetail":"H001"},{"statNm":"일광자이푸르지오1단지 102동-1","statId":"EC000474","addr":"부산광역시 기장군 일광읍 해빛로 39-15","location":"null","lat":"35.2657676","lng":"129.2221888","zcode":"26","zscode":"26710","kind":"H0","kindDetail":"H001"},{"statNm":"일광자이푸르지오1단지 101-105동","statId":"EC000475","addr":"부산광역시 기장군 일광읍 해빛로 39-15","location":"null","lat":"35.26614348","lng":"129.2225754","zcode":"26","zscode":"26710","kind":"H0","kindDetail":"H001"},{"statNm":"일광자이푸르지오2단지 201동","statId":"EC000478","addr":"부산광역시 기장군 일광읍 해빛로 39-15","location":"null","lat":"35.26650111","lng":"129.2240767","zcode":"26","zscode":"26710","kind":"H0","kindDetail":"H001"},{"statNm":"일광자이푸르지오2단지 203동","statId":"EC000479","addr":"부산광역시 기장군 일광읍 해빛로 39-15","location":"null","lat":"35.26501304","lng":"129.2235306","zcode":"26","zscode":"26710","kind":"H0","kindDetail":"H001"},{"statNm":"일광자이푸르지오2단지 205동","statId":"EC000480","addr":"부산광역시 기장군 일광읍 해빛로 39-15","location":"null","lat":"35.26395623","lng":"129.223054","zcode":"26","zscode":"26710","kind":"H0","kindDetail":"H001"},{"statNm":"일광자이푸르지오2단지 208동","statId":"EC000481","addr":"부산광역시 기장군 일광읍 해빛로 39-15","location":"null","lat":"35.2647913","lng":"129.2243184","zcode":"26","zscode":"26710","kind":"H0","kindDetail":"H001"},{"statNm":"일광자이푸르지오2단지 211동","statId":"EC000482","addr":"부산광역시 기장군 일광읍 해빛로 39-15","location":"null","lat":"35.26640303","lng":"129.2249997","zcode":"26","zscode":"26710","kind":"H0","kindDetail":"H001"},{"statNm":"기장 태영아파트 1호동","statId":"EC000483","addr":"부산광역시 기장군 기장읍 차성로441번길 7","location":"null","lat":"35.2553675","lng":"129.2182053","zcode":"26","zscode":"26710","kind":"H0","kindDetail":"H001"},{"statNm":"기장 태영아파트 관리사무소동","statId":"EC000484","addr":"부산광역시 기장군 기장읍 차성로441번길 7","location":"null","lat":"35.2554917","lng":"129.2178187","zcode":"26","zscode":"26710","kind":"H0","kindDetail":"H001"},{"statNm":"이진캐스빌블루1차 101동","statId":"EC000485","addr":"부산광역시 기장군 기장읍 차성로 461","location":"null","lat":"35.256208","lng":"129.2189313","zcode":"26","zscode":"26710","kind":"H0","kindDetail":"H001"},{"statNm":"이진캐스빌블루1차 102동","statId":"EC000486","addr":"부산광역시 기장군 기장읍 차성로 461","location":"null","lat":"35.2567278","lng":"129.2184731","zcode":"26","zscode":"26710","kind":"H0","kindDetail":"H001"},{"statNm":"이진캐스빌블루1차 103동","statId":"EC000487","addr":"부산광역시 기장군 기장읍 차성로 461","location":"null","lat":"35.2570973","lng":"129.2188375","zcode":"26","zscode":"26710","kind":"H0","kindDetail":"H001"},{"statNm":"이진캐스빌블루1차 107동","statId":"EC000488","addr":"부산광역시 기장군 기장읍 차성로 461","location":"null","lat":"35.2565693","lng":"129.219496","zcode":"26","zscode":"26710","kind":"H0","kindDetail":"H001"},{"statNm":"이진캐스빌블루1차 106동","statId":"EC000489","addr":"부산광역시 기장군 기장읍 차성로 461","location":"null","lat":"35.2570443","lng":"129.2197644","zcode":"26","zscode":"26710","kind":"H0","kindDetail":"H001"},{"statNm":"이진캐스빌블루1차 105동","statId":"EC000490","addr":"부산광역시 기장군 기장읍 차성로 461","location":"null","lat":"35.257343","lng":"129.2193193","zcode":"26","zscode":"26710","kind":"H0","kindDetail":"H001"},{"statNm":"이진캐스빌블루1차 104동","statId":"EC000491","addr":"부산광역시 기장군 기장읍 차성로 461","location":"null","lat":"35.2575215","lng":"129.2188024","zcode":"26","zscode":"26710","kind":"H0","kindDetail":"H001"},{"statNm":"이진캐스빌블루1차 지상","statId":"EC000492","addr":"부산광역시 기장군 기장읍 차성로 461","location":"null","lat":"35.2563628","lng":"129.2195855","zcode":"26","zscode":"26710","kind":"H0","kindDetail":"H001"},{"statNm":"일광자이푸르지오2단지-2","statId":"EC000650","addr":"부산광역시 기장군 일광읍 해빛로 39-15","location":"null","lat":"35.26491767","lng":"129.2232039","zcode":"26","zscode":"26710","kind":"H0","kindDetail":"H001"},{"statNm":"일광자이푸르지오2단지-1","statId":"EC000651","addr":"부산광역시 기장군 일광읍 해빛로 39-15","location":"null","lat":"35.26470728","lng":"129.2231295","zcode":"26","zscode":"26710","kind":"H0","kindDetail":"H001"},{"statNm":"명지삼정그린코아","statId":"EC000671","addr":"부산광역시 강서구 명지국제3로 97","location":"null","lat":"35.09669891","lng":"128.9108491","zcode":"26","zscode":"26440","kind":"H0","kindDetail":"H001"},{"statNm":"명지삼정그린코아 102동-1","statId":"EC000672","addr":"부산광역시 강서구 명지국제3로 97","location":"null","lat":"35.09727357","lng":"128.9108434","zcode":"26","zscode":"26440","kind":"H0","kindDetail":"H001"},{"statNm":"명지삼정그린코아 102동","statId":"EC000674","addr":"부산광역시 강서구 명지국제3로 97","location":"null","lat":"35.098003673","lng":"128.91112087","zcode":"26","zscode":"26440","kind":"H0","kindDetail":"H001"},{"statNm":"(주)와이에이치모터스엔오토파츠(enh)","statId":"EH213025","addr":"부산광역시 남구 신선로 199-7","location":"구내주차장/옥외","lat":"35.1111631","lng":"129.0857048","zcode":"26","zscode":"26290","kind":"F0","kindDetail":"F002"},{"statNm":"(주)호성정비(enh)","statId":"EH213026","addr":"부산광역시 남구 신선로 189","location":"구내주차장/옥외","lat":"35.1115439","lng":"129.0848552","zcode":"26","zscode":"26290","kind":"F0","kindDetail":"F002"},{"statNm":"동남모터스(enh)","statId":"EH213028","addr":"부산광역시 남구 신선로 215-1","location":"구내주차장/옥외","lat":"35.111624","lng":"129.0878302","zcode":"26","zscode":"26290","kind":"F0","kindDetail":"F002"},{"statNm":"해운대경보이리스오션 충전소(ENH)","statId":"EH213192","addr":"부산광역시 해운대구 중동1로19번길 24","location":"B4 01구역","lat":"35.16341","lng":"129.16315","zcode":"26","zscode":"26350","kind":"G0","kindDetail":"G005"},{"statNm":"EV충전소 SK금사주유소 (ev Most)","statId":"EM000014","addr":"부산광역시 금정구 반송로 420","location":"null","lat":"35.214185","lng":"129.110227","zcode":"26","zscode":"26410","kind":"E0","kindDetail":"E007"},{"statNm":"이엔_부산본사","statId":"EN777777","addr":"부산광역시 강서구 평강로193번길 21-8","location":"null","lat":"35.20385","lng":"128.9399","zcode":"26","zscode":"26440","kind":"G0","kindDetail":"G004"},{"statNm":"영도 남항초등학교","statId":"EP190037","addr":"부산광역시 영도구 남항새싹길 55","location":"교내주차장","lat":"35.0836684","lng":"129.0431183","zcode":"26","zscode":"26200","kind":"J0","kindDetail":"J001"},{"statNm":"부산 ㈜신기림","statId":"EP200058","addr":"부산광역시 금정구 공단서로18번길 76","location":"구내주차장","lat":"35.2168774","lng":"129.1144889","zcode":"26","zscode":"26410","kind":"H0","kindDetail":"H003"},{"statNm":"부산 감천정비공업사","statId":"EP200059","addr":"부산광역시 사하구 감천로42번길 17","location":"구내주차장","lat":"35.0898758","lng":"128.99665","zcode":"26","zscode":"26380","kind":"F0","kindDetail":"F002"},{"statNm":"부산 두산자동차종합정비","statId":"EP200062","addr":"부산광역시 강서구 녹산산업북로 189","location":"구내주차장","lat":"35.0981682","lng":"128.8454629","zcode":"26","zscode":"26440","kind":"F0","kindDetail":"F002"},{"statNm":"부산 (주)세웅정비(본점)","statId":"EP200063","addr":"부산광역시 강서구 녹산산업북로193번길 35","location":"구내주차장","lat":"35.0988797","lng":"128.8436471","zcode":"26","zscode":"26440","kind":"F0","kindDetail":"F002"},{"statNm":"부산 (주)세웅정비(지점)","statId":"EP200064","addr":"부산광역시 강서구 녹산산업북로 171","location":"구내주차장","lat":"35.0984543","lng":"128.8440076","zcode":"26","zscode":"26440","kind":"F0","kindDetail":"F002"},{"statNm":"부산 우동신동아아파트","statId":"EP200076","addr":"부산광역시 해운대구 우동1로 9-28","location":"구내주차장","lat":"35.1629703","lng":"129.1550188","zcode":"26","zscode":"26350","kind":"H0","kindDetail":"H001"},{"statNm":"부산 ㈜덕산1급정비","statId":"EP200081","addr":"부산광역시 사하구 하신중앙로 59","location":"구내주차장","lat":"35.0843199","lng":"128.964674","zcode":"26","zscode":"26380","kind":"F0","kindDetail":"F002"},{"statNm":"부산 이진스카이빌","statId":"EP200082","addr":"부산광역시 기장군 기장읍 차성서로 158-12","location":"구내주차장","lat":"35.247233","lng":"129.2120802","zcode":"26","zscode":"26710","kind":"H0","kindDetail":"H001"},{"statNm":"부산 부산명지더에듀팰리스부영","statId":"EP200083","addr":"부산광역시 강서구 명지국제7로 110","location":"구내주차장","lat":"35.0959287","lng":"128.9130874","zcode":"26","zscode":"26440","kind":"H0","kindDetail":"H001"},{"statNm":"부산 케이에스자동차정비","statId":"EP200085","addr":"부산광역시 사하구 을숙도대로677번길 12","location":"구내주차장","lat":"35.086275","lng":"128.9797058","zcode":"26","zscode":"26380","kind":"F0","kindDetail":"F002"},{"statNm":"부산 금양프라자","statId":"EP200165","addr":"부산광역시 기장군 정관읍 정관로 395","location":"지하1층주차장","lat":"35.3341514","lng":"129.1659977","zcode":"26","zscode":"26710","kind":"G0","kindDetail":"G004"},{"statNm":"부산 문현세종그랑시아","statId":"EP200168","addr":"부산광역시 남구 수영로 12","location":"지하주차장4층","lat":"35.1361956","lng":"129.0691278","zcode":"26","zscode":"26290","kind":"H0","kindDetail":"H001"},{"statNm":"부산기계공구판매업협동조합(티플렉스1단지)","statId":"EP200169","addr":"부산광역시 강서구 유통단지1로 41","location":"옥외주차장","lat":"35.1673385","lng":"128.9558196","zcode":"26","zscode":"26440","kind":"H0","kindDetail":"H003"},{"statNm":"부산기계공구판매업협동조합(티플렉스2단지)","statId":"EP200170","addr":"부산광역시 강서구 유통단지1로 50","location":"옥외주차장","lat":"35.1703265","lng":"128.9541818","zcode":"26","zscode":"26440","kind":"H0","kindDetail":"H003"},{"statNm":"부산 문현삼성힐타워","statId":"EP200222","addr":"부산광역시 남구 전포대로 26","location":"2층, 3층 주차장, 4층 1,2 주차장","lat":"35.1393056","lng":"129.0679906","zcode":"26","zscode":"26290","kind":"H0","kindDetail":"H001"},{"statNm":"부산 대양특장정비","statId":"EP200257","addr":"부산광역시 사상구 낙동대로 836","location":"옥외주차장","lat":"35.1353501","lng":"128.9719802","zcode":"26","zscode":"26530","kind":"G0","kindDetail":"G004"},{"statNm":"부산 삼화상사","statId":"EP200258","addr":"부산광역시 금정구 반송로 461","location":"옥외주차장","lat":"35.2156442","lng":"129.1141853","zcode":"26","zscode":"26410","kind":"G0","kindDetail":"G004"},{"statNm":"부산 신일정비","statId":"EP200259","addr":"부산광역시 동래구 반송로 222","location":"옥외주차장","lat":"35.2004604","lng":"129.0983754","zcode":"26","zscode":"26260","kind":"F0","kindDetail":"F002"},{"statNm":"투썸플레이스 부산가덕도점","statId":"EP200261","addr":"부산광역시 강서구 가덕해안로 590","location":"옥외주차장","lat":"35.0431979","lng":"128.8096044","zcode":"26","zscode":"26440","kind":"E0","kindDetail":"E005"},{"statNm":"부산시자동차검사정비사업조합","statId":"EP200263","addr":"부산광역시 부산진구 중앙대로 891","location":"지하1층주차장","lat":"35.1702021","lng":"129.0686695","zcode":"26","zscode":"26230","kind":"F0","kindDetail":"F002"},{"statNm":"부산 정관밧데리","statId":"EP200264","addr":"부산광역시 기장군 정관읍 용수로 93","location":"옥외주차장","lat":"35.3296695","lng":"129.172418","zcode":"26","zscode":"26710","kind":"F0","kindDetail":"F002"},{"statNm":"부산 브라운도트호텔 송정점","statId":"EP200265","addr":"부산광역시 해운대구 송정광어골로 30","location":"옥외주차장","lat":"35.1787585","lng":"129.1973113","zcode":"26","zscode":"26350","kind":"E0","kindDetail":"E003"},{"statNm":"부산 부경모터스 밧데리할인마트","statId":"EP200266","addr":"부산광역시 기장군 정관읍 정관4로 71","location":"옥외주차장","lat":"35.3277545","lng":"129.1737446","zcode":"26","zscode":"26710","kind":"F0","kindDetail":"F002"},{"statNm":"부산 (주)미음보쉬정비","statId":"EP200268","addr":"부산광역시 강서구 과학산단로 118","location":"옥외주차장","lat":"35.1394621","lng":"128.8514304","zcode":"26","zscode":"26440","kind":"F0","kindDetail":"F002"},{"statNm":"부산 조은종합정비","statId":"EP200269","addr":"부산광역시 강서구 화전산단5로74번길 6","location":"옥외주차장","lat":"35.1047314","lng":"128.8787415","zcode":"26","zscode":"26440","kind":"F0","kindDetail":"F002"},{"statNm":"부산 제일프라자","statId":"EP200270","addr":"부산광역시 기장군 정관읍 정관로 489","location":"지하주차장","lat":"35.3263585","lng":"129.1703614","zcode":"26","zscode":"26710","kind":"G0","kindDetail":"G004"},{"statNm":"부산 ㈜대한정비공업사","statId":"EP200280","addr":"부산광역시 금정구 공단서로 5","location":"구내주차장","lat":"35.2151904","lng":"129.1109935","zcode":"26","zscode":"26410","kind":"F0","kindDetail":"F002"},{"statNm":"부산 초원숲속가든","statId":"EP200281","addr":"부산광역시 기장군 정관읍 병산1길 18","location":"구내주차장","lat":"35.3449383","lng":"129.1880364","zcode":"26","zscode":"26710","kind":"E0","kindDetail":"E003"},{"statNm":"부산 센텀프리미어호텔","statId":"EP200408","addr":"부산광역시 해운대구 센텀1로 17","location":"주차장","lat":"35.1669245","lng":"129.1315849","zcode":"26","zscode":"26350","kind":"E0","kindDetail":"E003"},{"statNm":"부산 석탑사","statId":"EP200451","addr":"부산광역시 기장군 정관읍 용수공단2길 70-14","location":"구내주차장","lat":"35.322857","lng":"129.1610753","zcode":"26","zscode":"26710","kind":"I0","kindDetail":"I002"},{"statNm":"동서대학교 급속충전소","statId":"EP200480","addr":"부산광역시 사상구 주례로 47","location":"뉴밀레니엄관 주차장 지상1층 입구①","lat":"35.1461199","lng":"129.0070171","zcode":"26","zscode":"26530","kind":"J0","kindDetail":"J001"},{"statNm":"경남정보대 센텀산학캠퍼스 급속충전소","statId":"EP200482","addr":"부산광역시 해운대구 센텀중앙로 55","location":"경남정보대 센텀산학캠퍼스 지하2층 주차장①","lat":"35.1730462","lng":"129.127655","zcode":"26","zscode":"26350","kind":"J0","kindDetail":"J001"},{"statNm":"경남정보대 미래관 급속충전소","statId":"EP200483","addr":"부산광역시 사상구 주례로 45","location":"경남정보대 미래관 주차장①","lat":"35.1464509","lng":"129.0090706","zcode":"26","zscode":"26530","kind":"J0","kindDetail":"J001"},{"statNm":"부산 금정부품센타","statId":"EP200491","addr":"부산광역시 금정구 금정로 107-2","location":"구내주차장","lat":"35.2343451","lng":"129.0870691","zcode":"26","zscode":"26410","kind":"F0","kindDetail":"F002"},{"statNm":"금정산LH뉴웰시티1(107동)","statId":"EP210117","addr":"부산광역시 북구 상학로 35","location":"107동지하1층 31기둥","lat":"35.2154942","lng":"129.0342617","zcode":"26","zscode":"26320","kind":"H0","kindDetail":"H001"},{"statNm":"금정산LH뉴웰시티2(105동)","statId":"EP210118","addr":"부산광역시 북구 상학로 35","location":"105동지하2층 G04기둥","lat":"35.2154377","lng":"129.0349411","zcode":"26","zscode":"26320","kind":"H0","kindDetail":"H001"},{"statNm":"금정산LH뉴웰시티3(104동)","statId":"EP210119","addr":"부산광역시 북구 상학로 35","location":"104동지하3층","lat":"35.2151376","lng":"129.0356363","zcode":"26","zscode":"26320","kind":"H0","kindDetail":"H001"},{"statNm":"금정산LH뉴웰시티 급속충전소","statId":"EP210138","addr":"부산광역시 북구 상학로 35","location":"104동지하3층","lat":"35.2151943","lng":"129.035484","zcode":"26","zscode":"26320","kind":"H0","kindDetail":"H001"},{"statNm":"태진팰리스2차","statId":"EP220016","addr":"부산광역시 금정구 온천장로125번길 28-1","location":"지상1층 경비실옆","lat":"35.223247940","lng":"129.08404672","zcode":"26","zscode":"26410","kind":"H0","kindDetail":"H001"},{"statNm":"한국수력원자력","statId":"EP220047","addr":"부산광역시 기장군 장안읍 길천길 96-1","location":"제 2발전소 주차장","lat":"35.320808269","lng":"129.29032700","zcode":"26","zscode":"26710","kind":"A0","kindDetail":"A004"},{"statNm":"연산자이아파트 1(111동)","statId":"EP220050","addr":"부산광역시 연제구 과정로343번길 43","location":"(연산동, 연산 자이)","lat":"35.188359115","lng":"129.08883281","zcode":"26","zscode":"26470","kind":"H0","kindDetail":"H001"},{"statNm":"연산자이아파트2(118동)","statId":"EP220051","addr":"부산광역시 연제구 과정로343번길 43","location":"지하3층주차장","lat":"35.188316669","lng":"129.09024776","zcode":"26","zscode":"26470","kind":"H0","kindDetail":"H001"},{"statNm":"연산자이아파트3(105동)","statId":"EP220052","addr":"부산광역시 연제구 과정로343번길 43","location":"지하3층 Y40기둥","lat":"35.189627203","lng":"129.08950196","zcode":"26","zscode":"26470","kind":"H0","kindDetail":"H001"},{"statNm":"연산자이아파트4(115동)","statId":"EP220053","addr":"부산광역시 연제구 과정로343번길 43","location":"지하3층 G 59기둥","lat":"35.187422330","lng":"129.08880883","zcode":"26","zscode":"26470","kind":"H0","kindDetail":"H001"},{"statNm":"명륜2차아이파크 1단지1(108동)","statId":"EP220059","addr":"부산광역시 동래구 시실로 49","location":"108동 57-58기둥","lat":"35.215715724","lng":"129.08948977","zcode":"26","zscode":"26260","kind":"H0","kindDetail":"H001"},{"statNm":"명륜2차아이파크 1단지2(118동)","statId":"EP220060","addr":"부산광역시 동래구 시실로 49","location":"118동 10번기둥","lat":"35.216677730","lng":"129.09014034","zcode":"26","zscode":"26260","kind":"H0","kindDetail":"H001"},{"statNm":"명륜2차아이파크 2단지","statId":"EP220061","addr":"부산광역시 동래구 시실로 73-6","location":"205동21번기둥","lat":"35.213822350","lng":"129.09215341","zcode":"26","zscode":"26260","kind":"H0","kindDetail":"H001"},{"statNm":"명지 더샾 퍼스트월드3단지1(301동)","statId":"EP220097","addr":"부산광역시 강서구 명지국제2로 41","location":"301동 B2F 04~05기둥","lat":"35.094791077","lng":"128.90665213","zcode":"26","zscode":"26440","kind":"H0","kindDetail":"H001"},{"statNm":"명지 더샾 퍼스트월드3단지2(303동)","statId":"EP220098","addr":"부산광역시 강서구 명지국제2로 41","location":"303동 B2F E-F기둥","lat":"35.094945110","lng":"128.90504617","zcode":"26","zscode":"26440","kind":"H0","kindDetail":"H001"},{"statNm":"명지 더샾 퍼스트월드3단지3(304동)","statId":"EP220099","addr":"부산광역시 강서구 명지국제2로 41","location":"304동 B2F 13~d기둥","lat":"35.095539340","lng":"128.90508193","zcode":"26","zscode":"26440","kind":"H0","kindDetail":"H001"},{"statNm":"명지 더샾 퍼스트월드3단지4(306동)","statId":"EP220100","addr":"부산광역시 강서구 명지국제2로 41","location":"306동 B2F 휀룸6옆","lat":"35.096138145","lng":"128.90597307","zcode":"26","zscode":"26440","kind":"H0","kindDetail":"H001"},{"statNm":"명지 더샾 퍼스트월드3단지5(309동)","statId":"EP220101","addr":"부산광역시 강서구 명지국제2로 41","location":"(명지동, 더샵 명지퍼스트월드 3단지)","lat":"35.095304735","lng":"128.90681990","zcode":"26","zscode":"26440","kind":"H0","kindDetail":"H001"},{"statNm":"서면2차 봄여름가을겨울","statId":"EP220125","addr":"부산광역시 부산진구 신천대로197번길 15","location":"102동 B7기둥","lat":"35.159084081","lng":"129.04960090","zcode":"26","zscode":"26230","kind":"H0","kindDetail":"H001"},{"statNm":"아라트리움 충전소","statId":"EP220165","addr":"부산광역시 해운대구 마린시티1로 127","location":"B2F 11기둥","lat":"35.154783947","lng":"129.1467013","zcode":"26","zscode":"26350","kind":"G0","kindDetail":"G005"},{"statNm":"연산동일동미라주1 충전소","statId":"EP220212","addr":"부산광역시 연제구 반송로 80","location":"102동 지하3층 F19","lat":"35.190616474","lng":"129.08791505","zcode":"26","zscode":"26470","kind":"H0","kindDetail":"H001"},{"statNm":"연산동일동미라주2 충전소","statId":"EP220213","addr":"부산광역시 연제구 반송로 80","location":"102동 지하2층 F19","lat":"35.190616474","lng":"129.08791505","zcode":"26","zscode":"26470","kind":"H0","kindDetail":"H001"},{"statNm":"부산 국립국악원 충전소","statId":"EP220252","addr":"부산광역시 부산진구 국악로 2","location":"지하주차장 2층","lat":"35.1714598","lng":"129.0541301","zcode":"26","zscode":"26230","kind":"J0","kindDetail":"J004"},{"statNm":"하나은행 동대신역점 급속충전소","statId":"EP220265","addr":"부산광역시 서구 구덕로 287","location":"1층 고객주차장","lat":"35.109610300","lng":"129.01787581","zcode":"26","zscode":"26140","kind":"I0","kindDetail":"I008"},{"statNm":"부산 티플렉스 급속충전소","statId":"EP220266","addr":"부산광역시 강서구 유통단지1로 41","location":"구내주차장","lat":"35.166627209","lng":"128.95752893","zcode":"26","zscode":"26440","kind":"G0","kindDetail":"G004"},{"statNm":"호텔 와이티티 충전소","statId":"EP220277","addr":"부산광역시 부산진구 중앙대로691번가길 27","location":"주차장","lat":"35.155558741","lng":"129.05540129","zcode":"26","zscode":"26230","kind":"E0","kindDetail":"E003"},{"statNm":"부전동477-3 충전소(NEWK)","statId":"EP220279","addr":"부산광역시 부산진구 가야대로765번길 18","location":"1층주차장","lat":"35.158572907","lng":"129.05546759","zcode":"26","zscode":"26230","kind":"G0","kindDetail":"G004"},{"statNm":"봉래2동행정복지센터","statId":"EV000142","addr":"부산광역시 영도구 태종로165번길 1-8","location":"null","lat":"35.0942326","lng":"129.0461757","zcode":"26","zscode":"26200","kind":"A0","kindDetail":"A002"},{"statNm":"신선동주민센터","statId":"EV000143","addr":"부산광역시 영도구 하나길 317","location":"null","lat":"35.0833346","lng":"129.0451667","zcode":"26","zscode":"26200","kind":"A0","kindDetail":"A002"},{"statNm":"청학2동주민센터","statId":"EV000144","addr":"부산광역시 영도구 태종로 394","location":"null","lat":"35.091936","lng":"129.065753","zcode":"26","zscode":"26200","kind":"A0","kindDetail":"A002"},{"statNm":"학장동행정복지센터","statId":"EV000189","addr":"부산광역시 사상구 학감대로147번길 11","location":"null","lat":"35.1440994","lng":"128.9873096","zcode":"26","zscode":"26530","kind":"A0","kindDetail":"A002"},{"statNm":"주례3동주민센터","statId":"EV000190","addr":"부산광역시 사상구 냉정로 10","location":"null","lat":"35.1473492","lng":"129.0014194","zcode":"26","zscode":"26530","kind":"A0","kindDetail":"A002"},{"statNm":"주례1동주민센터","statId":"EV000192","addr":"부산광역시 사상구 사상로137번길 22","location":"null","lat":"35.1517001","lng":"128.997927","zcode":"26","zscode":"26530","kind":"A0","kindDetail":"A002"},{"statNm":"엄궁동주민센터","statId":"EV000193","addr":"부산광역시 사상구 엄궁북로 15","location":"null","lat":"35.128691","lng":"128.9722011","zcode":"26","zscode":"26530","kind":"A0","kindDetail":"A002"},{"statNm":"삼락동주민센터","statId":"EV000194","addr":"부산광역시 사상구 낙동대로1310번길 19","location":"null","lat":"35.17701","lng":"128.9776397","zcode":"26","zscode":"26530","kind":"A0","kindDetail":"A002"},{"statNm":"모라3동행정복지센터","statId":"EV000196","addr":"부산광역시 사상구 모라로110번길 99","location":"null","lat":"35.1846561","lng":"128.9960597","zcode":"26","zscode":"26530","kind":"A0","kindDetail":"A002"},{"statNm":"덕포2동주민센터","statId":"EV000198","addr":"부산광역시 사상구 사상로333번길 17","location":"null","lat":"35.1744536","lng":"128.9829689","zcode":"26","zscode":"26530","kind":"A0","kindDetail":"A002"},{"statNm":"괘법동주민센터","statId":"EV000200","addr":"부산광역시 사상구 광장로97번길 6","location":"null","lat":"35.1637577","lng":"128.9871953","zcode":"26","zscode":"26530","kind":"A0","kindDetail":"A002"},{"statNm":"부곡1동주민센터","statId":"EV000219","addr":"부산광역시 금정구 동부곡로6번길 29","location":"null","lat":"35.2244038","lng":"129.0921461","zcode":"26","zscode":"26410","kind":"A0","kindDetail":"A002"},{"statNm":"구서1동주민센터","statId":"EV000220","addr":"부산광역시 금정구 수림로72번길 123","location":"null","lat":"35.2451045","lng":"129.0869527","zcode":"26","zscode":"26410","kind":"A0","kindDetail":"A002"},{"statNm":"남산동행정복지센터","statId":"EV000221","addr":"부산광역시 금정구 중앙대로2097번길 4","location":"null","lat":"35.2716581","lng":"129.0922445","zcode":"26","zscode":"26410","kind":"A0","kindDetail":"A002"},{"statNm":"장전2동 주민센터","statId":"EV000222","addr":"부산광역시 금정구 소정로 19","location":"null","lat":"35.2278009","lng":"129.0809742","zcode":"26","zscode":"26410","kind":"A0","kindDetail":"A002"},{"statNm":"부산영도 영도어린이도서관","statId":"EV000303","addr":"부산광역시 영도구 남항로9번길 1 (남항동1가)","location":"null","lat":"35.0899716","lng":"129.0376314","zcode":"26","zscode":"26200","kind":"A0","kindDetail":"A002"},{"statNm":"동삼1동행정복지센터","statId":"EV000306","addr":"부산광역시 영도구 중리로 44-1","location":"null","lat":"35.0748982","lng":"129.0684102","zcode":"26","zscode":"26200","kind":"A0","kindDetail":"A002"},{"statNm":"동삼3동행정복지센터","statId":"EV000307","addr":"부산광역시 영도구 상리로 39","location":"null","lat":"35.0846555","lng":"129.0686522","zcode":"26","zscode":"26200","kind":"A0","kindDetail":"A002"},{"statNm":"감전동주민센터","statId":"EV000343","addr":"부산광역시 사상구 새벽시장로56번길 20","location":"null","lat":"35.154203","lng":"128.9794093","zcode":"26","zscode":"26530","kind":"A0","kindDetail":"A002"},{"statNm":"감천1동행정복지센터","statId":"EV000344","addr":"부산광역시 사하구 감천로117번길 2","location":"null","lat":"35.0879657","lng":"129.0046551","zcode":"26","zscode":"26380","kind":"A0","kindDetail":"A002"},{"statNm":"다대2동행정복지센터","statId":"EV000345","addr":"부산광역시 사하구 다대로429번길 30","location":"null","lat":"35.0634772","lng":"128.9821657","zcode":"26","zscode":"26380","kind":"A0","kindDetail":"A002"},{"statNm":"당리동행정복지센터","statId":"EV000347","addr":"부산광역시 사하구 낙동대로 380","location":"null","lat":"35.1029415","lng":"128.9766774","zcode":"26","zscode":"26380","kind":"A0","kindDetail":"A002"},{"statNm":"신평1동행정복지센터","statId":"EV000349","addr":"부산광역시 사하구 신산로 173","location":"null","lat":"35.090019","lng":"128.9744358","zcode":"26","zscode":"26380","kind":"A0","kindDetail":"A002"},{"statNm":"연산2동주민센터","statId":"EV000351","addr":"부산광역시 연제구 중앙대로1038번길 39","location":"null","lat":"35.1799983","lng":"129.0791926","zcode":"26","zscode":"26470","kind":"A0","kindDetail":"A002"},{"statNm":"연산3동주민센터","statId":"EV000352","addr":"부산광역시 연제구 연수로218번길 4","location":"null","lat":"35.1733375","lng":"129.0942256","zcode":"26","zscode":"26470","kind":"A0","kindDetail":"A002"},{"statNm":"연산4동주민센터","statId":"EV000353","addr":"부산광역시 연제구 쌍미천로151번길 42","location":"null","lat":"35.1862835","lng":"129.084929","zcode":"26","zscode":"26470","kind":"A0","kindDetail":"A002"},{"statNm":"연산8동주민센터","statId":"EV000354","addr":"부산광역시 연제구 과정로251번길 33","location":"null","lat":"35.1870867","lng":"129.1010197","zcode":"26","zscode":"26470","kind":"A0","kindDetail":"A002"},{"statNm":"남부민2동행정복지센터","statId":"EV000362","addr":"부산광역시 서구 천마로 87","location":"null","lat":"35.0845081","lng":"129.0205462","zcode":"26","zscode":"26140","kind":"A0","kindDetail":"A002"},{"statNm":"감천2동행정복지센터","statId":"EV000363","addr":"부산광역시 사하구 옥천로93번길 14","location":"null","lat":"35.0945896","lng":"129.009326","zcode":"26","zscode":"26380","kind":"A0","kindDetail":"A002"},{"statNm":"남부민1동행정복지센터","statId":"EV000364","addr":"부산광역시 서구 충무대로255번길 5-26","location":"null","lat":"35.0927492","lng":"129.0233109","zcode":"26","zscode":"26140","kind":"A0","kindDetail":"A002"},{"statNm":"괴정2동행정복지센터","statId":"EV000365","addr":"부산광역시 사하구 까치고개로 14-1","location":"null","lat":"35.10339","lng":"129.0040196","zcode":"26","zscode":"26380","kind":"A0","kindDetail":"A002"},{"statNm":"괴정3동주민센터","statId":"EV000366","addr":"부산광역시 사하구 낙동대로171번길 30-5","location":"null","lat":"35.1003126","lng":"128.9980668","zcode":"26","zscode":"26380","kind":"A0","kindDetail":"A002"},{"statNm":"장림1동행정복지센터","statId":"EV000368","addr":"부산광역시 사하구 장림로161번길 2","location":"null","lat":"35.0829796","lng":"128.966855","zcode":"26","zscode":"26380","kind":"A0","kindDetail":"A002"},{"statNm":"장림2동행정복지센터","statId":"EV000370","addr":"부산광역시 사하구 장평로 131","location":"null","lat":"35.0778534","lng":"128.9726385","zcode":"26","zscode":"26380","kind":"A0","kindDetail":"A002"},{"statNm":"하단2동행정복지센터","statId":"EV000372","addr":"부산광역시 사하구 하신번영로 377","location":"null","lat":"35.1145842","lng":"128.9605207","zcode":"26","zscode":"26380","kind":"A0","kindDetail":"A002"},{"statNm":"거제1동주민센터","statId":"EV000374","addr":"부산광역시 연제구 법원북로 88","location":"null","lat":"35.1918458","lng":"129.0756743","zcode":"26","zscode":"26470","kind":"A0","kindDetail":"A002"},{"statNm":"거제2동주민센터","statId":"EV000375","addr":"부산광역시 연제구 아시아드대로22번길 19","location":"null","lat":"35.1877881","lng":"129.0703504","zcode":"26","zscode":"26470","kind":"A0","kindDetail":"A002"},{"statNm":"거제3동주민센터 (연제구 치매안심센터)","statId":"EV000376","addr":"부산광역시 연제구 거제시장로22번길 70","location":"연제구 치매안심센터에 위치합니다. 주민센터 이사하고 그 자리에 치매센터가 들어섰습니다","lat":"35.1840674","lng":"129.0731275","zcode":"26","zscode":"26470","kind":"A0","kindDetail":"A002"},{"statNm":"연산1동주민센터","statId":"EV000377","addr":"부산광역시 연제구 연동로8번길 66","location":"null","lat":"35.189977","lng":"129.090433","zcode":"26","zscode":"26470","kind":"A0","kindDetail":"A002"},{"statNm":"연산5동주민센터","statId":"EV000378","addr":"부산광역시 연제구 거제천로124번길 15","location":"null","lat":"35.1845989","lng":"129.0761925","zcode":"26","zscode":"26470","kind":"A0","kindDetail":"A002"},{"statNm":"연산6동주민센터","statId":"EV000379","addr":"부산광역시 연제구 쌍미천로52번길 2","location":"null","lat":"35.1774537","lng":"129.0896468","zcode":"26","zscode":"26470","kind":"A0","kindDetail":"A002"},{"statNm":"반송1동주민센터","statId":"EV000389","addr":"부산광역시 해운대구 아랫반송로 16","location":"null","lat":"35.2251794","lng":"129.1478621","zcode":"26","zscode":"26350","kind":"A0","kindDetail":"A002"},{"statNm":"반송2동주민센터","statId":"EV000390","addr":"부산광역시 해운대구 신반송로 173","location":"null","lat":"35.2287844","lng":"129.1603892","zcode":"26","zscode":"26350","kind":"A0","kindDetail":"A002"},{"statNm":"반여1동주민센터","statId":"EV000391","addr":"부산광역시 해운대구 선수촌로 85","location":"null","lat":"35.20116","lng":"129.1189526","zcode":"26","zscode":"26350","kind":"A0","kindDetail":"A002"},{"statNm":"반여2동주민센터","statId":"EV000392","addr":"부산광역시 해운대구 재반로211번길 9","location":"null","lat":"35.1959639","lng":"129.1301513","zcode":"26","zscode":"26350","kind":"A0","kindDetail":"A002"},{"statNm":"반여3동주민센터","statId":"EV000393","addr":"부산광역시 해운대구 재반로256번길 29-70","location":"null","lat":"35.2009872","lng":"129.1335102","zcode":"26","zscode":"26350","kind":"A0","kindDetail":"A002"},{"statNm":"반여4동주민센터","statId":"EV000394","addr":"부산광역시 해운대구 삼어로133번길 50","location":"null","lat":"35.2092041","lng":"129.1171765","zcode":"26","zscode":"26350","kind":"A0","kindDetail":"A002"},{"statNm":"송정동주민센터","statId":"EV000395","addr":"부산광역시 해운대구 송정중앙로21번길 20","location":"null","lat":"35.1836606","lng":"129.2037002","zcode":"26","zscode":"26350","kind":"A0","kindDetail":"A002"},{"statNm":"우1동주민센터","statId":"EV000396","addr":"부산광역시 해운대구 해운대로 612","location":"null","lat":"35.1628875","lng":"129.1580826","zcode":"26","zscode":"26350","kind":"A0","kindDetail":"A002"},{"statNm":"우2동주민센터","statId":"EV000397","addr":"부산광역시 해운대구 해운대로383번가길 7","location":"null","lat":"35.1712048","lng":"129.1399222","zcode":"26","zscode":"26350","kind":"A0","kindDetail":"A002"},{"statNm":"재송1동주민센터","statId":"EV000398","addr":"부산광역시 해운대구 재반로63번길 23","location":"null","lat":"35.1846174","lng":"129.1251878","zcode":"26","zscode":"26350","kind":"A0","kindDetail":"A002"},{"statNm":"재송2동주민센터","statId":"EV000399","addr":"부산광역시 해운대구 재반로125번길 26","location":"null","lat":"35.1896039","lng":"129.1253133","zcode":"26","zscode":"26350","kind":"A0","kindDetail":"A002"},{"statNm":"좌1동주민센터","statId":"EV000400","addr":"부산광역시 해운대구 양운로 91","location":"null","lat":"35.1709067","lng":"129.1742559","zcode":"26","zscode":"26350","kind":"A0","kindDetail":"A002"},{"statNm":"좌3동주민센터","statId":"EV000401","addr":"부산광역시 해운대구 좌동순환로 65","location":"null","lat":"35.1722617","lng":"129.1666317","zcode":"26","zscode":"26350","kind":"A0","kindDetail":"A002"},{"statNm":"좌4동주민센터","statId":"EV000402","addr":"부산광역시 해운대구 좌동순환로 183","location":"null","lat":"35.1778997","lng":"129.176251","zcode":"26","zscode":"26350","kind":"A0","kindDetail":"A002"},{"statNm":"해운대 중1동주민센터","statId":"EV000403","addr":"부산광역시 해운대구 중동1로37번길 20","location":"null","lat":"35.1625222","lng":"129.1642093","zcode":"26","zscode":"26350","kind":"A0","kindDetail":"A002"},{"statNm":"중2동주민센터","statId":"EV000404","addr":"부산광역시 해운대구 좌동순환로433번길 34","location":"null","lat":"35.1624026","lng":"129.1799244","zcode":"26","zscode":"26350","kind":"A0","kindDetail":"A002"},{"statNm":"일광면사무소","statId":"EV000438","addr":"부산광역시 기장군 일광면 일광로 77-7","location":"null","lat":"35.2638926","lng":"129.232429","zcode":"26","zscode":"26710","kind":"A0","kindDetail":"A002"},{"statNm":"가야1동주민센터","statId":"EV000439","addr":"부산광역시 부산진구 가야대로572번길 22","location":"null","lat":"35.1532393","lng":"129.0343012","zcode":"26","zscode":"26230","kind":"A0","kindDetail":"A002"},{"statNm":"당감1동행정복지센터","statId":"EV000440","addr":"부산광역시 부산진구 동평로44번길 49-6","location":"null","lat":"35.1644598","lng":"129.035643","zcode":"26","zscode":"26230","kind":"A0","kindDetail":"A002"},{"statNm":"구포1동주민센터","statId":"EV000441","addr":"부산광역시 북구 낙동대로1762번길 75","location":"null","lat":"35.2064309","lng":"129.0011426","zcode":"26","zscode":"26320","kind":"A0","kindDetail":"A002"},{"statNm":"구포3동주민센터","statId":"EV000442","addr":"부산광역시 북구 시랑로118번길 23","location":"null","lat":"35.1949284","lng":"129.0087602","zcode":"26","zscode":"26320","kind":"A0","kindDetail":"A002"},{"statNm":"덕천1동행정복지센터","statId":"EV000443","addr":"부산광역시 북구 만덕대로102번가길 11","location":"null","lat":"35.2124307","lng":"129.0166801","zcode":"26","zscode":"26320","kind":"A0","kindDetail":"A002"},{"statNm":"덕천2동행정복지센터","statId":"EV000444","addr":"부산광역시 북구 금곡대로20번길 56","location":"null","lat":"35.2124135","lng":"129.0079612","zcode":"26","zscode":"26320","kind":"A0","kindDetail":"A002"},{"statNm":"덕천3동행정복지센터","statId":"EV000445","addr":"부산광역시 북구 덕천로 118","location":"null","lat":"35.2099409","lng":"129.0174838","zcode":"26","zscode":"26320","kind":"A0","kindDetail":"A002"},{"statNm":"만덕2동주민센터","statId":"EV000447","addr":"부산광역시 북구 만덕2로44번길 10","location":"null","lat":"35.2101665","lng":"129.037157","zcode":"26","zscode":"26320","kind":"A0","kindDetail":"A002"},{"statNm":"만덕3동주민센터","statId":"EV000448","addr":"부산광역시 북구 만덕3로 52","location":"null","lat":"35.2113675","lng":"129.0291802","zcode":"26","zscode":"26320","kind":"A0","kindDetail":"A002"},{"statNm":"화명1동주민센터","statId":"EV000449","addr":"부산광역시 북구 금곡대로 274","location":"null","lat":"35.2327403","lng":"129.0138044","zcode":"26","zscode":"26320","kind":"A0","kindDetail":"A002"},{"statNm":"화명2동주민센터","statId":"EV000450","addr":"부산광역시 북구 양달로 58","location":"null","lat":"35.2435691","lng":"129.0198326","zcode":"26","zscode":"26320","kind":"A0","kindDetail":"A002"},{"statNm":"화명3동행정복지센터","statId":"EV000451","addr":"부산광역시 북구 화명신도시로 85","location":"null","lat":"35.2318118","lng":"129.010034","zcode":"26","zscode":"26320","kind":"A0","kindDetail":"A002"},{"statNm":"대청동주민센터","statId":"EV000452","addr":"부산광역시 중구 대청로99번길 14-1","location":"null","lat":"35.1042205","lng":"129.031003","zcode":"26","zscode":"26110","kind":"A0","kindDetail":"A002"},{"statNm":"보수동행정복지센터","statId":"EV000453","addr":"부산광역시 중구 보수대로140번길 61","location":"null","lat":"35.1061355","lng":"129.0247033","zcode":"26","zscode":"26110","kind":"A0","kindDetail":"A002"},{"statNm":"영주2동주민센터","statId":"EV000454","addr":"부산광역시 중구 동영로 71-2","location":"null","lat":"35.1115749","lng":"129.0318172","zcode":"26","zscode":"26110","kind":"A0","kindDetail":"A002"},{"statNm":"우3동주민센터","statId":"EV000458","addr":"부산광역시 해운대구 해운대해변로 104","location":"null","lat":"35.1597328","lng":"129.1433085","zcode":"26","zscode":"26350","kind":"A0","kindDetail":"A002"},{"statNm":"다대1동주민센터","statId":"EV000459","addr":"부산광역시 사하구 윤공단로 119","location":"null","lat":"35.0591696","lng":"128.9713295","zcode":"26","zscode":"26380","kind":"A0","kindDetail":"A002"},{"statNm":"서2동주민센터","statId":"EV000460","addr":"부산광역시 금정구 서동중심로 33","location":"null","lat":"35.2128712","lng":"129.104495","zcode":"26","zscode":"26410","kind":"A0","kindDetail":"A002"},{"statNm":"명지1동 주민센터","statId":"EV000462","addr":"부산광역시 강서구 영강길19번길 58","location":"null","lat":"35.1081646","lng":"128.9263221","zcode":"26","zscode":"26440","kind":"A0","kindDetail":"A002"},{"statNm":"녹산동 주민센터","statId":"EV000463","addr":"부산광역시 강서구 가락대로900번가길 32","location":"null","lat":"35.1535291","lng":"128.8837852","zcode":"26","zscode":"26440","kind":"A0","kindDetail":"A002"},{"statNm":"서대신1동주민센터","statId":"EV000464","addr":"부산광역시 서구 구덕로315번길 49","location":"null","lat":"35.1110832","lng":"129.014416","zcode":"26","zscode":"26140","kind":"A0","kindDetail":"A002"},{"statNm":"거제4동 주민센터","statId":"EV000469","addr":"부산광역시 연제구 해맞이로43번길 36","location":"null","lat":"35.1793534","lng":"129.0665407","zcode":"26","zscode":"26470","kind":"A0","kindDetail":"A002"},{"statNm":"좌2동주민센터","statId":"EV000470","addr":"부산광역시 해운대구 좌동순환로 302","location":"null","lat":"35.1690949","lng":"129.1825964","zcode":"26","zscode":"26350","kind":"A0","kindDetail":"A002"},{"statNm":"연산9동주민센터","statId":"EV000471","addr":"부산광역시 연제구 안연로8번길 지하71","location":"null","lat":"35.1885871","lng":"129.1049091","zcode":"26","zscode":"26470","kind":"A0","kindDetail":"A002"},{"statNm":"모라1동 주민센터","statId":"EV000472","addr":"부산광역시 사상구 백양대로 952","location":"null","lat":"35.1911013","lng":"128.99234","zcode":"26","zscode":"26530","kind":"A0","kindDetail":"A002"},{"statNm":"부산내리휴먼시아 1단지","statId":"EV000664","addr":"부산광역시 기장군 기장읍 소정안길 68 (내리휴먼시아)","location":"null","lat":"35.2064139106","lng":"129.2061859651","zcode":"26","zscode":"26710","kind":"H0","kindDetail":"H001"},{"statNm":"고촌LH3단지","statId":"EV000677","addr":"부산광역시 기장군 철마면 고촌로 58 (고촌 엘에이치 3단지 아파트)","location":"null","lat":"35.2396109469","lng":"129.1681278839","zcode":"26","zscode":"26710","kind":"H0","kindDetail":"H001"},{"statNm":"부산지사휴먼시아","statId":"EV000678","addr":"부산광역시 강서구 과학산단2로20번길 35 (지사동, 부산지사휴먼시아)","location":"null","lat":"35.1510225878","lng":"128.8357335282","zcode":"26","zscode":"26440","kind":"H0","kindDetail":"H001"},{"statNm":"부산괘법1단지","statId":"EV000679","addr":"부산광역시 사상구 광장로21번길 66 (괘법동, 괘법엘에이치아파트)","location":"null","lat":"35.1668229138","lng":"128.9800795297","zcode":"26","zscode":"26530","kind":"H0","kindDetail":"H001"},{"statNm":"부산범천","statId":"EV000680","addr":"부산광역시 부산진구 신암로 66 (범천동, 범천엘에이치아파트)","location":"null","lat":"35.1473864299","lng":"129.0547384096","zcode":"26","zscode":"26230","kind":"H0","kindDetail":"H001"},{"statNm":"부산감전1","statId":"EV000681","addr":"부산광역시 사상구 백양대로 539 (감전동, 감전 엘에이치아파트)","location":"null","lat":"35.1553222444","lng":"128.9942410094","zcode":"26","zscode":"26530","kind":"H0","kindDetail":"H001"},{"statNm":"부산전포LH","statId":"EV000682","addr":"부산광역시 부산진구 중앙대로 862 (전포동, 전포LH아파트)","location":"null","lat":"35.1668993831","lng":"129.0675994923","zcode":"26","zscode":"26230","kind":"H0","kindDetail":"H001"},{"statNm":"해운대LIG건영아파트","statId":"EV001239","addr":"부산광역시 해운대구 좌동순환로217번길 19 (좌동, 엘아이지건영아파트)","location":"null","lat":"35.17812157235","lng":"129.1808479788","zcode":"26","zscode":"26350","kind":"H0","kindDetail":"H001"},{"statNm":"동래센트럴파크하이츠1단지","statId":"EV001505","addr":"부산광역시 동래구 문화로 15 (명륜동, 동래센트럴파크하이츠1차)","location":"null","lat":"35.2112650121","lng":"129.0844170385","zcode":"26","zscode":"26260","kind":"H0","kindDetail":"H001"},{"statNm":"두산위브범일뉴타운","statId":"EV001589","addr":"부산광역시 동구 성남일로 5 (좌천동, 두산위브범일뉴타운)","location":"null","lat":"35.13226382470","lng":"129.0554376853","zcode":"26","zscode":"26170","kind":"H0","kindDetail":"H001"},{"statNm":"국제백양아파트","statId":"EV001761","addr":"부산광역시 부산진구 백양관문로 104 (당감동, 국제백양아파트)","location":"null","lat":"35.16770367013","lng":"129.0281949271","zcode":"26","zscode":"26230","kind":"H0","kindDetail":"H001"},{"statNm":"래미안장전아파트","statId":"EV001762","addr":"부산광역시 금정구 금정로 20 (장전동, 래미안장전)","location":"null","lat":"35.22575967404","lng":"129.0878858608","zcode":"26","zscode":"26410","kind":"H0","kindDetail":"H001"},{"statNm":"대저1동행정복지센터","statId":"EV001809","addr":"부산광역시 강서구 대저로221번길 19","location":"null","lat":"35.215473371221","lng":"128.9766497732","zcode":"26","zscode":"26440","kind":"A0","kindDetail":"A002"},{"statNm":"부산금정문화회관","statId":"EV001821","addr":"부산광역시 금정구 체육공원로 7","location":"null","lat":"35.245624674614","lng":"129.0941869171","zcode":"26","zscode":"26410","kind":"A0","kindDetail":"A004"},{"statNm":"부산남구 유창그린2차","statId":"EV002046","addr":"부산광역시 남구 양지골로 134","location":"null","lat":"35.115201496764","lng":"129.0873607240","zcode":"26","zscode":"26290","kind":"H0","kindDetail":"H001"},{"statNm":"부산북구 만덕그린코아203동","statId":"EV002127","addr":"부산광역시 북구 덕천로234번길 47","location":"null","lat":"35.207955889534","lng":"129.0307796228","zcode":"26","zscode":"26320","kind":"H0","kindDetail":"H001"},{"statNm":"부산북구 만덕그린코아502동","statId":"EV002128","addr":"부산광역시 북구 덕천로234번길 47","location":"null","lat":"35.207297790584","lng":"129.0297201534","zcode":"26","zscode":"26320","kind":"H0","kindDetail":"H001"},{"statNm":"부산해운대 롯데캐슬마린아파트","statId":"EV002129","addr":"부산광역시 해운대구 중동2로34번길 29","location":"null","lat":"35.165588920549","lng":"129.1654132401","zcode":"26","zscode":"26350","kind":"H0","kindDetail":"H001"},{"statNm":"해운대동백두산위브더제니스","statId":"EV002130","addr":"부산광역시 해운대구 해운대로 540","location":"null","lat":"35.159768607559","lng":"129.1511969388","zcode":"26","zscode":"26350","kind":"H0","kindDetail":"H001"},{"statNm":"자매정신요양원","statId":"EV002197","addr":"부산광역시 사하구 사리로 37","location":"null","lat":"35.103429903844","lng":"128.9983315486","zcode":"26","zscode":"26380","kind":"I0","kindDetail":"I001"},{"statNm":"부산연제 거제1차현대홈타운 116동","statId":"EV002303","addr":"부산광역시 연제구 법원북로 34","location":"null","lat":"35.192301164288","lng":"129.0712927120","zcode":"26","zscode":"26470","kind":"H0","kindDetail":"H001"},{"statNm":"부산연제 거제1차현대홈타운 117동","statId":"EV002304","addr":"부산광역시 연제구 법원북로 34","location":"null","lat":"35.192880845027","lng":"129.0711208097","zcode":"26","zscode":"26470","kind":"H0","kindDetail":"H001"},{"statNm":"부산연제 거제1차현대홈타운 118동","statId":"EV002305","addr":"부산광역시 연제구 법원북로 34","location":"null","lat":"35.193558295492","lng":"129.0710282322","zcode":"26","zscode":"26470","kind":"H0","kindDetail":"H001"},{"statNm":"부산연제 거제1차현대홈타운 119동","statId":"EV002306","addr":"부산광역시 연제구 법원북로 34","location":"null","lat":"35.193604643366","lng":"129.0714794995","zcode":"26","zscode":"26470","kind":"H0","kindDetail":"H001"},{"statNm":"부산연제 거제1차현대홈타운 120동","statId":"EV002307","addr":"부산광역시 연제구 법원북로 34","location":"null","lat":"35.192428436121","lng":"129.0711224965","zcode":"26","zscode":"26470","kind":"H0","kindDetail":"H001"},{"statNm":"부산영도 국제마마뉴비치타운 111동 B1","statId":"EV002315","addr":"부산광역시 영도구 중리로 32","location":"null","lat":"35.073380451206","lng":"129.0692384261","zcode":"26","zscode":"26200","kind":"H0","kindDetail":"H001"},{"statNm":"부산영도 국제마마뉴비치타운 112동","statId":"EV002316","addr":"부산광역시 영도구 중리로 32","location":"null","lat":"35.073339985328","lng":"129.0696292837","zcode":"26","zscode":"26200","kind":"H0","kindDetail":"H001"},{"statNm":"부산서구 경동리인타워 102동","statId":"EV002328","addr":"부산광역시 서구 보수대로 27","location":"null","lat":"35.099276144529","lng":"129.0237074180","zcode":"26","zscode":"26140","kind":"H0","kindDetail":"H001"},{"statNm":"부산해운대 현대베네시티아파트","statId":"EV002342","addr":"부산광역시 해운대구 해운대해변로 163","location":"null","lat":"35.158353791102","lng":"129.1511980791","zcode":"26","zscode":"26350","kind":"H0","kindDetail":"H001"},{"statNm":"부산연제 대우그린타워","statId":"EV002346","addr":"부산광역시 연제구 월드컵대로 343","location":"null","lat":"35.187803870411","lng":"129.0613979816","zcode":"26","zscode":"26470","kind":"H0","kindDetail":"H001"},{"statNm":"부산진구 일성인포아파트","statId":"EV002347","addr":"부산광역시 부산진구 신천대로 252","location":"null","lat":"35.164405634854","lng":"129.0510271909","zcode":"26","zscode":"26230","kind":"H0","kindDetail":"H001"},{"statNm":"부산 해운대벽산2차아파트 108동","statId":"EV002348","addr":"부산광역시 해운대구 좌동순환로299번길 11","location":"null","lat":"35.170887326706","lng":"129.1847427016","zcode":"26","zscode":"26350","kind":"H0","kindDetail":"H001"},{"statNm":"부산 해운대벽산2차아파트 111동","statId":"EV002349","addr":"부산광역시 해운대구 좌동순환로299번길 11","location":"null","lat":"35.169808068900","lng":"129.1846260245","zcode":"26","zscode":"26350","kind":"H0","kindDetail":"H001"},{"statNm":"부산 해운대비치베르빌","statId":"EV002357","addr":"부산광역시 해운대구 해운대해변로 348","location":"null","lat":"35.163121342314","lng":"129.1680966624","zcode":"26","zscode":"26350","kind":"H0","kindDetail":"H001"},{"statNm":"부산 청룡동경동아파트2차아파트","statId":"EV002360","addr":"부산광역시 금정구 청룡예전로 100-12","location":"null","lat":"35.279570765448","lng":"129.0853182105","zcode":"26","zscode":"26410","kind":"H0","kindDetail":"H001"},{"statNm":"해운대 더샵센텀파크1차아파트","statId":"EV002369","addr":"부산광역시 해운대구 센텀중앙로 145","location":"null","lat":"35.176758576817","lng":"129.1235915382","zcode":"26","zscode":"26350","kind":"H0","kindDetail":"H001"},{"statNm":"부산 장전1동주민센터","statId":"EV002376","addr":"부산광역시 금정구 수림로71번길 36","location":"null","lat":"35.238193743206","lng":"129.0844865872","zcode":"26","zscode":"26410","kind":"A0","kindDetail":"A001"},{"statNm":"부산 가락타운1단지101동","statId":"EV002417","addr":"부산광역시 사하구 하신번영로 365","location":"null","lat":"35.108159365160","lng":"128.9580265466","zcode":"26","zscode":"26380","kind":"H0","kindDetail":"H001"},{"statNm":"부산 가락타운1단지106동","statId":"EV002418","addr":"부산광역시 사하구 하신번영로 365","location":"null","lat":"35.110297759247","lng":"128.9585361294","zcode":"26","zscode":"26380","kind":"H0","kindDetail":"H001"},{"statNm":"부산 가락타운1단지114동","statId":"EV002419","addr":"부산광역시 사하구 하신번영로 365","location":"null","lat":"35.112915383085","lng":"128.9592809472","zcode":"26","zscode":"26380","kind":"H0","kindDetail":"H001"},{"statNm":"부산 가락타운1단지116동","statId":"EV002420","addr":"부산광역시 사하구 하신번영로 365","location":"null","lat":"35.113957696128","lng":"128.9594704178","zcode":"26","zscode":"26380","kind":"H0","kindDetail":"H001"},{"statNm":"부산 거제유림노르웨이숲101동","statId":"EV002425","addr":"부산광역시 연제구 거제대로136번길 30","location":"null","lat":"35.179797135915","lng":"129.0705307902","zcode":"26","zscode":"26470","kind":"H0","kindDetail":"H001"},{"statNm":"부산 거제유림노르웨이숲201동","statId":"EV002426","addr":"부산광역시 연제구 거제대로136번길 30","location":"null","lat":"35.180352777848","lng":"129.0709213652","zcode":"26","zscode":"26470","kind":"H0","kindDetail":"H001"},{"statNm":"강동동행정복지센터","statId":"EV002562","addr":"부산광역시 강서구 제도로 1171","location":"null","lat":"35.214524122846","lng":"128.9352671863","zcode":"26","zscode":"26440","kind":"A0","kindDetail":"A002"},{"statNm":"대저2동행정복지센터","statId":"EV002563","addr":"부산광역시 강서구 공항로811번가길 30-1","location":"null","lat":"35.178550471986","lng":"128.9564845530","zcode":"26","zscode":"26440","kind":"A0","kindDetail":"A002"},{"statNm":"서3동행정복지센터","statId":"EV002564","addr":"부산광역시 금정구 서곡로33번길 9","location":"null","lat":"35.217199334853","lng":"129.1039304085","zcode":"26","zscode":"26410","kind":"A0","kindDetail":"A002"},{"statNm":"전기안전공사 부산울산지역본부","statId":"EV002567","addr":"부산광역시 중구 해관로 27","location":"null","lat":"35.101372560026","lng":"129.0355290843","zcode":"26","zscode":"26110","kind":"A0","kindDetail":"A003"},{"statNm":"광안동삼정그린코아아파트","statId":"EV002699","addr":"부산광역시 수영구 수영로540번길 57","location":"null","lat":"35.153439299949","lng":"129.1156249505","zcode":"26","zscode":"26500","kind":"H0","kindDetail":"H001"},{"statNm":"부산수영 광안더샵아파트","statId":"EV002707","addr":"부산광역시 수영구 수영로 506","location":"null","lat":"35.150844375211","lng":"129.1116780661","zcode":"26","zscode":"26500","kind":"H0","kindDetail":"H001"},{"statNm":"부산 아시아선수촌아파트1","statId":"EV002708","addr":"부산광역시 해운대구 선수촌로 122","location":"null","lat":"35.2031627","lng":"129.120579","zcode":"26","zscode":"26350","kind":"H0","kindDetail":"H001"},{"statNm":"부산 아시아선수촌아파트2","statId":"EV002709","addr":"부산광역시 해운대구 선수촌로 122","location":"null","lat":"35.2038697","lng":"129.1216799","zcode":"26","zscode":"26350","kind":"H0","kindDetail":"H001"},{"statNm":"부산 아시아선수촌아파트3","statId":"EV002710","addr":"부산광역시 해운대구 선수촌로 122","location":"null","lat":"35.2020499","lng":"129.1218565","zcode":"26","zscode":"26350","kind":"H0","kindDetail":"H001"},{"statNm":"경남 거제센트럴자이105동B2","statId":"EV002712","addr":"부산광역시 연제구 법원북로 93","location":"null","lat":"35.192949176115","lng":"129.0766004294","zcode":"26","zscode":"26470","kind":"H0","kindDetail":"H001"},{"statNm":"경남 거제센트럴자이102동","statId":"EV002713","addr":"부산광역시 연제구 법원북로 93","location":"null","lat":"35.192761870245","lng":"129.0770128135","zcode":"26","zscode":"26470","kind":"H0","kindDetail":"H001"},{"statNm":"경남 거제센트럴자이105동B1","statId":"EV002714","addr":"부산광역시 연제구 법원북로 93","location":"null","lat":"35.192906208605","lng":"129.0764785807","zcode":"26","zscode":"26470","kind":"H0","kindDetail":"H001"},{"statNm":"부산 동래2차에스케이뷰아파트","statId":"EV002750","addr":"부산광역시 동래구 금강로 48","location":"null","lat":"35.212975908710","lng":"129.0765241486","zcode":"26","zscode":"26260","kind":"H0","kindDetail":"H001"},{"statNm":"부산사상 엄궁한신1차아파트","statId":"EV002751","addr":"부산광역시 사상구 낙동대로 712-17","location":"null","lat":"35.125198512364","lng":"128.9687341719","zcode":"26","zscode":"26530","kind":"H0","kindDetail":"H001"},{"statNm":"부산 온천동반도보라스카이뷰1","statId":"EV002754","addr":"부산광역시 동래구 아시아드대로 234","location":"null","lat":"35.2044523","lng":"129.0684502","zcode":"26","zscode":"26260","kind":"H0","kindDetail":"H001"},{"statNm":"부산 온천동반도보라스카이뷰2","statId":"EV002755","addr":"부산광역시 동래구 아시아드대로 234","location":"null","lat":"35.2039484","lng":"129.0690391","zcode":"26","zscode":"26260","kind":"H0","kindDetail":"H001"},{"statNm":"부산남구 대연삼성아파트103동","statId":"EV002757","addr":"부산광역시 남구 신선로 490","location":"null","lat":"35.128403755661","lng":"129.1040168051","zcode":"26","zscode":"26290","kind":"H0","kindDetail":"H001"},{"statNm":"부산남구 대연삼성아파트102동","statId":"EV002758","addr":"부산광역시 남구 신선로 490","location":"null","lat":"35.127993675700","lng":"129.1034490323","zcode":"26","zscode":"26290","kind":"H0","kindDetail":"H001"},{"statNm":"부산수영 비치그린아파트","statId":"EV002773","addr":"부산광역시 수영구 광일로 49","location":"null","lat":"35.163077233233","lng":"129.1092641082","zcode":"26","zscode":"26500","kind":"H0","kindDetail":"H001"},{"statNm":"부산남구 중앙하이츠","statId":"EV002889","addr":"부산광역시 남구 유엔로 46","location":"null","lat":"35.1264481","lng":"129.0821167","zcode":"26","zscode":"26290","kind":"H0","kindDetail":"H001"},{"statNm":"부산남구 중앙하이츠(분전반우측)","statId":"EV002890","addr":"부산광역시 남구 유엔로 46","location":"null","lat":"35.126444722569","lng":"129.0823141212","zcode":"26","zscode":"26290","kind":"H0","kindDetail":"H001"},{"statNm":"부산금정 부곡SK아파트104동","statId":"EV002924","addr":"부산광역시 금정구 수림로 12","location":"null","lat":"35.240171889276","lng":"129.0905894429","zcode":"26","zscode":"26410","kind":"H0","kindDetail":"H001"},{"statNm":"부산금정 부곡SK아파트105동","statId":"EV002925","addr":"부산광역시 금정구 수림로 12","location":"null","lat":"35.240344811083","lng":"129.0920547649","zcode":"26","zscode":"26410","kind":"H0","kindDetail":"H001"},{"statNm":"부산해운대 센텀롯데캐슬104동","statId":"EV002970","addr":"부산광역시 해운대구 반여로 133","location":"null","lat":"35.204646073731","lng":"129.1228354245","zcode":"26","zscode":"26350","kind":"H0","kindDetail":"H001"},{"statNm":"부산해운대 센텀롯데캐슬105동","statId":"EV002971","addr":"부산광역시 해운대구 반여로 133","location":"null","lat":"35.205099094777","lng":"129.1232095344","zcode":"26","zscode":"26350","kind":"H0","kindDetail":"H001"},{"statNm":"부산해운대 센텀롯데캐슬112동","statId":"EV002972","addr":"부산광역시 해운대구 반여로 133","location":"null","lat":"35.204106662633","lng":"129.1243035607","zcode":"26","zscode":"26350","kind":"H0","kindDetail":"H001"},{"statNm":"부산해운대 센텀롯데캐슬111동","statId":"EV002973","addr":"부산광역시 해운대구 반여로 133","location":"null","lat":"35.203712844476","lng":"129.1241505729","zcode":"26","zscode":"26350","kind":"H0","kindDetail":"H001"},{"statNm":"센텀수영강변1차e편한세상 102동","statId":"EV003158","addr":"부산광역시 수영구 좌수영로 176","location":"null","lat":"35.179320399364","lng":"129.1176829824","zcode":"26","zscode":"26500","kind":"H0","kindDetail":"H001"},{"statNm":"센텀수영강변1차e편한세상 105동","statId":"EV003159","addr":"부산광역시 수영구 좌수영로 176","location":"null","lat":"35.180162199479","lng":"129.1171604213","zcode":"26","zscode":"26500","kind":"H0","kindDetail":"H001"},{"statNm":"부산수영_센텀비스타동원아파트105동","statId":"EV003284","addr":"부산광역시 수영구 수영로 754","location":"null","lat":"35.165108409280","lng":"129.1210278966","zcode":"26","zscode":"26500","kind":"H0","kindDetail":"H001"},{"statNm":"부산수영_센텀비스타동원아파트104동","statId":"EV003285","addr":"부산광역시 수영구 수영로 754","location":"null","lat":"35.165614360407","lng":"129.1209532475","zcode":"26","zscode":"26500","kind":"H0","kindDetail":"H001"},{"statNm":"부산수영_센텀비스타동원아파트101동","statId":"EV003286","addr":"부산광역시 수영구 수영로 754","location":"null","lat":"35.167248929080","lng":"129.1208003670","zcode":"26","zscode":"26500","kind":"H0","kindDetail":"H001"},{"statNm":"부산기장_고촌LH아파트210동","statId":"EV003287","addr":"부산광역시 기장군 철마면 고촌로 11","location":"null","lat":"35.238900576638","lng":"129.1717105231","zcode":"26","zscode":"26710","kind":"H0","kindDetail":"H001"},{"statNm":"부산기장_고촌LH아파트208동","statId":"EV003288","addr":"부산광역시 기장군 철마면 고촌로 11","location":"null","lat":"35.239084105981","lng":"129.1702710590","zcode":"26","zscode":"26710","kind":"H0","kindDetail":"H001"},{"statNm":"부산수영_광안SK뷰아파트105동","statId":"EV003300","addr":"부산광역시 수영구 광안로 12","location":"null","lat":"35.15622583741","lng":"129.11391186513","zcode":"26","zscode":"26500","kind":"H0","kindDetail":"H001"},{"statNm":"부산수영_광안SK뷰아파트103동","statId":"EV003301","addr":"부산광역시 수영구 광안로 12","location":"null","lat":"35.156730722564","lng":"129.1133817801","zcode":"26","zscode":"26500","kind":"H0","kindDetail":"H001"},{"statNm":"부산_동래2차에스케이뷰아파트201동","statId":"EV003302","addr":"부산광역시 동래구 금강로 48","location":"null","lat":"35.213586923968","lng":"129.0765221457","zcode":"26","zscode":"26260","kind":"H0","kindDetail":"H001"},{"statNm":"부산북구_화명동롯데캐슬멤버스","statId":"EV003318","addr":"부산광역시 북구 금곡대로 240","location":"null","lat":"35.229837885578","lng":"129.0134247321","zcode":"26","zscode":"26320","kind":"H0","kindDetail":"H001"},{"statNm":"부산동구_진흥마제스타워범일","statId":"EV003366","addr":"부산광역시 동구 자성로133번길 6","location":"null","lat":"35.137789722114","lng":"129.0652425896","zcode":"26","zscode":"26170","kind":"H0","kindDetail":"H001"},{"statNm":"신개금엘지아파트1단지210동","statId":"EV003396","addr":"부산광역시 부산진구 백양대로300번길 19","location":"null","lat":"35.155806970643","lng":"129.0199140176","zcode":"26","zscode":"26230","kind":"H0","kindDetail":"H001"},{"statNm":"신개금엘지아파트2단지104동","statId":"EV003397","addr":"부산광역시 부산진구 백양대로300번길 20","location":"null","lat":"35.155631548112","lng":"129.0174627391","zcode":"26","zscode":"26230","kind":"H0","kindDetail":"H001"},{"statNm":"신개금엘지아파트2단지101동","statId":"EV003398","addr":"부산광역시 부산진구 백양대로300번길 20","location":"null","lat":"35.154685031424","lng":"129.0180209167","zcode":"26","zscode":"26230","kind":"H0","kindDetail":"H001"},{"statNm":"부산 해운대_현대일성2차아파트","statId":"EV003636","addr":"부산광역시 해운대구 재반로226번길 72","location":"105동 지하1층 주차장 11기둥","lat":"35.197021888","lng":"129.13357086","zcode":"26","zscode":"26350","kind":"H0","kindDetail":"H001"},{"statNm":"SK텔레콤 부산부암사옥1","statId":"EV003664","addr":"부산광역시 부산진구 신천대로 258","location":".","lat":"35.164985138","lng":"129.05076849","zcode":"26","zscode":"26230","kind":"H0","kindDetail":"H003"},{"statNm":"SK텔레콤 부산부암사옥2","statId":"EV003694","addr":"부산광역시 부산진구 신천대로 258","location":".","lat":"35.164985138","lng":"129.05076849","zcode":"26","zscode":"26230","kind":"H0","kindDetail":"H003"},{"statNm":"삼환아파트1","statId":"EV003707","addr":"부산광역시 부산진구 백양대로208번길 133","location":"202동 지하1층 주차장","lat":"35.162126462","lng":"129.02334485","zcode":"26","zscode":"26230","kind":"H0","kindDetail":"H001"},{"statNm":"삼환아파트2","statId":"EV003708","addr":"부산광역시 부산진구 백양대로208번길 133","location":"201동 지하1층 주차장","lat":"35.162126462","lng":"129.02334485","zcode":"26","zscode":"26230","kind":"H0","kindDetail":"H001"},{"statNm":"부산강서_세진볼트공업","statId":"EV003734","addr":"부산광역시 강서구 녹산산단261로14번길 17-25","location":"정문 주차장","lat":"35.0923425","lng":"128.8475358","zcode":"26","zscode":"26440","kind":"H0","kindDetail":"H003"},{"statNm":"연산한양타워아파트1","statId":"EV003743","addr":"부산광역시 연제구 과정로344번길 22","location":"지상주차장","lat":"35.190444546","lng":"129.09272608","zcode":"26","zscode":"26470","kind":"H0","kindDetail":"H001"},{"statNm":"부산영도구_유진캐슬아파트","statId":"EV003917","addr":"부산광역시 영도구 봉래길 92-4","location":"null","lat":"35.091397943","lng":"129.05158324","zcode":"26","zscode":"26200","kind":"H0","kindDetail":"H001"},{"statNm":"광안현대하이페리온","statId":"EV003929","addr":"부산광역시 수영구 광남로223번길 31","location":"지하주차장 정문 맞은편 13기둥 좌측","lat":"35.162057038","lng":"129.12202513","zcode":"26","zscode":"26500","kind":"H0","kindDetail":"H001"},{"statNm":"해운대 월드트럼프마린","statId":"EV003932","addr":"부산광역시 해운대구 마린시티2로 47","location":"null","lat":"35.154826179","lng":"129.14324343","zcode":"26","zscode":"26350","kind":"H0","kindDetail":"H001"},{"statNm":"부산금정_부곡우신뉴타운아파트1","statId":"EV003938","addr":"부산광역시 금정구 중앙대로1667번길 8","location":"102동 지하주차장 1,2라인 우측기둥","lat":"35.234061170","lng":"129.09009671","zcode":"26","zscode":"26410","kind":"H0","kindDetail":"H001"},{"statNm":"부산남구_감만동일스위트아파트1","statId":"EV003942","addr":"부산광역시 남구 우암로104번길 29","location":"9동 지하주차장 P9-M 분전반 우측","lat":"35.119142693","lng":"129.08325778","zcode":"26","zscode":"26290","kind":"H0","kindDetail":"H001"},{"statNm":"부산남구_감만동일스위트아파트2","statId":"EV003947","addr":"부산광역시 남구 우암로104번길 29","location":"8동 지하주차장 L8-M 분전반 좌측","lat":"35.119142693","lng":"129.08325778","zcode":"26","zscode":"26290","kind":"H0","kindDetail":"H001"},{"statNm":"부산금정_부곡우신뉴타운아파트2","statId":"EV003949","addr":"부산광역시 금정구 중앙대로1667번길 8","location":"101동 103동 지하주차장 분전반 좌측","lat":"35.234061170","lng":"129.09009671","zcode":"26","zscode":"26410","kind":"H0","kindDetail":"H001"},{"statNm":"부산남구_장백장미타워","statId":"EV004009","addr":"부산광역시 남구 황령대로319번길 120","location":"지하주차장","lat":"35.149007005","lng":"129.09125681","zcode":"26","zscode":"26290","kind":"H0","kindDetail":"H001"},{"statNm":"부산강서 명지더샵퍼스트월드2단지 201동","statId":"EV004094","addr":"부산광역시 강서구 명지국제7로 37","location":"201동 지하2층 주차장 202기둥 좌측","lat":"35.097514402","lng":"128.90533447","zcode":"26","zscode":"26440","kind":"H0","kindDetail":"H001"},{"statNm":"부산강서 명지더샵퍼스트월드2단지 203동","statId":"EV004095","addr":"부산광역시 강서구 명지국제7로 37","location":"203동 지하2층 주차장 H14 기둥 우측","lat":"35.097514402","lng":"128.90533447","zcode":"26","zscode":"26440","kind":"H0","kindDetail":"H001"},{"statNm":"부산강서 명지더샵퍼스트월드2단지 206동","statId":"EV004096","addr":"부산광역시 강서구 명지국제7로 37","location":"206동 지하2층 주차장 09기둥 좌측 벽면","lat":"35.097514402","lng":"128.90533447","zcode":"26","zscode":"26440","kind":"H0","kindDetail":"H001"},{"statNm":"부산강서 명지더샵퍼스트월드2단지 210동","statId":"EV004097","addr":"부산광역시 강서구 명지국제7로 37","location":"210동 지하2층 비상벨 기둥 우측","lat":"35.097514402","lng":"128.90533447","zcode":"26","zscode":"26440","kind":"H0","kindDetail":"H001"},{"statNm":"부산해운대 센텀동국아파트102동","statId":"EV004098","addr":"부산광역시 해운대구 재송2로 91","location":"2동 3동 사이 18기둥 17기둥 사이","lat":"35.193434009","lng":"129.13423930","zcode":"26","zscode":"26350","kind":"H0","kindDetail":"H001"},{"statNm":"부산해운대 센텀동국아파트103동","statId":"EV004099","addr":"부산광역시 해운대구 재송2로 91","location":"103동 30,29번 기둥 좌,우 벽면","lat":"35.193434009","lng":"129.13423930","zcode":"26","zscode":"26350","kind":"H0","kindDetail":"H001"},{"statNm":"부산해운대 아시아선수촌아파트 3주차장","statId":"EV004138","addr":"부산광역시 해운대구 선수촌로 122","location":"3주차장 지하1층A110기둥 우측","lat":"35.203871411","lng":"129.12168133","zcode":"26","zscode":"26350","kind":"H0","kindDetail":"H001"},{"statNm":"부산해운대 아시아선수촌아파트 2주차장","statId":"EV004139","addr":"부산광역시 해운대구 선수촌로 122","location":"2주차장 지하1층 106기둥 좌측","lat":"35.203871411","lng":"129.12168133","zcode":"26","zscode":"26350","kind":"H0","kindDetail":"H001"},{"statNm":"부산해운대 아시아선수촌아파트 6C주차장","statId":"EV004140","addr":"부산광역시 해운대구 선수촌로 122","location":"6C주차장 지하2층 C226기둥 우측","lat":"35.2038714","lng":"129.1216813","zcode":"26","zscode":"26350","kind":"H0","kindDetail":"H001"},{"statNm":"부산해운대 아시아선수촌아파트 5B주차장","statId":"EV004141","addr":"부산광역시 해운대구 선수촌로 122","location":"5B주차장 지하2층 B111기둥 우측","lat":"35.203871411","lng":"129.12168133","zcode":"26","zscode":"26350","kind":"H0","kindDetail":"H001"},{"statNm":"부산해운대 아시아선수촌아파트 4B주차장","statId":"EV004142","addr":"부산광역시 해운대구 선수촌로 122","location":"4B주차장 지하2층 B201기둥 우측","lat":"35.2038714","lng":"129.1216813","zcode":"26","zscode":"26350","kind":"H0","kindDetail":"H001"},{"statNm":"부산해운대 롯데캐슬스타1","statId":"EV004152","addr":"부산광역시 해운대구 중동2로34번길 15","location":"102동 지하2층 26기둥 좌/우","lat":"35.165539407","lng":"129.16315680","zcode":"26","zscode":"26350","kind":"H0","kindDetail":"H001"},{"statNm":"부산해운대 롯데캐슬스타2","statId":"EV004153","addr":"부산광역시 해운대구 중동2로34번길 15","location":"102동 지하4층 27기둥 우측벽면","lat":"35.165539407","lng":"129.16315680","zcode":"26","zscode":"26350","kind":"H0","kindDetail":"H001"},{"statNm":"부산해운대 롯데캐슬스타3","statId":"EV004154","addr":"부산광역시 해운대구 중동2로34번길 15","location":"오피스텔 지상1층 분전반 좌측벽면","lat":"35.165539407","lng":"129.16315680","zcode":"26","zscode":"26350","kind":"H0","kindDetail":"H001"},{"statNm":"부산진구 유림노르웨이숲아파트 103동","statId":"EV004155","addr":"부산광역시 부산진구 성지로62번길 8","location":"103동 지하2층 1기둥 좌-우, 2기둥 좌-우","lat":"35.175295678","lng":"129.05553651","zcode":"26","zscode":"26230","kind":"H0","kindDetail":"H001"},{"statNm":"부산동래 온천대동다숲","statId":"EV004156","addr":"부산광역시 동래구 금정마을로 120","location":"2동 지하2층주차장 변전실~2라인 우측","lat":"35.210998625","lng":"129.06673591","zcode":"26","zscode":"26260","kind":"H0","kindDetail":"H001"},{"statNm":"부산해운대 재송금호아파트","statId":"EV004162","addr":"부산광역시 해운대구 재반로 141","location":"101동 지하2층 변전실앞 맞은편 벽면","lat":"35.191607694","lng":"129.12686980","zcode":"26","zscode":"26350","kind":"H0","kindDetail":"H001"},{"statNm":"부산금정 래미안장전아파트 101동","statId":"EV004163","addr":"부산광역시 금정구 금정로 20","location":"101동 지하2층 휀룸실 앞 좌측벽면","lat":"35.227592277","lng":"129.08674014","zcode":"26","zscode":"26410","kind":"H0","kindDetail":"H001"},{"statNm":"부산금정 래미안장전아파트 108동","statId":"EV004165","addr":"부산광역시 금정구 금정로 20","location":"108동 뒤 지하2층 휀룸실 우측벽면","lat":"35.227592277","lng":"129.08674014","zcode":"26","zscode":"26410","kind":"H0","kindDetail":"H001"},{"statNm":"부산강서 명지롯데캐슬아파트 112동","statId":"EV004171","addr":"부산광역시 강서구 명지오션시티11로 84","location":"지하1층 L19기둥 좌/우","lat":"35.082413117","lng":"128.90653072","zcode":"26","zscode":"26440","kind":"H0","kindDetail":"H001"},{"statNm":"부산강서 명지롯데캐슬아파트 105동","statId":"EV004172","addr":"부산광역시 강서구 명지오션시티11로 84","location":"지하1층 E23번 기둥 우측","lat":"35.082354488","lng":"128.90567423","zcode":"26","zscode":"26440","kind":"H0","kindDetail":"H001"},{"statNm":"부산강서 명지롯데캐슬아파트 109동","statId":"EV004173","addr":"부산광역시 강서구 명지오션시티11로 84","location":"109동 지하1층 07번기둥 우측","lat":"35.083898347","lng":"128.90664204","zcode":"26","zscode":"26440","kind":"H0","kindDetail":"H001"},{"statNm":"부산해운대 선프라자아파트","statId":"EV004189","addr":"부산광역시 해운대구 마린시티3로 1","location":"지하4층 변전실～44번기둥 우측","lat":"35.157859861","lng":"129.14754823","zcode":"26","zscode":"26350","kind":"H0","kindDetail":"H001"},{"statNm":"부산남구 문현동현대아파트 10동","statId":"EV004193","addr":"부산광역시 남구 진남로198번길 9-1","location":"10동 , B3 지하3층 분전함 옆","lat":"35.144444390","lng":"129.07959859","zcode":"26","zscode":"26290","kind":"H0","kindDetail":"H001"},{"statNm":"부산남구 문현동현대아파트 9동","statId":"EV004194","addr":"부산광역시 남구 진남로198번길 9-1","location":"9동 , B2지하 2층 기둥 뒤쪽","lat":"35.144444390","lng":"129.07959859","zcode":"26","zscode":"26290","kind":"H0","kindDetail":"H001"},{"statNm":"부산남구 문현동현대아파트 8동","statId":"EV004195","addr":"부산광역시 남구 진남로198번길 9-1","location":"8동 , B3 지하3층 기둥 좌측 우측","lat":"35.144444390","lng":"129.07959859","zcode":"26","zscode":"26290","kind":"H0","kindDetail":"H001"},{"statNm":"부산수영 오션브릿지관리단","statId":"EV004215","addr":"부산광역시 수영구 광안해변로278번길 42","location":"지하2층 기계실 앞 벽면","lat":"35.153970441","lng":"129.12451502","zcode":"26","zscode":"26500","kind":"H0","kindDetail":"H001"},{"statNm":"부산수영 e편한세상광안비치아파트","statId":"EV004224","addr":"부산광역시 수영구 민락수변로7번길 60","location":"102동 지하2층 변전실좌측","lat":"35.155517992","lng":"129.12652221","zcode":"26","zscode":"26500","kind":"H0","kindDetail":"H001"},{"statNm":"부산진구 금강펜테리움더스퀘어 101동","statId":"EV004242","addr":"부산광역시 부산진구 가야대로 450","location":"101동 지하3층 휀룸실 PNL～E24기둥 좌측 벽면","lat":"35.152841645","lng":"129.02123891","zcode":"26","zscode":"26230","kind":"H0","kindDetail":"H001"},{"statNm":"부산진구 금강펜테리움더스퀘어 102동","statId":"EV004243","addr":"부산광역시 부산진구 가야대로 450","location":"102동 지하3층 휀룸실 PNL～휀룸실 우측 좌/우","lat":"35.152841645","lng":"129.02123891","zcode":"26","zscode":"26230","kind":"H0","kindDetail":"H001"},{"statNm":"부산해운대 대우월드마크센텀 104동 B4","statId":"EV004256","addr":"부산광역시 해운대구 센텀동로 25","location":"104동 지하4층 앞 휀룸실~ 4번기둥 우측","lat":"35.1719092","lng":"129.1314366","zcode":"26","zscode":"26350","kind":"H0","kindDetail":"H001"},{"statNm":"부산해운대 대우월드마크센텀 101동 B4","statId":"EV004257","addr":"부산광역시 해운대구 센텀동로 25","location":"101동 지하4층 앞 휀룸실~4번기둥 좌/우","lat":"35.1719092","lng":"129.1314366","zcode":"26","zscode":"26350","kind":"H0","kindDetail":"H001"},{"statNm":"부산해운대 대우월드마크센텀 101동 B3","statId":"EV004258","addr":"부산광역시 해운대구 센텀동로 25","location":"101동 지하3층 앞 휀룸실~7번기둥 좌측","lat":"35.171909170","lng":"129.13143657","zcode":"26","zscode":"26350","kind":"H0","kindDetail":"H001"},{"statNm":"부산해운대 대우월드마크센텀 103동 B3","statId":"EV004259","addr":"부산광역시 해운대구 센텀동로 25","location":"103동 지하3층 앞 휀룸실~6번기둥 좌측","lat":"35.171909170","lng":"129.13143657","zcode":"26","zscode":"26350","kind":"H0","kindDetail":"H001"},{"statNm":"부산북구 e편한세상화명힐스1","statId":"EV004280","addr":"부산광역시 북구 화명대로 68","location":"103동 지하4층 휀실 B4-2분전함에서 36-37 각각","lat":"35.234132377","lng":"129.01407401","zcode":"26","zscode":"26320","kind":"H0","kindDetail":"H001"},{"statNm":"부산북구 e편한세상화명힐스2","statId":"EV004281","addr":"부산광역시 북구 화명대로 68","location":"101동 지하 2층 휀실 B2-2분전함에서 기둥 27 좌,우측","lat":"35.234132377","lng":"129.01407401","zcode":"26","zscode":"26320","kind":"H0","kindDetail":"H001"},{"statNm":"부산북구 e편한세상화명힐스3","statId":"EV004282","addr":"부산광역시 북구 화명대로 68","location":"104동 지하2층 휀실 B2-2분전함에서 39-40","lat":"35.234132377","lng":"129.01407401","zcode":"26","zscode":"26320","kind":"H0","kindDetail":"H001"},{"statNm":"부산북구 e편한세상화명힐스4","statId":"EV004283","addr":"부산광역시 북구 화명대로 68","location":"108동 지하2층 휀실 B2-2분전함에서 기둥 좌,우측","lat":"35.234132377","lng":"129.014074","zcode":"26","zscode":"26320","kind":"H0","kindDetail":"H001"},{"statNm":"부산북구 e편한세상화명힐스5","statId":"EV004284","addr":"부산광역시 북구 화명대로 68","location":"201동 지하2층 휀실 B2-1분전함에서 06좌측","lat":"35.234132377","lng":"129.01407401","zcode":"26","zscode":"26320","kind":"H0","kindDetail":"H001"},{"statNm":"부산기장 정관풀리페아파트","statId":"EV004322","addr":"부산광역시 기장군 정관읍 정관5로 144","location":"102동지하1층 E11기둥옆, 107동 지하1층 B49기둥옆, 111동지하1층 A17기둥뒤","lat":"35.329044728","lng":"129.17955185","zcode":"26","zscode":"26710","kind":"H0","kindDetail":"H001"},{"statNm":"부산강서 명지오션시티한신휴플러스101동","statId":"EV004323","addr":"부산광역시 강서구 명지오션시티1로 155","location":"101동 지하1층 휀룸실 좌측","lat":"35.080814074","lng":"128.90112776","zcode":"26","zscode":"26440","kind":"H0","kindDetail":"H001"},{"statNm":"부산강서 명지오션시티한신휴플러스112동","statId":"EV004324","addr":"부산광역시 강서구 명지오션시티1로 155","location":"112동 지하1층 휀룸실 좌측","lat":"35.080814074","lng":"128.90112776","zcode":"26","zscode":"26440","kind":"H0","kindDetail":"H001"},{"statNm":"부산강서 명지오션시티한신휴플러스123동","statId":"EV004325","addr":"부산광역시 강서구 명지오션시티1로 155","location":"123동 지하1층 휀룸실 좌측","lat":"35.080814074","lng":"128.90112776","zcode":"26","zscode":"26440","kind":"H0","kindDetail":"H001"},{"statNm":"부산진구 범천경남아파트","statId":"EV004343","addr":"부산광역시 부산진구 신암로 32","location":"103동 지하2층 3,4라인 B2 67,68기둥 뒤 벽면","lat":"35.145925185","lng":"129.05667147","zcode":"26","zscode":"26230","kind":"H0","kindDetail":"H001"},{"statNm":"부산동래 온천동반도보라스카이뷰1","statId":"EV004376","addr":"부산광역시 동래구 아시아드대로 234","location":"지하3층 G01기둥 좌/우","lat":"35.2039471","lng":"129.0690406","zcode":"26","zscode":"26260","kind":"H0","kindDetail":"H001"},{"statNm":"부산동래 온천동반도보라스카이뷰2","statId":"EV004377","addr":"부산광역시 동래구 아시아드대로 234","location":"지하3층 B05기둥 우측","lat":"35.2039471","lng":"129.0690406","zcode":"26","zscode":"26260","kind":"H0","kindDetail":"H001"},{"statNm":"부산금정 부곡쌍용아파트 104동","statId":"EV004428","addr":"부산광역시 금정구 수림로 25","location":"104동 지하1층 기둥3~5사이 벽면","lat":"35.239118906","lng":"129.08870568","zcode":"26","zscode":"26410","kind":"H0","kindDetail":"H001"},{"statNm":"부산진구 태화현대1차아파트1","statId":"EV004450","addr":"부산광역시 부산진구 가야대로 635-20","location":"A주차장 지하 1층 A20기둥 우측","lat":"35.1569688","lng":"129.0422729","zcode":"26","zscode":"26230","kind":"H0","kindDetail":"H001"},{"statNm":"부산진구 태화현대1차아파트2","statId":"EV004451","addr":"부산광역시 부산진구 가야대로 635-20","location":"지하1층 26번기둥 좌측 끝벽면,26번기둥 우측 벽면,27번기둥 우측 벽면","lat":"35.1569688","lng":"129.0422729","zcode":"26","zscode":"26230","kind":"H0","kindDetail":"H001"},{"statNm":"부산연제구 거제현대타운 전기실 옆","statId":"EV004489","addr":"부산광역시 연제구 아시아드대로46번길 15","location":"101동 지하1층 전기실 옆 주차자리 2,4,6 번째에","lat":"35.189227631","lng":"129.06891900","zcode":"26","zscode":"26470","kind":"H0","kindDetail":"H001"},{"statNm":"부산연제구 거제현대타운 기계실 옆","statId":"EV004490","addr":"부산광역시 연제구 아시아드대로46번길 15","location":"지하1층 기계실 옆 주차장 2,3번","lat":"35.189227631","lng":"129.06891900","zcode":"26","zscode":"26470","kind":"H0","kindDetail":"H001"},{"statNm":"부산남구 우암5차자유아파트","statId":"EV004500","addr":"부산광역시 남구 양지골로 358","location":"지하1층 기존정화조PNL～관리실 출입구 좌측","lat":"35.122845088","lng":"129.08577892","zcode":"26","zscode":"26290","kind":"H0","kindDetail":"H001"},{"statNm":"부산해운대구 센텀삼환아파트","statId":"EV004504","addr":"부산광역시 해운대구 해운대로 361","location":"104동 지하2층 휀룸실 좌측벽면","lat":"35.172387552","lng":"129.13861890","zcode":"26","zscode":"26350","kind":"H0","kindDetail":"H001"},{"statNm":"부산해운대구 두산1차아파트 112동","statId":"EV004505","addr":"부산광역시 해운대구 양운로 182","location":"112동 지하1층 비상계단우측 첫 번째기둥 우측","lat":"35.178708158","lng":"129.16994307","zcode":"26","zscode":"26350","kind":"H0","kindDetail":"H001"},{"statNm":"부산해운대구 두산1차아파트 109동","statId":"EV004506","addr":"부산광역시 해운대구 양운로 182","location":"109동 지하1층 비상계단우측 첫 번째 기둥 우측","lat":"35.178708158","lng":"129.16994307","zcode":"26","zscode":"26350","kind":"H0","kindDetail":"H001"},{"statNm":"부산해운대구 두산1차아파트 101동","statId":"EV004507","addr":"부산광역시 해운대구 양운로 182","location":"101동지하1층 비상계단우측 첫 번째 기둥 좌/우","lat":"35.178708158","lng":"129.16994307","zcode":"26","zscode":"26350","kind":"H0","kindDetail":"H001"},{"statNm":"부산해운대구 두산1차아파트 103동","statId":"EV004508","addr":"부산광역시 해운대구 양운로 182","location":"103동 지하1층 비상계단우측 주차면","lat":"35.178708158","lng":"129.16994307","zcode":"26","zscode":"26350","kind":"H0","kindDetail":"H001"},{"statNm":"부산해운대구 두산1차아파트 108동","statId":"EV004509","addr":"부산광역시 해운대구 양운로 182","location":"108동 지하2층 비상계단 우측 주차면","lat":"35.178708158","lng":"129.16994307","zcode":"26","zscode":"26350","kind":"H0","kindDetail":"H001"},