[{"statNm":"농소2동 주민센터","statId":"ME000102","addr":"울산광역시 북구 찬샘1길 24","location":"null","lat":"35.638203","lng":"129.3480953","zcode":"31","zscode":"31200","kind":"A0","kindDetail":"A002"},{"statNm":"효암알뜰주유소","statId":"ME181216","addr":"울산광역시 남구 선암동584-8번지","location":"null","lat":"35.509895","lng":"129.309006","zcode":"31","zscode":"31140","kind":"E0","kindDetail":"E007"},{"statNm":"울산공항","statId":"ME181217","addr":"울산광역시 북구 산업로1103","location":"null","lat":"35.593165","lng":"129.355811","zcode":"31","zscode":"31200","kind":"A0","kindDetail":"A003"},{"statNm":"롯데마트 울산점","statId":"ME181222","addr":"울산광역시 남구 삼산로 74 (달동)","location":"null","lat":"35.533912","lng":"129.315808","zcode":"31","zscode":"31140","kind":"E0","kindDetail":"E001"},{"statNm":"화정지하 공영주차장","statId":"ME183041","addr":"울산광역시 동구 대송로 140","location":"null","lat":"35.4962017","lng":"129.4223573","zcode":"31","zscode":"31170","kind":"B0","kindDetail":"B001"},{"statNm":"일산동 공영주차장","statId":"ME183042","addr":"울산광역시 동구 일산동 948-4","location":"null","lat":"35.4974487","lng":"129.429795","zcode":"31","zscode":"31170","kind":"B0","kindDetail":"B001"},{"statNm":"전하 공영주차장","statId":"ME183043","addr":"울산광역시 동구 진성8길 119 , 입구 소형차 주차구역","location":"null","lat":"35.5108379","lng":"129.4293933","zcode":"31","zscode":"31170","kind":"B0","kindDetail":"B001"},{"statNm":"농소1동 주민센터","statId":"ME183044","addr":"울산광역시 북구 호계2길 10","location":"null","lat":"35.6230247","lng":"129.3561062","zcode":"31","zscode":"31200","kind":"A0","kindDetail":"A002"},{"statNm":"울산동구청","statId":"ME183045","addr":"울산광역시 동구 봉수로 155, 보건소 앞 지상주차장","location":"null","lat":"35.5052942","lng":"129.4176625","zcode":"31","zscode":"31170","kind":"A0","kindDetail":"A001"},{"statNm":"구영공원 공영주차장","statId":"ME183046","addr":"울산광역시 울주군 범서읍 구영리 801-1","location":"null","lat":"35.5726061","lng":"129.2410586","zcode":"31","zscode":"31710","kind":"B0","kindDetail":"B001"},{"statNm":"언양강변 공영주차장","statId":"ME183047","addr":"울산광역시 울주군 언양읍 남부리 336-3","location":"null","lat":"35.5632502","lng":"129.1231617","zcode":"31","zscode":"31710","kind":"B0","kindDetail":"B001"},{"statNm":"온산문화체육센터","statId":"ME183048","addr":"울산광역시 울주군 온산읍 명봉거남로 46","location":"null","lat":"35.4392992","lng":"129.3151782","zcode":"31","zscode":"31710","kind":"A0","kindDetail":"A004"},{"statNm":"울산남구견인차량보관소","statId":"ME183049","addr":"울산광역시 남구 삼산동 1627-3, 입구 좌측","location":"null","lat":"35.5389413","lng":"129.3455523","zcode":"31","zscode":"31140","kind":"A0","kindDetail":"A004"},{"statNm":"효문동 주민센터","statId":"ME183051","addr":"울산광역시 북구 산업로 970","location":"null","lat":"35.5775512","lng":"129.3608429","zcode":"31","zscode":"31200","kind":"A0","kindDetail":"A002"},{"statNm":"왕생이공원공영주차장","statId":"ME183073","addr":"울산광역시 남구 달동 1345-6, 입구 우측","location":"null","lat":"35.5399181","lng":"129.3304451","zcode":"31","zscode":"31140","kind":"B0","kindDetail":"B001"},{"statNm":"야음공영주차장","statId":"ME183074","addr":"울산광역시 남구 야음동 338-1, 입구 좌측","location":"null","lat":"35.5224211","lng":"129.3334959","zcode":"31","zscode":"31140","kind":"B0","kindDetail":"B001"},{"statNm":"언양공영주차장","statId":"ME183122","addr":"울산광역시 울주군 언양읍 남부리 73, 입구 우측","location":"null","lat":"35.5625639","lng":"129.1295263","zcode":"31","zscode":"31710","kind":"B0","kindDetail":"B001"},{"statNm":"문수국제양궁장","statId":"ME183123","addr":"울산광역시 남구 남부순환도로 209, 숙소동 앞","location":"null","lat":"35.5313777","lng":"129.2720492","zcode":"31","zscode":"31140","kind":"A0","kindDetail":"A004"},{"statNm":"장생포 고래문화마을 소형주차장","statId":"ME183124","addr":"울산광역시 남구 매암동 243","location":"null","lat":"35.5057654","lng":"129.3795382","zcode":"31","zscode":"31140","kind":"D0","kindDetail":"D007"},{"statNm":"창평공영주차장","statId":"ME183125","addr":"울산광역시 북구 창평동 1052-1","location":"null","lat":"35.62075","lng":"129.3567106","zcode":"31","zscode":"31200","kind":"B0","kindDetail":"B001"},{"statNm":"매곡1산업단지 공영주차장","statId":"ME183126","addr":"울산광역시 북구 매곡동 349-3","location":"null","lat":"35.646309","lng":"129.3634901","zcode":"31","zscode":"31200","kind":"B0","kindDetail":"B001"},{"statNm":"매곡3산업단지 공영주차장","statId":"ME183127","addr":"울산광역시 북구 매곡동 884-5","location":"null","lat":"35.6404994","lng":"129.3672392","zcode":"31","zscode":"31200","kind":"B0","kindDetail":"B001"},{"statNm":"모듈화산업단지 제2공영주차장","statId":"ME183128","addr":"울산광역시 북구 효문동 986","location":"null","lat":"35.5715343","lng":"129.3764394","zcode":"31","zscode":"31200","kind":"B0","kindDetail":"B001"},{"statNm":"울산시청","statId":"ME184078","addr":"울산광역시 남구 중앙로 201","location":"null","lat":"35.5389293","lng":"129.3109717","zcode":"31","zscode":"31140","kind":"A0","kindDetail":"A001"},{"statNm":"태화강국가공원","statId":"ME184081","addr":"울산광역시 중구 내오산로 33","location":"null","lat":"35.554428","lng":"129.278913","zcode":"31","zscode":"31110","kind":"D0","kindDetail":"D001"},{"statNm":"보람병원 앞 공영주차장","statId":"ME18C190","addr":"울산광역시 남구 삼산동 1554-1","location":"null","lat":"35.542304","lng":"129.341740","zcode":"31","zscode":"31140","kind":"B0","kindDetail":"B001"},{"statNm":"울산병원 앞 공영주차장","statId":"ME18C191","addr":"null","location":"null","lat":"35.546668","lng":"129.323551","zcode":"31","zscode":"31140","kind":"B0","kindDetail":"B001"},{"statNm":"방어동행정복지센터","statId":"ME18C192","addr":"울산광역시 동구 꽃바위로 325","location":"null","lat":"35.485983","lng":"129.424057","zcode":"31","zscode":"31170","kind":"A0","kindDetail":"A002"},{"statNm":"옥류천 공영주차장","statId":"ME18C193","addr":"울산광역시 동구 동부동 425-1","location":"null","lat":"35.546357","lng":"129.424987","zcode":"31","zscode":"31170","kind":"B0","kindDetail":"B001"},{"statNm":"덕신공공주차장","statId":"ME18C194","addr":"울산광역시 울주군 온산읍 덕신리 430","location":"null","lat":"35.430081","lng":"129.310657","zcode":"31","zscode":"31710","kind":"B0","kindDetail":"B001"},{"statNm":"울주군청","statId":"ME18C195","addr":"울산광역시 울주군 청량읍 군청로 1","location":"null","lat":"35.522644","lng":"129.242586","zcode":"31","zscode":"31710","kind":"A0","kindDetail":"A001"},{"statNm":"상북 배내2 공영주차장","statId":"ME18C196","addr":"울산광역시 울주군 상북면 이천리 120-19","location":"null","lat":"35.567521","lng":"129.022886","zcode":"31","zscode":"31710","kind":"B0","kindDetail":"B001"},{"statNm":"울산대공원 남문주차장(파크골프장)","statId":"ME18C197","addr":"울산광역시 남구 옥동 97-3","location":"null","lat":"35.524894","lng":"129.287924","zcode":"31","zscode":"31140","kind":"D0","kindDetail":"D001"},{"statNm":"한국동서발전 본사","statId":"ME18C198","addr":"울산광역시 중구 종가로 395","location":"null","lat":"35.568611","lng":"129.332230","zcode":"31","zscode":"31110","kind":"A0","kindDetail":"A003"},{"statNm":"울산광역시 중구청","statId":"ME18C199","addr":"울산광역시 중구 단장골길1","location":"null","lat":"35.568879","lng":"129.332163","zcode":"31","zscode":"31110","kind":"A0","kindDetail":"A001"},{"statNm":"울산도서관","statId":"ME18C269","addr":"울산광역시 남구 꽃대나리로 140","location":"null","lat":"35.532664","lng":"129.345437","zcode":"31","zscode":"31140","kind":"A0","kindDetail":"A004"},{"statNm":"수협 직판장 주차장","statId":"ME18C270","addr":"울산광역시 동구 동진5길 71","location":"null","lat":"35.485109","lng":"129.428522","zcode":"31","zscode":"31170","kind":"A0","kindDetail":"A003"},{"statNm":"화동 공영주차장","statId":"ME18C271","addr":"울산광역시 북구 화봉동 365","location":"null","lat":"35.591339","lng":"129.372763","zcode":"31","zscode":"31200","kind":"B0","kindDetail":"B001"},{"statNm":"울산농수산물종합유통센터","statId":"ME18C272","addr":"울산광역시 북구 진장유통로 90","location":"null","lat":"35.578772","lng":"129.356840","zcode":"31","zscode":"31200","kind":"A0","kindDetail":"A004"},{"statNm":"울산중부경찰서","statId":"ME18C273","addr":"울산광역시 중구 번영로 620","location":"null","lat":"35.569523","lng":"129.349386","zcode":"31","zscode":"31110","kind":"I0","kindDetail":"I004"},{"statNm":"문화의전당","statId":"ME18C274","addr":"울산광역시 중구 성안동 244","location":"null","lat":"35.567660","lng":"129.321284","zcode":"31","zscode":"31110","kind":"A0","kindDetail":"A003"},{"statNm":"성남공영주차장","statId":"ME18C275","addr":"울산광역시 중구 성남동 190-200","location":"null","lat":"35.553927","lng":"129.316802","zcode":"31","zscode":"31110","kind":"B0","kindDetail":"B001"},{"statNm":"울산광역시교육청","statId":"ME18C276","addr":"울산광역시 중구 북부순환도로 375","location":"null","lat":"35.562107","lng":"129.303287","zcode":"31","zscode":"31110","kind":"A0","kindDetail":"A004"},{"statNm":"울산 문화예술회관","statId":"ME18C277","addr":"울산광역시 남구 번영로 200","location":"null","lat":"35.542364","lng":"129.328083","zcode":"31","zscode":"31140","kind":"A0","kindDetail":"A003"},{"statNm":"상북농공단지 공영주차장","statId":"ME18C308","addr":"울산광역시 울주군 상북면 양등리 210","location":"null","lat":"35.609499","lng":"129.073965","zcode":"31","zscode":"31710","kind":"B0","kindDetail":"B001"},{"statNm":"언양휴게소(서울방향)","statId":"ME18C501","addr":"울산광역시 울주군 언양읍 언동3길 20-48","location":"null","lat":"35.598538","lng":"129.142161","zcode":"31","zscode":"31710","kind":"C0","kindDetail":"C001"},{"statNm":"울산체육공원 문수구장","statId":"ME195011","addr":"울산광역시 남구 옥동 산11,12","location":"null","lat":"35.531848","lng":"129.262265","zcode":"31","zscode":"31140","kind":"A0","kindDetail":"A004"},{"statNm":"두서면사무소","statId":"ME195012","addr":"울산광역시 울주군 두서면 반구대로 1817-11","location":"null","lat":"35.647378","lng":"129.161622","zcode":"31","zscode":"31710","kind":"A0","kindDetail":"A002"},{"statNm":"평창현대앞 공영주차장","statId":"ME195013","addr":"울산광역시 남구 삼산동 1572","location":"null","lat":"35.542069","lng":"129.337140","zcode":"31","zscode":"31140","kind":"B0","kindDetail":"B001"},{"statNm":"울산박물관","statId":"ME195014","addr":"울산광역시 남구 두왕로 277","location":"null","lat":"35.527110","lng":"129.309007","zcode":"31","zscode":"31140","kind":"A0","kindDetail":"A004"},{"statNm":"동구 대학1길 공영주차장","statId":"ME195015","addr":"울산광역시 동구 화정동 198","location":"null","lat":"35.498658","lng":"129.419851","zcode":"31","zscode":"31170","kind":"B0","kindDetail":"B001"},{"statNm":"남목1동 주민센터","statId":"ME195016","addr":"울산광역시 동구 방어진순환도로 1170","location":"null","lat":"35.539520","lng":"129.421174","zcode":"31","zscode":"31170","kind":"A0","kindDetail":"A002"},{"statNm":"강동동 주민센터","statId":"ME195017","addr":"울산광역시 북구 무룡로 1096","location":"null","lat":"35.613128","lng":"129.445639","zcode":"31","zscode":"31200","kind":"A0","kindDetail":"A002"},{"statNm":"송정동 주민센터","statId":"ME195018","addr":"울산광역시 북구 화봉동 1469-1","location":"null","lat":"35.592045","lng":"129.365577","zcode":"31","zscode":"31200","kind":"A0","kindDetail":"A002"},{"statNm":"웅촌면사무소","statId":"ME195019","addr":"울산광역시 울주군 웅촌면 새초천길12","location":"null","lat":"35.461426","lng":"129.208908","zcode":"31","zscode":"31710","kind":"A0","kindDetail":"A002"},{"statNm":"범서읍 제2민원실 공영주차장","statId":"ME195020","addr":"울산광역시 울주군 범서읍 구영리216-3","location":"null","lat":"35.571183","lng":"129.244193","zcode":"31","zscode":"31710","kind":"B0","kindDetail":"B001"},{"statNm":"삼산1 공영주차장","statId":"ME19C148","addr":"울산광역시 남구 삼산동 1622-4","location":"null","lat":"35.536833","lng":"129.343389","zcode":"31","zscode":"31140","kind":"B0","kindDetail":"B001"},{"statNm":"모듈화산업단지제1 공영주차장","statId":"ME19C149","addr":"울산광역시 북구 연암동 1372","location":"null","lat":"35.579483","lng":"129.373336","zcode":"31","zscode":"31200","kind":"B0","kindDetail":"B001"},{"statNm":"하이테크타운","statId":"ME19C230","addr":"울산광역시 남구 두왕동 761-12","location":"null","lat":"35.511556","lng":"129.298611","zcode":"31","zscode":"31140","kind":"G0","kindDetail":"G004"},{"statNm":"울산대학교","statId":"ME19C231","addr":"울산광역시 남구 무거동 759","location":"null","lat":"35.546333","lng":"129.255361","zcode":"31","zscode":"31140","kind":"J0","kindDetail":"J001"},{"statNm":"간절곶공원","statId":"ME19C232","addr":"울산광역시 울주군 서생면 대송리 산 30-2","location":"null","lat":"35.363694","lng":"129.356056","zcode":"31","zscode":"31710","kind":"D0","kindDetail":"D001"},{"statNm":"홈플러스 울산남구점","statId":"ME19C293","addr":"울산광역시 남구 수암로 148","location":"null","lat":"35.526333","lng":"129.322667","zcode":"31","zscode":"31140","kind":"E0","kindDetail":"E001"},{"statNm":"홈플러스 울산북구점","statId":"ME19C294","addr":"울산광역시 북구 신답로 26","location":"null","lat":"35.629972","lng":"129.345000","zcode":"31","zscode":"31200","kind":"E0","kindDetail":"E001"},{"statNm":"등억알프스 야영장","statId":"ME19E162","addr":"울산광역시 울주군 상북면 등억알프스리 701-38","location":"null","lat":"35.553923","lng":"129.087588","zcode":"31","zscode":"31710","kind":"D0","kindDetail":"D001"},{"statNm":"작천정 별빛야영장","statId":"ME19E163","addr":"null","location":"null","lat":"35.551392","lng":"129.094027","zcode":"31","zscode":"31710","kind":"D0","kindDetail":"D001"},{"statNm":"반구1동 행정복지센터","statId":"ME19E164","addr":"울산광역시 중구 반구동 582-6","location":"null","lat":"35.556214","lng":"129.338465","zcode":"31","zscode":"31110","kind":"A0","kindDetail":"A002"},{"statNm":"반구2동 행정복지센터","statId":"ME19E165","addr":"울산광역시 중구 반구동 46-2","location":"null","lat":"35.562153","lng":"129.338465","zcode":"31","zscode":"31110","kind":"A0","kindDetail":"A002"},{"statNm":"울산과학기술원","statId":"ME19E218","addr":"울산광역시 울주군 언양읍 유니스트길 50","location":"null","lat":"35.573792","lng":"129.190821","zcode":"31","zscode":"31710","kind":"A0","kindDetail":"A003"},{"statNm":"작천정 다목적광장 및 운동장","statId":"ME19E219","addr":"울산광역시 울주군 삼남면 교동리 1218-10","location":"null","lat":"35.550164","lng":"129.109338","zcode":"31","zscode":"31710","kind":"J0","kindDetail":"J007"},{"statNm":"대곡박물관","statId":"ME19E503","addr":"울산광역시 울주군 두동면 천전리 307","location":"null","lat":"35.619044","lng":"129.168431","zcode":"31","zscode":"31710","kind":"D0","kindDetail":"D008"},{"statNm":"한국소방산업기술원 울산사무소","statId":"ME19F101","addr":"울산광역시 남구 정동로42번길 25","location":"null","lat":"35.537739721145","lng":"129.34694336","zcode":"31","zscode":"31140","kind":"A0","kindDetail":"A003"},{"statNm":"서생체육공원","statId":"ME19F106","addr":"울산광역시 울주군 서생면 갓재길 30","location":"null","lat":"35.3492937","lng":"129.3188933","zcode":"31","zscode":"31710","kind":"J0","kindDetail":"J007"},{"statNm":"청량운동장","statId":"ME19F107","addr":"울산광역시 울주군 청량면 덕정로 16","location":"null","lat":"35.482075","lng":"129.298851","zcode":"31","zscode":"31710","kind":"J0","kindDetail":"J007"},{"statNm":"범서생활체육공원","statId":"ME19F108","addr":"울산광역시 울주군 범서읍 천상중앙길 34","location":"null","lat":"35.564831293104","lng":"129.23242003","zcode":"31","zscode":"31710","kind":"J0","kindDetail":"J007"},{"statNm":"상북면민운동장","statId":"ME19F109","addr":"울산광역시 울주군 상북면 길천산업1길 17","location":"null","lat":"35.5940594","lng":"129.0809877","zcode":"31","zscode":"31710","kind":"J0","kindDetail":"J007"},{"statNm":"울산자동차검사소","statId":"ME19F405","addr":"울산광역시 남구 장생포로 8","location":"null","lat":"35.519323498814","lng":"129.34447862","zcode":"31","zscode":"31140","kind":"A0","kindDetail":"A003"},{"statNm":"롯데마트 진장점 야외주차장","statId":"ME19X424","addr":"울산광역시 북구 진장 유통로","location":"null","lat":"35.575926","lng":"129.357393","zcode":"31","zscode":"31200","kind":"E0","kindDetail":"E001"},{"statNm":"울산과학기술원","statId":"ME19Z210","addr":"울산광역시 울주군 언양읍 유니스트길 50","location":"null","lat":"35.573161","lng":"129.189766","zcode":"31","zscode":"31710","kind":"J0","kindDetail":"J001"},{"statNm":"상북 배내1 공영주차장","statId":"ME20C193","addr":"울산광역시 울주군 상북면 이천리 854","location":"null","lat":"35.5776179","lng":"129.0273830","zcode":"31","zscode":"31710","kind":"B0","kindDetail":"B001"},{"statNm":"울주휴게소(울산방향)","statId":"ME20C194","addr":"울산광역시 울주군 삼동면 보은리 산213-15","location":"null","lat":"35.5129292","lng":"129.1277137","zcode":"31","zscode":"31710","kind":"C0","kindDetail":"C001"},{"statNm":"울주휴게소(함양방향)","statId":"ME20C195","addr":"울산광역시 울주군 삼동면 보은리 산193-1","location":"null","lat":"35.5129292","lng":"129.1277137","zcode":"31","zscode":"31710","kind":"C0","kindDetail":"C001"},{"statNm":"신불산자연휴양림","statId":"ME20C196","addr":"울산광역시 울주군 상북면 청수골길 175","location":"null","lat":"35.5258502","lng":"129.0236162","zcode":"31","zscode":"31710","kind":"A0","kindDetail":"A004"},{"statNm":"우정1공영주차장","statId":"ME20C197","addr":"울산광역시 중구 우정동 277-4","location":"null","lat":"35.5552256","lng":"129.3131590","zcode":"31","zscode":"31110","kind":"B0","kindDetail":"B001"},{"statNm":"울산항만공사","statId":"ME20C291","addr":"울산광역시 남구 장생포고래로 271","location":"null","lat":"35.5044088","lng":"129.3827455","zcode":"31","zscode":"31140","kind":"A0","kindDetail":"A003"},{"statNm":"울산광역시 교육연수원","statId":"ME20C292","addr":"울산광역시 북구 무룡로 1093","location":"null","lat":"35.6134380","lng":"129.4453349","zcode":"31","zscode":"31200","kind":"A0","kindDetail":"A004"},{"statNm":"한국도로공사 서울산지사","statId":"ME20C293","addr":"울산광역시 울주군 삼남면 진장길 13","location":"null","lat":"35.5569080","lng":"129.1219165","zcode":"31","zscode":"31710","kind":"A0","kindDetail":"A003"},{"statNm":"한국도로공사 울산지사","statId":"ME20C294","addr":"울산광역시 울주군 온양읍 광청로 796-66","location":"null","lat":"35.41682550","lng":"129.26610724","zcode":"31","zscode":"31710","kind":"A0","kindDetail":"A003"},{"statNm":"한국산업인력공단본부","statId":"ME20C295","addr":"울산광역시 중구 종가로 345","location":"null","lat":"35.5652087","lng":"129.3152652","zcode":"31","zscode":"31110","kind":"A0","kindDetail":"A003"},{"statNm":"한국석유공사","statId":"ME20C296","addr":"울산광역시 중구 종가로 305","location":"null","lat":"35.5646136","lng":"129.3103655","zcode":"31","zscode":"31110","kind":"A0","kindDetail":"A003"},{"statNm":"근로복지공단 본부","statId":"ME20C297","addr":"울산광역시 중구 종가로 340","location":"null","lat":"35.56394024","lng":"129.31426467","zcode":"31","zscode":"31110","kind":"A0","kindDetail":"A003"},{"statNm":"울산대공원 남문주차장 ","statId":"ME20D207","addr":"울산광역시 남구 옥동 363-1","location":"null","lat":"35.5271204","lng":"129.2835411","zcode":"31","zscode":"31140","kind":"D0","kindDetail":"D001"},{"statNm":"울산대공원 남문주차장 파크골프장 ","statId":"ME20D208","addr":"울산광역시 남구 옥동 95","location":"null","lat":"35.525221","lng":"129.287712","zcode":"31","zscode":"31140","kind":"D0","kindDetail":"D001"},{"statNm":"울산 하늘공원 ","statId":"ME20D209","addr":"울산광역시 울주군 삼동면 보삼길550","location":"null","lat":"35.475428","lng":"129.123077","zcode":"31","zscode":"31710","kind":"D0","kindDetail":"D001"},{"statNm":"울주군청 (상수도사업본부 울주사업소 앞쪽 주차장) ","statId":"ME20D226","addr":"울산광역시 울주군 청량면 군청로1","location":"null","lat":"35.522069","lng":"129.242514","zcode":"31","zscode":"31710","kind":"A0","kindDetail":"A001"},{"statNm":"울산화학재난합동방재센터","statId":"ME20D248","addr":"울산광역시 울주군 청량읍 처용산업4길51","location":"null","lat":"35.4743785","lng":"129.3255724","zcode":"31","zscode":"31710","kind":"A0","kindDetail":"A004"},{"statNm":"쇠부리체육센터","statId":"ME21B154","addr":"울산광역시 북구 천곡남로 86","location":"null","lat":"35.6358158","lng":"129.3347774","zcode":"31","zscode":"31200","kind":"G0","kindDetail":"G004"},{"statNm":"온양읍행정복지센터 주차장","statId":"ME21B1E5","addr":"울산광역시 울주군 온양읍 남창1길 20","location":"null","lat":"35.4188697","lng":"129.2809697","zcode":"31","zscode":"31710","kind":"A0","kindDetail":"A003"},{"statNm":"한국농어촌공사 울산지사","statId":"ME21B1E6","addr":"울산광역시 울주군 청량읍 군청2길 8-3","location":"null","lat":"35.5240157","lng":"129.2430522","zcode":"31","zscode":"31710","kind":"A0","kindDetail":"A003"},{"statNm":"울산세무서 주차장","statId":"ME21B1E7","addr":"울산광역시 남구 갈밭로 49","location":"null","lat":"35.5365544","lng":"129.345664","zcode":"31","zscode":"31140","kind":"A0","kindDetail":"A001"},{"statNm":"천상공원 지하주차장","statId":"ME21B1F3","addr":"울산광역시 울주군 범서읍 천상길 25","location":"null","lat":"35.5614021","lng":"129.228654","zcode":"31","zscode":"31710","kind":"B0","kindDetail":"B004"},{"statNm":"울산남부경찰서","statId":"ME21B217","addr":"울산광역시 남구 삼산로35번길 25","location":"null","lat":"35.5355036","lng":"129.3103312","zcode":"31","zscode":"31140","kind":"I0","kindDetail":"I004"},{"statNm":"옥동구법원부지 공영주차장","statId":"ME21B257","addr":"울산광역시 남구 옥동 635-3","location":"null","lat":"35.5376078","lng":"129.2872953","zcode":"31","zscode":"31140","kind":"B0","kindDetail":"B001"},{"statNm":"울산남구보건소 주차장","statId":"ME21C293","addr":"울산광역시 남구 삼산중로 132","location":"null","lat":"35.544992","lng":"129.3369","zcode":"31","zscode":"31140","kind":"A0","kindDetail":"A003"},{"statNm":"라한호텔울산","statId":"ME21C2A1","addr":"울산광역시 동구 방어진순환도로 875","location":"null","lat":"35.518878","lng":"129.4312","zcode":"31","zscode":"31170","kind":"D0","kindDetail":"D007"},{"statNm":"울산 동구 전하체육센터","statId":"ME21D015","addr":"울산광역시 동구 봉수로 285","location":"null","lat":"35.5126524","lng":"129.4221068","zcode":"31","zscode":"31170","kind":"G0","kindDetail":"G004"},{"statNm":"울산 울주군 서생면사무소","statId":"ME21D017","addr":"울산광역시 울주군 서생면 해맞이로 894","location":"null","lat":"35.3499597","lng":"129.3261006","zcode":"31","zscode":"31710","kind":"A0","kindDetail":"A002"},{"statNm":"울산 중구 동천체육관","statId":"ME21D018","addr":"울산광역시 중구 염포로 85","location":"null","lat":"35.561821","lng":"129.3520322","zcode":"31","zscode":"31110","kind":"G0","kindDetail":"G004"},{"statNm":"아르페 에코하임","statId":"CU520001","addr":"울산광역시 남구 봉월로 131","location":"지하주차장","lat":"35.544483","lng":"129.3064919","zcode":"31","zscode":"31140","kind":"G0","kindDetail":"G004"},{"statNm":"반디호텔","statId":"CU520002","addr":"울산광역시 남구 봉월로8번길 54","location":"실내주차장","lat":"35.5346151","lng":"129.312884","zcode":"31","zscode":"31140","kind":"E0","kindDetail":"E003"},{"statNm":"MG울산제일새마을금고","statId":"CU520003","addr":"울산광역시 남구 문수로 352","location":"null","lat":"35.534574","lng":"129.291838","zcode":"31","zscode":"31140","kind":"G0","kindDetail":"G004"},{"statNm":"평창리비에르3차","statId":"CU520004","addr":"울산광역시 북구 명촌15길 10","location":"null","lat":"35.5548907","lng":"129.353767","zcode":"31","zscode":"31200","kind":"H0","kindDetail":"H001"},{"statNm":"마제스타워울산2차","statId":"CU520005","addr":"울산광역시 중구 학성로 11","location":"null","lat":"35.5533048","lng":"129.312792","zcode":"31","zscode":"31110","kind":"H0","kindDetail":"H001"},{"statNm":"울산시립미술관","statId":"CU520006","addr":"울산광역시 중구 도서관길 72","location":"울산시립미술관","lat":"35.5578009","lng":"129.320772","zcode":"31","zscode":"31110","kind":"A0","kindDetail":"A003"},{"statNm":"중앙헬스사우나","statId":"CV000222","addr":"울산광역시 중구 중앙2길 11","location":"null","lat":"35.555338","lng":"129.319579","zcode":"31","zscode":"31110","kind":"E0","kindDetail":"E003"},{"statNm":"울주보건소","statId":"CV000231","addr":"울산광역시 울주군 삼남읍 서향교1길 67-12","location":"null","lat":"35.558366","lng":"129.113739","zcode":"31","zscode":"31710","kind":"I0","kindDetail":"I003"},{"statNm":"한국전기안전공사 울산지사","statId":"CV000233","addr":"울산광역시 중구 종가로 425","location":"null","lat":"35.567083","lng":"129.324641","zcode":"31","zscode":"31110","kind":"A0","kindDetail":"A003"},{"statNm":"울산송정 제일풍경채레이크뷰","statId":"CV000261","addr":"울산광역시 북구 박상진3로 73","location":"null","lat":"35.6050945","lng":"129.3682658","zcode":"31","zscode":"31200","kind":"H0","kindDetail":"H001"},{"statNm":"스타스콥 컨트리클럽","statId":"CV000267","addr":"울산광역시 울주군 서생면 용연길 206-52","location":"null","lat":"35.365408","lng":"129.310389","zcode":"31","zscode":"31710","kind":"E0","kindDetail":"E004"},{"statNm":"울주군청","statId":"CV000268","addr":"울산광역시 울주군 청량읍 군청로 1","location":"null","lat":"35.522192","lng":"129.242646","zcode":"31","zscode":"31710","kind":"A0","kindDetail":"A001"},{"statNm":"울산 차세대전지 종합지원센터","statId":"CV000284","addr":"울산광역시 남구 테크노산업로55번길 25","location":"null","lat":"35.5142531012","lng":"129.300249","zcode":"31","zscode":"31140","kind":"H0","kindDetail":"H003"},{"statNm":"울산 에너지경제연구원","statId":"CV000312","addr":"울산광역시 중구 종가로 405-11","location":"건물 뒷편 야외주차장","lat":"35.568164","lng":"129.319862","zcode":"31","zscode":"31110","kind":"A0","kindDetail":"A003"},{"statNm":"울산 금아드림스퀘어","statId":"CV000441","addr":"울산광역시 울주군 삼남면 도호길 31","location":"null","lat":"35.548607999999","lng":"129.1392119999","zcode":"31","zscode":"31710","kind":"E0","kindDetail":"E001"},{"statNm":"울산 좋은삼정병원","statId":"CV000481","addr":"울산광역시 남구 북부순환도로 53","location":"null","lat":"35.552787","lng":"129.2692639","zcode":"31","zscode":"31140","kind":"I0","kindDetail":"I001"},{"statNm":"호계한양수자인2차아파트","statId":"CV000598","addr":"울산광역시 북구 호수중앙로 15-22","location":"null","lat":"35.621745","lng":"129.357865","zcode":"31","zscode":"31200","kind":"H0","kindDetail":"H001"},{"statNm":"울산전시컨벤션센터","statId":"CV000921","addr":"울산광역시 울주군 삼남읍 울산역로 255","location":"null","lat":"35.555566999","lng":"129.13167300","zcode":"31","zscode":"31710","kind":"G0","kindDetail":"G004"},{"statNm":"한국화학연구원 옥외주차장","statId":"CV001046","addr":"울산광역시 중구 종가로 45","location":"null","lat":"35.563039999","lng":"129.281966","zcode":"31","zscode":"31110","kind":"A0","kindDetail":"A003"},{"statNm":"울산화력사원사택","statId":"CV001066","addr":"울산광역시 남구 중앙로 83","location":"null","lat":"35.528543999","lng":"129.31585199","zcode":"31","zscode":"31140","kind":"H0","kindDetail":"H004"},{"statNm":"한국주택금융공사 울산지사","statId":"CV001094","addr":"울산광역시 남구 삼산로 197","location":"null","lat":"35.538015000","lng":"129.32857300","zcode":"31","zscode":"31140","kind":"A0","kindDetail":"A003"},{"statNm":"수암공영주차장","statId":"CV001100","addr":"울산광역시 남구 수암로116번길 15","location":"null","lat":"35.526808847","lng":"129.31921134","zcode":"31","zscode":"31140","kind":"B0","kindDetail":"B001"},{"statNm":"학성커뮤니티키움센터","statId":"CV001125","addr":"울산광역시 중구 구교로 92","location":"입구 안쪽 주차장","lat":"35.555291000","lng":"129.33446099","zcode":"31","zscode":"31110","kind":"A0","kindDetail":"A002"},{"statNm":"울산시립미술관","statId":"CV001144","addr":"울산광역시 중구 도서관길 72","location":"null","lat":"35.557569","lng":"129.320685","zcode":"31","zscode":"31110","kind":"D0","kindDetail":"D002"},{"statNm":"울산 국민차매매단지","statId":"CV001189","addr":"울산광역시 북구 무룡로 68","location":"null","lat":"35.580149999","lng":"129.36762500","zcode":"31","zscode":"31200","kind":"E0","kindDetail":"E001"},{"statNm":"울산화봉2단지","statId":"EC000017","addr":"울산광역시 북구 화산로 36","location":"null","lat":"35.595047740","lng":"129.36634263","zcode":"31","zscode":"31200","kind":"H0","kindDetail":"H001"},{"statNm":"성안금호타운","statId":"EC000074","addr":"울산광역시 중구 함월5길 35","location":"null","lat":"35.576063758","lng":"129.30594387","zcode":"31","zscode":"31110","kind":"G0","kindDetail":"G004"},{"statNm":"문수로아이파크 2단지","statId":"EC000076","addr":"울산광역시 남구 문수로409번길 23","location":"null","lat":"35.5359345","lng":"129.2982281","zcode":"31","zscode":"31140","kind":"H0","kindDetail":"H001"},{"statNm":"유곡푸르지오","statId":"EC000202","addr":"울산광역시 중구 평동3길 1","location":"null","lat":"35.5601273","lng":"129.3034599","zcode":"31","zscode":"31110","kind":"H0","kindDetail":"H001"},{"statNm":"문수로아이파크2단지 202동 지하1층","statId":"EC000493","addr":"울산광역시 남구 문수로409번길 23","location":"null","lat":"35.53678054","lng":"129.297255","zcode":"31","zscode":"31140","kind":"H0","kindDetail":"H001"},{"statNm":"문수로아이파크2단지 202동 지하2층","statId":"EC000494","addr":"울산광역시 남구 문수로409번길 23","location":"null","lat":"35.53672608","lng":"129.297394","zcode":"31","zscode":"31140","kind":"H0","kindDetail":"H001"},{"statNm":"문수로아이파크2단지 204동 지하1층","statId":"EC000495","addr":"울산광역시 남구 문수로409번길 23","location":"null","lat":"35.53601608","lng":"129.2976521","zcode":"31","zscode":"31140","kind":"H0","kindDetail":"H001"},{"statNm":"문수로아이파크2단지 204동 지하2층","statId":"EC000496","addr":"울산광역시 남구 문수로409번길 23","location":"null","lat":"35.53586885","lng":"129.2975762","zcode":"31","zscode":"31140","kind":"H0","kindDetail":"H001"},{"statNm":"문수로아이파크2단지 208동 지하2층","statId":"EC000497","addr":"울산광역시 남구 문수로409번길 23","location":"null","lat":"35.53732883","lng":"129.2976812","zcode":"31","zscode":"31140","kind":"H0","kindDetail":"H001"},{"statNm":"문수로아이파크2단지 208동 지하3층","statId":"EC000498","addr":"울산광역시 남구 문수로409번길 23","location":"null","lat":"35.5372354","lng":"129.298092","zcode":"31","zscode":"31140","kind":"H0","kindDetail":"H001"},{"statNm":"문수아이필","statId":"EC000499","addr":"울산광역시 남구 대학로1번길 3-26","location":"null","lat":"35.53604926","lng":"129.2518062","zcode":"31","zscode":"31140","kind":"H0","kindDetail":"H001"},{"statNm":"일우테크(enh)","statId":"EH213035","addr":"울산광역시 울주군 삼남읍 방기6길 43-4","location":"구내주차장/옥외","lat":"35.5115466","lng":"129.0837318","zcode":"31","zscode":"31710","kind":"G0","kindDetail":"G004"},{"statNm":"㈜현대인 충전소(ENH)","statId":"EH213194","addr":"울산광역시 북구 효문2로 43","location":"지상주차장","lat":"35.57198","lng":"129.36997","zcode":"31","zscode":"31200","kind":"G0","kindDetail":"G004"},{"statNm":"울산 더힐","statId":"EN000009","addr":"울산광역시 북구 동해안로 1525","location":"null","lat":"35.6215799","lng":"129.4453571","zcode":"31","zscode":"31200","kind":"E0","kindDetail":"E003"},{"statNm":"울주 링스모텔","statId":"EN000010","addr":"울산광역시 울주군 상북면 운문로 3","location":"null","lat":"35.6174162","lng":"129.0472461","zcode":"31","zscode":"31710","kind":"E0","kindDetail":"E003"},{"statNm":"울주 파크모텔","statId":"EN000042","addr":"울산광역시 울주군 두동면 구미월평로 793","location":"null","lat":"35.7039581","lng":"129.206791","zcode":"31","zscode":"31710","kind":"E0","kindDetail":"E003"},{"statNm":"울주 석남민속가든","statId":"EN000043","addr":"울산광역시 울주군 상북면 운문로 1-1","location":"null","lat":"35.6171797","lng":"129.0461707","zcode":"31","zscode":"31710","kind":"E0","kindDetail":"E006"},{"statNm":"울주 명분가지산가족호텔","statId":"EN000044","addr":"울산광역시 울주군 상북면 소야정길 1","location":"null","lat":"35.6172835","lng":"129.0539077","zcode":"31","zscode":"31710","kind":"E0","kindDetail":"E003"},{"statNm":"울산원예농협하나로마트","statId":"EN000052","addr":"울산광역시 울주군 범서읍 장검길 10","location":"울산원예농협하나로마트 지상 4층","lat":"35.5580611","lng":"129.2543441","zcode":"31","zscode":"31710","kind":"E0","kindDetail":"E001"},{"statNm":"울산 한국산업안전보건공단","statId":"EN000054","addr":"울산광역시 중구 종가로 400","location":"지하주차장","lat":"35.565067","lng":"129.319533","zcode":"31","zscode":"31110","kind":"A0","kindDetail":"A001"},{"statNm":"울산울주 석남사가는길","statId":"EN000086","addr":"울산광역시 울주군 상북면 상북로 15","location":"/ 건물입구 좌측 벽면","lat":"35.571953","lng":"129.107219","zcode":"31","zscode":"31710","kind":"E0","kindDetail":"E006"},{"statNm":"울산울주 샌디아모텔","statId":"EN000106","addr":"울산광역시 울주군 상북면 알프스온천2길 58","location":"/ 출입구 좌측","lat":"35.555764","lng":"129.074669","zcode":"31","zscode":"31710","kind":"E0","kindDetail":"E003"},{"statNm":"울산 거성이엔지","statId":"EP200065","addr":"울산광역시 울주군 웅촌면 대복동천로 37","location":"구내주차장","lat":"35.4736445","lng":"129.2229097","zcode":"31","zscode":"31710","kind":"H0","kindDetail":"H003"},{"statNm":"울산 제이테크","statId":"EP200067","addr":"울산광역시 울주군 웅촌면 웅촌로 625-12","location":"구내주차장","lat":"35.4834544","lng":"129.2159839","zcode":"31","zscode":"31710","kind":"G0","kindDetail":"G004"},{"statNm":"울산남구 도시관리공단 무거동공영주차장","statId":"EP210188","addr":"울산광역시 남구 대학로147번길 41-26","location":"주차장","lat":"35.5512451","lng":"129.2596407","zcode":"31","zscode":"31140","kind":"B0","kindDetail":"B001"},{"statNm":"울산남구 도시관리공단 신정동공영주차장 급속충전소","statId":"EP210189","addr":"울산광역시 남구 월평로 25","location":"주차장","lat":"35.541344","lng":"129.3083465","zcode":"31","zscode":"31140","kind":"B0","kindDetail":"B001"},{"statNm":"울산 우정LH1단지","statId":"EV000648","addr":"울산광역시 중구 종가로 668-9 (서동, 우정LH1단지)","location":"null","lat":"35.5814656151","lng":"129.3412993163","zcode":"31","zscode":"31110","kind":"H0","kindDetail":"H001"},{"statNm":"울산방어휴먼시아","statId":"EV000649","addr":"울산광역시 동구 등대4길 25 (방어동, 울산방어휴먼시아)","location":"null","lat":"35.4900825174","lng":"129.4284923453","zcode":"31","zscode":"31170","kind":"H0","kindDetail":"H001"},{"statNm":"현대글로비스울산KD센터","statId":"EV001660","addr":"울산광역시 울주군 두서면 활천산업로 100","location":"null","lat":"35.6988392","lng":"129.1901101","zcode":"31","zscode":"31710","kind":"H0","kindDetail":"H003"},{"statNm":"울산 삼산한화꿈에그린1단지","statId":"EV001907","addr":"울산광역시 남구 산업로613번길 26 (삼산동, 한화 꿈에그린 아파트)","location":"null","lat":"35.536462","lng":"129.34776525","zcode":"31","zscode":"31140","kind":"H0","kindDetail":"H001"},{"statNm":"울산중구 마제스타워 104동 B1","statId":"EV002291","addr":"울산광역시 중구 학성로 1","location":"null","lat":"35.553489324185","lng":"129.3118216125","zcode":"31","zscode":"31110","kind":"H0","kindDetail":"H001"},{"statNm":"울산중구 마제스타워 104동 B3","statId":"EV002292","addr":"울산광역시 중구 학성로 1","location":"null","lat":"35.553489324185","lng":"129.3118216125","zcode":"31","zscode":"31110","kind":"H0","kindDetail":"H001"},{"statNm":"울산중구 마제스타워 104동 B4","statId":"EV002293","addr":"울산광역시 중구 학성로 1","location":"null","lat":"35.553489324185","lng":"129.3118216125","zcode":"31","zscode":"31110","kind":"H0","kindDetail":"H001"},{"statNm":"울산울주 성림그린빌아파트","statId":"EV002319","addr":"울산광역시 울주군 온양읍 솔밭3길 35","location":"null","lat":"35.404564204663","lng":"129.2898708381","zcode":"31","zscode":"31710","kind":"H0","kindDetail":"H001"},{"statNm":"울산중구 우정혁신LH2단지","statId":"EV002320","addr":"울산광역시 중구 종가로 142","location":"null","lat":"35.559821825287","lng":"129.2922077536","zcode":"31","zscode":"31110","kind":"H0","kindDetail":"H001"},{"statNm":"울산북구 그린카운티4단지 403동","statId":"EV002335","addr":"울산광역시 북구 달천로 100","location":"null","lat":"35.634101543438","lng":"129.3247309549","zcode":"31","zscode":"31200","kind":"H0","kindDetail":"H001"},{"statNm":"울산북구 그린카운티4단지 409동","statId":"EV002336","addr":"울산광역시 북구 달천로 100","location":"null","lat":"35.633799706707","lng":"129.3251968090","zcode":"31","zscode":"31200","kind":"H0","kindDetail":"H001"},{"statNm":"울산남구 나인파크삼산오피스텔","statId":"EV002343","addr":"울산광역시 남구 화합로 162","location":"null","lat":"35.539124442247","lng":"129.3399396695","zcode":"31","zscode":"31140","kind":"H0","kindDetail":"H001"},{"statNm":"울산동구 명덕2차아파트","statId":"EV002356","addr":"울산광역시 동구 명덕로 70","location":"null","lat":"35.523790262600","lng":"129.4259986479","zcode":"31","zscode":"31170","kind":"H0","kindDetail":"H001"},{"statNm":"울산 매곡푸르지오105동","statId":"EV002464","addr":"울산광역시 북구 신천로 92","location":"null","lat":"35.645565521860","lng":"129.3535763183","zcode":"31","zscode":"31200","kind":"H0","kindDetail":"H001"},{"statNm":"울산 매곡푸르지오111동","statId":"EV002465","addr":"울산광역시 북구 신천로 92","location":"null","lat":"35.644179057866","lng":"129.3523655496","zcode":"31","zscode":"31200","kind":"H0","kindDetail":"H001"},{"statNm":"울산울주 온양서희스타힐스102동","statId":"EV002882","addr":"울산광역시 울주군 온양읍 보곡3길 40","location":"null","lat":"35.410441437172","lng":"129.2920359723","zcode":"31","zscode":"31710","kind":"H0","kindDetail":"H001"},{"statNm":"울산울주 온양서희스타힐스107동","statId":"EV002883","addr":"울산광역시 울주군 온양읍 보곡3길 40","location":"null","lat":"35.410689619641","lng":"129.2937710539","zcode":"31","zscode":"31710","kind":"H0","kindDetail":"H001"},{"statNm":"울산울주 온양서희스타힐스105동","statId":"EV002885","addr":"울산광역시 울주군 온양읍 보곡3길 40","location":"null","lat":"35.409967904161","lng":"129.2942899165","zcode":"31","zscode":"31710","kind":"H0","kindDetail":"H001"},{"statNm":"울산울주 문수산더샾아파트","statId":"EV002886","addr":"울산광역시 울주군 범서읍 장검길 88","location":"null","lat":"35.550343454186","lng":"129.2512436216","zcode":"31","zscode":"31710","kind":"H0","kindDetail":"H001"},{"statNm":"울산남구 대공원월드메르디앙","statId":"EV002888","addr":"울산광역시 남구 대공원로 207","location":"null","lat":"35.531106464074","lng":"129.3043160276","zcode":"31","zscode":"31140","kind":"H0","kindDetail":"H001"},{"statNm":"울산중구 마제스타워 103동","statId":"EV002899","addr":"울산광역시 중구 학성로 1","location":"null","lat":"35.553449411641","lng":"129.3120233475","zcode":"31","zscode":"31110","kind":"H0","kindDetail":"H001"},{"statNm":"울산울주 여울목아파트104동B2","statId":"EV002949","addr":"울산광역시 울주군 온양읍 솔밭3길 19-10","location":"null","lat":"35.405960461809","lng":"129.2903681993","zcode":"31","zscode":"31710","kind":"H0","kindDetail":"H001"},{"statNm":"울산울주 여울목아파트104동B1","statId":"EV002950","addr":"울산광역시 울주군 온양읍 솔밭3길 19-10","location":"null","lat":"35.406005491846","lng":"129.2903694738","zcode":"31","zscode":"31710","kind":"H0","kindDetail":"H001"},{"statNm":"울산중구 청우하이츠아파트","statId":"EV002961","addr":"울산광역시 중구 평동길 26","location":"null","lat":"35.558440045622","lng":"129.3070105754","zcode":"31","zscode":"31110","kind":"H0","kindDetail":"H001"},{"statNm":"울산 우정선경2차아파트214동","statId":"EV002974","addr":"울산광역시 중구 유곡로 10","location":"null","lat":"35.556760604368","lng":"129.3080386263","zcode":"31","zscode":"31110","kind":"H0","kindDetail":"H001"},{"statNm":"울산 우정선경2차아파트211동","statId":"EV002975","addr":"울산광역시 중구 유곡로 10","location":"null","lat":"35.557497940901","lng":"129.3071776359","zcode":"31","zscode":"31110","kind":"H0","kindDetail":"H001"},{"statNm":"울산 우정선경2차아파트204동","statId":"EV002976","addr":"울산광역시 중구 유곡로 10","location":"null","lat":"35.557523195980","lng":"129.3091521457","zcode":"31","zscode":"31110","kind":"H0","kindDetail":"H001"},{"statNm":"울산 우정선경2차아파트203동","statId":"EV002977","addr":"울산광역시 중구 유곡로 10","location":"null","lat":"35.557446216475","lng":"129.3098777003","zcode":"31","zscode":"31110","kind":"H0","kindDetail":"H001"},{"statNm":"울산 덕정유림아파트2주차장","statId":"EV003043","addr":"울산광역시 울주군 청량읍 덕정1길 8","location":"null","lat":"35.486966486636","lng":"129.2946871646","zcode":"31","zscode":"31710","kind":"H0","kindDetail":"H001"},{"statNm":"울산 덕정유림아파트3주차장","statId":"EV003044","addr":"울산광역시 울주군 청량읍 덕정1길 8","location":"null","lat":"35.486458074555","lng":"129.2946506705","zcode":"31","zscode":"31710","kind":"H0","kindDetail":"H001"},{"statNm":"울산 덕정유림아파트1주차장","statId":"EV003045","addr":"울산광역시 울주군 청량읍 덕정1길 8","location":"null","lat":"35.487368083891","lng":"129.2948913871","zcode":"31","zscode":"31710","kind":"H0","kindDetail":"H001"},{"statNm":"울산 한라한빛타운101동(3-4라인)","statId":"EV003046","addr":"울산광역시 동구 전하로 35","location":"null","lat":"35.512324622962","lng":"129.4268436732","zcode":"31","zscode":"31170","kind":"H0","kindDetail":"H001"},{"statNm":"울산 한라한빛타운101동(5-6라인)","statId":"EV003047","addr":"울산광역시 동구 전하로 35","location":"null","lat":"35.512324622962","lng":"129.4268436732","zcode":"31","zscode":"31170","kind":"H0","kindDetail":"H001"},{"statNm":"울산 한라한빛타운102동(3-4라인)","statId":"EV003048","addr":"울산광역시 동구 전하로 35","location":"null","lat":"35.511806851344","lng":"129.4268721639","zcode":"31","zscode":"31170","kind":"H0","kindDetail":"H001"},{"statNm":"울산 한라한빛타운102동(5-6라인)","statId":"EV003049","addr":"울산광역시 동구 전하로 35","location":"null","lat":"35.511700343593","lng":"129.4267918160","zcode":"31","zscode":"31170","kind":"H0","kindDetail":"H001"},{"statNm":"울산울주_덕하신일해피트리","statId":"EV003270","addr":"울산광역시 울주군 청량읍 삼정로 811","location":"null","lat":"35.488387480400","lng":"129.3033375905","zcode":"31","zscode":"31710","kind":"H0","kindDetail":"H001"},{"statNm":"울산북구_그린카운티2단지","statId":"EV003395","addr":"울산광역시 북구 달천로 109","location":"null","lat":"35.632323481545","lng":"129.3253526989","zcode":"31","zscode":"31200","kind":"H0","kindDetail":"H001"},{"statNm":"그린카운티3단지","statId":"EV003701","addr":"울산광역시 북구 달천로 95","location":"관리사무실 옆 지상주차장","lat":"35.633147443","lng":"129.32610612","zcode":"31","zscode":"31200","kind":"H0","kindDetail":"H001"},{"statNm":"힐그린솔리움아파트","statId":"EV003733","addr":"울산광역시 중구 함월16길 63","location":"null","lat":"35.579486808","lng":"129.31138858","zcode":"31","zscode":"31110","kind":"H0","kindDetail":"H001"},{"statNm":"울산북구 반도유보라아이비파크 111동","statId":"EV004087","addr":"울산광역시 북구 화산로 104","location":"111동 지하1층 175기둥 좌/우 벽면","lat":"35.601510971","lng":"129.36642850","zcode":"31","zscode":"31200","kind":"H0","kindDetail":"H001"},{"statNm":"울산북구 반도유보라아이비파크 104동","statId":"EV004088","addr":"울산광역시 북구 화산로 104","location":"104동 지하1층 57기둥 좌측 벽면","lat":"35.601510971","lng":"129.36642850","zcode":"31","zscode":"31200","kind":"H0","kindDetail":"H001"},{"statNm":"울산북구 반도유보라아이비파크 106동","statId":"EV004089","addr":"울산광역시 북구 화산로 104","location":"106동 지하1층 1,2라인 출입구 우측","lat":"35.601510971","lng":"129.36642850","zcode":"31","zscode":"31200","kind":"H0","kindDetail":"H001"},{"statNm":"울산울주 언양동부주공아파트","statId":"EV005063","addr":"울산광역시 울주군 언양읍 북문8길 17","location":"102동 지하1층 밸브실 출입구 우측벽면","lat":"35.572746388","lng":"129.12296624","zcode":"31","zscode":"31710","kind":"H0","kindDetail":"H001"},{"statNm":"울산울주 온양대우아파트1","statId":"EV005701","addr":"울산광역시 울주군 온양읍 솔밭1길 12","location":"18주차장지하1층 09기둥 우측","lat":"35.407107341","lng":"129.28675198","zcode":"31","zscode":"31710","kind":"H0","kindDetail":"H001"},{"statNm":"울산울주 온양대우아파트2","statId":"EV005702","addr":"울산광역시 울주군 온양읍 솔밭1길 12","location":"17주차장지하1층 07기둥우측","lat":"35.407107341","lng":"129.28675198","zcode":"31","zscode":"31710","kind":"H0","kindDetail":"H001"},{"statNm":"울산북구 블루마시티효성해링턴플레이스2단지","statId":"EV006052","addr":"울산광역시 북구 강동산하5로 25","location":"201~202동 지하1층 주차장 C07기둥","lat":"35.635316560","lng":"129.43867240","zcode":"31","zscode":"31200","kind":"H0","kindDetail":"H001"},{"statNm":"현대자동차 울산공장 본관","statId":"EV006260","addr":"울산광역시 북구 염포로 700","location":"홍보관 옆","lat":"35.536929269","lng":"129.38565771","zcode":"31","zscode":"31200","kind":"G0","kindDetail":"G004"},{"statNm":"울산남구 선암SKView","statId":"EV006638","addr":"울산광역시 남구 두왕로190번길 75","location":"15호라인 지하주차장 분전반 근처","lat":"35.515673084","lng":"129.31726826","zcode":"31","zscode":"31140","kind":"H0","kindDetail":"H001"},{"statNm":"울산중구 일신에일린의뜰아파트1","statId":"EV006914","addr":"울산광역시 중구 남외1길 105","location":"109동 지하1층 3-4라인 03번 기둥 1대","lat":"35.567501985","lng":"129.34955365","zcode":"31","zscode":"31110","kind":"H0","kindDetail":"H001"},{"statNm":"울산중구 일신에일린의뜰아파트2","statId":"EV006915","addr":"울산광역시 중구 남외1길 105","location":"116동 3-4 지하1층 18번기둥 우측 두번째 1대","lat":"35.567501985","lng":"129.34955365","zcode":"31","zscode":"31110","kind":"H0","kindDetail":"H001"},{"statNm":"울산중구 일신에일린의뜰아파트3","statId":"EV006916","addr":"울산광역시 중구 남외1길 105","location":"114동 3-4라인 지하1층 6번기둥 왼쪽 두번째 1대","lat":"35.567501985","lng":"129.34955365","zcode":"31","zscode":"31110","kind":"H0","kindDetail":"H001"},{"statNm":"울산북구 중산현대아파트","statId":"EV007014","addr":"울산광역시 북구 이화5길 20","location":"201동 7,8라인 뒤쪽주차장","lat":"35.662882098","lng":"129.33826902","zcode":"31","zscode":"31200","kind":"H0","kindDetail":"H001"},{"statNm":"황토속모텔","statId":"EZ000274","addr":"울산광역시 울주군 상북면 등억알프스로 391-6","location":"출입구 우측 식당앞 주차공간","lat":"35.5564001","lng":"129.0768610","zcode":"31","zscode":"31710","kind":"E0","kindDetail":"E003"},{"statNm":"VIP호텔 울산","statId":"EZ200112","addr":"울산광역시 남구 정동로76번길 20","location":"null","lat":"35.540352850364","lng":"129.3467433995","zcode":"31","zscode":"31140","kind":"G0","kindDetail":"G004"},{"statNm":"경동태원하이빌아파트","statId":"GN000412","addr":"울산광역시 울주군 범서읍 천상길 43","location":"101동지하주차장","lat":"35.560496","lng":"129.227494","zcode":"31","zscode":"31710","kind":"H0","kindDetail":"H001"},{"statNm":"서부성원쌍떼빌아파트","statId":"GN000413","addr":"울산광역시 동구 봉수로 450","location":"108동 지하주차장","lat":"35.525214","lng":"129.427322","zcode":"31","zscode":"31170","kind":"H0","kindDetail":"H001"},{"statNm":"신정1동행정복지센터","statId":"GN000414","addr":"울산광역시 남구 월평로9번길 7","location":"지상주차장","lat":"35.5413452","lng":"129.3065431","zcode":"31","zscode":"31140","kind":"A0","kindDetail":"A002"},{"statNm":"신정2동주민센터","statId":"GN000415","addr":"울산광역시 남구 봉월로20번길 9","location":"지상 주차장","lat":"35.534675","lng":"129.307738","zcode":"31","zscode":"31140","kind":"A0","kindDetail":"A002"},{"statNm":"신정3동주민센터","statId":"GN000416","addr":"울산광역시 남구 월평로103번길 18","location":"지상 주차장","lat":"35.5451167","lng":"129.3163375","zcode":"31","zscode":"31140","kind":"A0","kindDetail":"A002"},{"statNm":"신정4동주민센터","statId":"GN000417","addr":"울산광역시 남구 수암로64번길 16","location":"지상 주차장","lat":"35.5294096","lng":"129.314461","zcode":"31","zscode":"31140","kind":"A0","kindDetail":"A002"},{"statNm":"신정5동주민센터","statId":"GN000418","addr":"울산광역시 남구  월평로 147","location":"지상 주차장","lat":"35.544942","lng":"129.321413","zcode":"31","zscode":"31140","kind":"A0","kindDetail":"A002"},{"statNm":"달동행정복지센터","statId":"GN000419","addr":"울산광역시 남구 돋질로92번길 28","location":"지상 주차장","lat":"35.544467","lng":"129.331938","zcode":"31","zscode":"31140","kind":"A0","kindDetail":"A002"},{"statNm":"삼산동주민센터","statId":"GN000420","addr":"울산광역시 남구 삼산중로131번길 36","location":"지상 주차장","lat":"35.5364","lng":"129.117255","zcode":"31","zscode":"31140","kind":"A0","kindDetail":"A002"},{"statNm":"야음장생포동주민센터","statId":"GN000421","addr":"울산광역시 남구 수암로 322","location":"지상 주차장","lat":"35.544467","lng":"129.331938","zcode":"31","zscode":"31140","kind":"A0","kindDetail":"A002"},{"statNm":"대현동주민센터","statId":"GN000422","addr":"울산광역시 남구 수암로 182","location":"지상 주차장","lat":"35.5265491","lng":"129.3267906","zcode":"31","zscode":"31140","kind":"A0","kindDetail":"A002"},{"statNm":"수암동주민센터","statId":"GN000423","addr":"울산광역시 남구 중앙로 32","location":"지상 주차장","lat":"35.5243966","lng":"129.3184372","zcode":"31","zscode":"31140","kind":"A0","kindDetail":"A002"},{"statNm":"선암동주민센터","statId":"GN000424","addr":"울산광역시 남구 산업로325번길 34","location":"지상 주차장","lat":"35.51285","lng":"129.335263","zcode":"31","zscode":"31140","kind":"A0","kindDetail":"A002"},{"statNm":"방어동행정복지센터","statId":"GN000425","addr":"울산광역시 동구 꽃바위로 325","location":"지상 주차장","lat":"35.4862337","lng":"129.4240049","zcode":"31","zscode":"31170","kind":"A0","kindDetail":"A002"},{"statNm":"전하1동주민센터","statId":"GN000426","addr":"울산광역시 동구 바드래3길 55","location":"지상 주차장","lat":"35.5168175","lng":"129.4286038","zcode":"31","zscode":"31170","kind":"A0","kindDetail":"A002"},{"statNm":"남목1동주민센터","statId":"GN000427","addr":"울산광역시 동구 방어진순환도로 1170","location":"지상 주차장","lat":"35.5392674","lng":"129.4207404","zcode":"31","zscode":"31170","kind":"A0","kindDetail":"A002"},{"statNm":"남목2동주민센터","statId":"GN000428","addr":"울산광역시 동구 명덕6길 33","location":"지상 주차장","lat":"35.5246478","lng":"129.4314422","zcode":"31","zscode":"31170","kind":"A0","kindDetail":"A002"},{"statNm":"남목3동주민센터","statId":"GN000429","addr":"울산광역시 동구 동해안로 100","location":"지상 주차장","lat":"35.5460644","lng":"129.4313639","zcode":"31","zscode":"31170","kind":"A0","kindDetail":"A002"},{"statNm":"대송동주민센터","statId":"GN000430","addr":"울산광역시 동구 대송5길 10","location":"지상 주차장","lat":"35.5031864","lng":"129.418344","zcode":"31","zscode":"31170","kind":"A0","kindDetail":"A002"},{"statNm":"염포동주민센터","statId":"GN000431","addr":"울산광역시 북구 염포로 707","location":"지상 주차장","lat":"35.5307403","lng":"129.3943355","zcode":"31","zscode":"31200","kind":"A0","kindDetail":"A002"},{"statNm":"양정동주민센터","statId":"GN000432","addr":"울산광역시 북구 오치골3길 16-1","location":"지상 주차장","lat":"35.5487095","lng":"129.3853969","zcode":"31","zscode":"31200","kind":"A0","kindDetail":"A002"},{"statNm":"송정동주민센터","statId":"GN000433","addr":"울산광역시 북구 송내14길 41","location":"지상 주차장","lat":"35.5923667","lng":"129.365075","zcode":"31","zscode":"31200","kind":"A0","kindDetail":"A002"},{"statNm":"효문동주민센터","statId":"GN000434","addr":"울산광역시 북구 산업로 970","location":"지상 주차장","lat":"35.577792","lng":"129.361","zcode":"31","zscode":"31200","kind":"A0","kindDetail":"A002"},{"statNm":"농소1동주민센터","statId":"GN000435","addr":"울산광역시 북구 호계2길 10","location":"지상 주차장","lat":"35.6227804","lng":"129.3560142","zcode":"31","zscode":"31200","kind":"A0","kindDetail":"A002"},{"statNm":"온산읍주민센터","statId":"GN000436","addr":"울산광역시 울주군 온산읍 덕신로 303","location":"지상 주차장","lat":"35.434635","lng":"129.31465","zcode":"31","zscode":"31710","kind":"A0","kindDetail":"A002"},{"statNm":"서생면주민센터","statId":"GN000437","addr":"울산광역시 울주군 서생면 해맞이로 894","location":"지상 주차장","lat":"35.3499654","lng":"129.325925","zcode":"31","zscode":"31710","kind":"A0","kindDetail":"A002"},{"statNm":"청량면주민센터","statId":"GN000438","addr":"울산광역시 울주군 청량읍 신덕하3길 5","location":"지상 주차장","lat":"35.4931944","lng":"129.3061152","zcode":"31","zscode":"31710","kind":"A0","kindDetail":"A002"},{"statNm":"웅촌면주민센터","statId":"GN000439","addr":"울산광역시 울주군 웅촌면 새초천길 12","location":"지상 주차장","lat":"35.461375","lng":"129.2083139","zcode":"31","zscode":"31710","kind":"A0","kindDetail":"A002"},{"statNm":"삼남면주민센터","statId":"GN000440","addr":"울산광역시 울주군 삼남면 서향교1길 67-12","location":"지상 주차장","lat":"35.558585","lng":"129.113768","zcode":"31","zscode":"31710","kind":"A0","kindDetail":"A002"},{"statNm":"울주군청 상북면사무소","statId":"GN000441","addr":"울산광역시 울주군 상북면 도동신리로 5","location":"정문 출입구 옆 옥외주차장","lat":"35.590515","lng":"129.091325","zcode":"31","zscode":"31710","kind":"A0","kindDetail":"A002"},{"statNm":"울주군청 삼동면사무소","statId":"GN000442","addr":"울산광역시 울주군 삼동면 삼동로 777","location":"면사무소 건물뒷편 옥외주차장","lat":"35.522344","lng":"129.156899","zcode":"31","zscode":"31710","kind":"A0","kindDetail":"A002"},{"statNm":"온양읍사무소","statId":"GN000443","addr":"울산광역시 울주군 온양읍 남창1길 20","location":"지상 주차장","lat":"35.4190132","lng":"129.2806503","zcode":"31","zscode":"31710","kind":"A0","kindDetail":"A002"},{"statNm":"언양읍사무소","statId":"GN000444","addr":"울산광역시 울주군 언양읍 동문길21","location":"지상 주차장","lat":"35.5684396","lng":"129.1254843","zcode":"31","zscode":"31710","kind":"A0","kindDetail":"A002"},{"statNm":"삼익세라믹아파트(만수동)","statId":"GN000445","addr":"울산광역시 남구 두왕로190번길 77","location":"지상주차장","lat":"35.514514","lng":"129.317714","zcode":"31","zscode":"31140","kind":"H0","kindDetail":"H001"},{"statNm":"무거동KCC웰츠타워","statId":"GN000446","addr":"울산광역시 남구 대학로 164","location":"지하주차장","lat":"35.545293","lng":"129.260197","zcode":"31","zscode":"31140","kind":"H0","kindDetail":"H001"},{"statNm":"문수로2차아이파크1단지","statId":"GN000678","addr":"울산광역시 남구 동산로69번길 13","location":"지하2층 주차장 102동입출구 좌측벽면","lat":"35.5373111","lng":"129.3021423","zcode":"31","zscode":"31140","kind":"H0","kindDetail":"H001"},{"statNm":"울주군청 두동면사무소","statId":"GN000987","addr":"울산광역시 울주군 두동면 대밀길 28","location":"정문 뒷편 옥외주차장","lat":"35.654342","lng":"129.2011725","zcode":"31","zscode":"31710","kind":"A0","kindDetail":"A002"},{"statNm":"울주군청 두서면사무소","statId":"GN000988","addr":"울산광역시 울주군 두서면 반구대로 1817-11","location":"정문 뒷편 옥외주차장","lat":"35.6479144","lng":"129.1618614","zcode":"31","zscode":"31710","kind":"A0","kindDetail":"A002"},{"statNm":"울주군청 삼남면보건소","statId":"GN001046","addr":"울산광역시 울주군 삼남면 서향교1길 67-12","location":"면사무소 건물뒷편 옥외주차장","lat":"35.5583526","lng":"129.1137538","zcode":"31","zscode":"31710","kind":"I0","kindDetail":"I003"},{"statNm":"삼동면주민센터","statId":"GN001049","addr":"울산광역시 울주군 삼동면 삼동로 777","location":"지상 주차장","lat":"35.5237661","lng":"129.1575837","zcode":"31","zscode":"31710","kind":"A0","kindDetail":"A002"},{"statNm":"Q5모텔","statId":"GN001087","addr":"울산광역시 남구 정동로76번길 18","location":"지상주차장 벽면 2기설치","lat":"35.5403747","lng":"129.3465311","zcode":"31","zscode":"31140","kind":"E0","kindDetail":"E003"},{"statNm":"정림탑스빌","statId":"GN001089","addr":"울산광역시 중구 장춘로 164","location":"정립탑스빌 지하주차장","lat":"35.558557","lng":"129.3262663","zcode":"31","zscode":"31110","kind":"H0","kindDetail":"H001"},{"statNm":"신울산경남아너스빌","statId":"GN001166","addr":"울산광역시 울주군 언양읍 북문11길 9","location":"1구역:지하1층주차장 29번기둥및 30번기둥 ,2구역:지하2층주차장 79번기둥 및 80번기둥","lat":"35.5729469","lng":"129.1244049","zcode":"31","zscode":"31710","kind":"H0","kindDetail":"H001"},{"statNm":"문수산동원로얄듀크","statId":"GN001168","addr":"울산광역시 울주군 범서읍 장검길 60","location":"1구역:107동 지하2층주차장 입출구측 양측기둥 8기설치","lat":"35.5541361","lng":"129.2524569","zcode":"31","zscode":"31710","kind":"H0","kindDetail":"H001"},{"statNm":"옥동삼익아파트","statId":"GN001170","addr":"울산광역시 남구 문수로302번길 8","location":"1구역:지상1층 관리사무소옆벽면 3기설치","lat":"35.5348791","lng":"129.2862473","zcode":"31","zscode":"31140","kind":"H0","kindDetail":"H001"},{"statNm":"신한다솜아파트","statId":"GN001172","addr":"울산광역시 울주군 범서읍 천상2길 16","location":"지하1층주차장 벽면","lat":"35.5625706","lng":"129.2285866","zcode":"31","zscode":"31710","kind":"H0","kindDetail":"H001"},{"statNm":"호계청구아파트","statId":"GN001173","addr":"울산광역시 북구 호계로 402","location":"지하1층주자창 램프 맞은편 벽면","lat":"35.6387402","lng":"129.3472761","zcode":"31","zscode":"31200","kind":"H0","kindDetail":"H001"},{"statNm":"울산자유무역지역관리원","statId":"GN001184","addr":"울산광역시 울주군 청량면 처용산업3길162","location":"지상주차장내 스탠드형 2기설치","lat":"35.4811116","lng":"129.3270316","zcode":"31","zscode":"31710","kind":"A0","kindDetail":"A003"},{"statNm":"유스타시티일동미라주더스타1단지","statId":"GN007274","addr":"울산광역시 북구 중산로 48","location":"B1(101동 4대, 105동 5대, 108동 5대 ) 총 14대","lat":"35.652626823","lng":"129.35239498","zcode":"31","zscode":"31200","kind":"H0","kindDetail":"H001"},{"statNm":"유스타시티일동미라주더스타3단지","statId":"GN007834","addr":"울산광역시 북구 중산로 45","location":"B1기둥B10,B11-2기, B1기둥D9,D12-2기, B2기둥B9,B10,B11-3기, B2기둥D10,D11,D12-3기","lat":"35.6536442","lng":"129.3530321","zcode":"31","zscode":"31200","kind":"H0","kindDetail":"H001"},{"statNm":"울산송정제일풍경채","statId":"GN008118","addr":"울산광역시 북구 박상진3로 73","location":"B1(102동 4대, 104동 6대, 105동 5대)","lat":"35.604517860","lng":"129.36798635","zcode":"31","zscode":"31200","kind":"H0","kindDetail":"H001"},{"statNm":"구영2차푸르지오","statId":"GN008138","addr":"울산광역시 울주군 범서읍 구영로 101-7","location":"B1(502동, 503동, 506동)각 2대씩, B1(507동, 508동)각 3대씩 총 12대","lat":"35.575889783","lng":"129.24259360","zcode":"31","zscode":"31710","kind":"H0","kindDetail":"H001"},{"statNm":"유스타시티일동미라주더스타2단지","statId":"GN008351","addr":"울산광역시 북구 중산로 47","location":"B2(207동 3대, 202동 6대, 205동 8대) 총 17대","lat":"35.652326682","lng":"129.35436769","zcode":"31","zscode":"31200","kind":"H0","kindDetail":"H001"},{"statNm":"드림인시티에일린의뜰2차","statId":"GN008375","addr":"울산광역시 북구 호계매곡1로 32","location":"B1(203동, 205동, 207동, 208동) 각 3대씩, B2(207동, 207동) 각 3대씩, B2(203동 2대) 총 20대","lat":"35.636187836","lng":"129.36289151","zcode":"31","zscode":"31200","kind":"H0","kindDetail":"H001"},{"statNm":"울산협성노블리스","statId":"GN008402","addr":"울산광역시 북구 호계로 309-20","location":"B1(P1동 6대, P2동 3대, P3동 2대) 총 11대","lat":"35.630844674","lng":"129.34898454","zcode":"31","zscode":"31200","kind":"H0","kindDetail":"H001"},{"statNm":"옥동삼익아파트","statId":"GN008682","addr":"울산광역시 남구 문수로302번길 9","location":"지상 4대","lat":"35.5349772","lng":"129.2864968","zcode":"31","zscode":"31140","kind":"H0","kindDetail":"H001"},{"statNm":"올림푸스맨션","statId":"GN009683","addr":"울산광역시 남구 수암로22번길 16","location":"null","lat":"35.530419030","lng":"129.30984391","zcode":"31","zscode":"31140","kind":"H0","kindDetail":"H001"},{"statNm":"타임모텔","statId":"GN020138","addr":"울산광역시 남구 신복로 14","location":"null","lat":"35.5479803","lng":"129.260769","zcode":"31","zscode":"31140","kind":"E0","kindDetail":"E003"},{"statNm":"번영로코아루더클래식","statId":"GN020329","addr":"울산광역시 남구 번영로 165","location":"B6 주차장 팬룸실 옆 12 기둥 뒤 (1대)","lat":"35.53973","lng":"129.3264","zcode":"31","zscode":"31140","kind":"H0","kindDetail":"H001"},{"statNm":"호반베르디움","statId":"GN020402","addr":"울산광역시 울주군 범서읍 구영리 211-1","location":"p3(107동)지하2층주차장 2기설치","lat":"35.57218","lng":"129.2452","zcode":"31","zscode":"31710","kind":"H0","kindDetail":"H001"},{"statNm":"야음동부아파트","statId":"GN020419","addr":"울산광역시 남구 야음로 24","location":"3단지 지하주차장 입출구쪽 벽면","lat":"35.52404","lng":"129.32471","zcode":"31","zscode":"31140","kind":"H0","kindDetail":"H001"},{"statNm":"엠에스모텔","statId":"GN020487","addr":"울산광역시 남구 화합로178번길 18","location":"모텔내 지상주차장 벽면2기설치","lat":"35.54046","lng":"129.34129","zcode":"31","zscode":"31140","kind":"E0","kindDetail":"E003"},{"statNm":"환타지아모텔","statId":"GN020586","addr":"울산광역시 남구 산업로647번길 5","location":"모텔내 주차장 카운터옆 벽면1기설치","lat":"35.5389783","lng":"129.3504621","zcode":"31","zscode":"31140","kind":"E0","kindDetail":"E003"},{"statNm":"올레모텔","statId":"GN020587","addr":"울산광역시 동구 해수욕장7길 15","location":"모텔내 옥외추자창 벽부형1기설치","lat":"35.4914852","lng":"129.4317039","zcode":"31","zscode":"31170","kind":"E0","kindDetail":"E003"},{"statNm":"약사더샵","statId":"GN021690","addr":"울산광역시 중구 약사로 20","location":"105동 지하1층 2대 ,205동 지하2층 4대","lat":"35.5684665","lng":"129.3371492","zcode":"31","zscode":"31110","kind":"H0","kindDetail":"H001"},{"statNm":"번영로코아루더클래식","statId":"GN022150","addr":"울산광역시 남구 번영로 165","location":"지하6층 주차장 3대","lat":"35.5397356","lng":"129.3264284","zcode":"31","zscode":"31140","kind":"G0","kindDetail":"G004"},{"statNm":"그린카운티1단지아파트","statId":"GN022823","addr":"울산광역시 북구 달천로 119","location":"지하주차장 104동  전기실 위 벽면 3대, 105동  입구 벽면 2대","lat":"35.6315845","lng":"129.3251723","zcode":"31","zscode":"31200","kind":"H0","kindDetail":"H001"},{"statNm":"무거동행정복지센터","statId":"GN022978","addr":"울산광역시 남구 대학로147번길 38","location":"무거동행정복지센터 입구 지상주차장 (1대)","lat":"35.5509312","lng":"129.2606674","zcode":"31","zscode":"31140","kind":"A0","kindDetail":"A001"},{"statNm":"옥동행정복지센터","statId":"GN022979","addr":"울산광역시 남구 문수로369번길 5","location":"옥동행정복지센터 후문 지상주차장 벽면 (1대)","lat":"35.5351732","lng":"129.293865","zcode":"31","zscode":"31140","kind":"A0","kindDetail":"A001"},{"statNm":"송정제일풍경채레이크뷰아파트","statId":"GN023088","addr":"울산광역시 북구 박상진3로 73","location":"107동 지하주차장 전기실 기둥면 C22~23 / A37 기둥 뒤 (5대)","lat":"35.6045262","lng":"129.3679828","zcode":"31","zscode":"31200","kind":"H0","kindDetail":"H001"},{"statNm":"전하2동행정복지센터","statId":"GN023093","addr":"울산광역시 동구 진성4길 45","location":"지하주차장 전기실 옆 (1대)","lat":"35.5088381","lng":"129.4267298","zcode":"31","zscode":"31170","kind":"A0","kindDetail":"A001"},{"statNm":"신영건축","statId":"GN030496","addr":"울산광역시 남구 왕생로 88","location":"지상주차장 2대","lat":"35.5412051","lng":"129.3305852","zcode":"31","zscode":"31140","kind":"H0","kindDetail":"H003"},{"statNm":"울산애니원고등학교","statId":"GN030584","addr":"울산광역시 중구 성안11길 21","location":"학교 내 주차장 입구 앞","lat":"35.5787176","lng":"129.3211133","zcode":"31","zscode":"31110","kind":"J0","kindDetail":"J001"},{"statNm":"오션뷰호텔(일송개발)","statId":"GN030600","addr":"울산광역시 동구 해수욕장1길 50","location":"호텔 내 주차장","lat":"35.4933485","lng":"129.4274938","zcode":"31","zscode":"31170","kind":"E0","kindDetail":"E003"},{"statNm":"유에이치산업","statId":"GN030602","addr":"울산광역시 북구 진장24길 8-1","location":"옥외주차장","lat":"35.5657632","lng":"129.3601272","zcode":"31","zscode":"31200","kind":"H0","kindDetail":"H003"},{"statNm":"스타트튜닝샵","statId":"GN030604","addr":"울산광역시 북구 진장24길 13","location":"옥외주차장","lat":"35.5653305","lng":"129.3596213","zcode":"31","zscode":"31200","kind":"H0","kindDetail":"H003"},{"statNm":"뜰","statId":"GN030632","addr":"울산광역시 울주군 청량읍 청량천변로 153","location":"옥외주차장","lat":"35.5243171","lng":"129.261367","zcode":"31","zscode":"31710","kind":"E0","kindDetail":"E005"},{"statNm":"카몬시카페","statId":"GN030648","addr":"울산광역시 북구 용바위2길 45","location":"주차장입구 오른쪽","lat":"35.5844185","lng":"129.4601415","zcode":"31","zscode":"31200","kind":"E0","kindDetail":"E005"},{"statNm":"이종완","statId":"GN030660","addr":"울산광역시 북구 동해안로 787-2","location":"건물1층 오른쪽 기둥","lat":"35.5758778","lng":"129.4526036","zcode":"31","zscode":"31200","kind":"H0","kindDetail":"H003"},{"statNm":"코오롱스포츠울산무거점","statId":"GN030670","addr":"울산광역시 울주군 범서읍 울밀로 2840","location":"옥외주차장","lat":"35.557392","lng":"129.2588792","zcode":"31","zscode":"31710","kind":"H0","kindDetail":"H003"},{"statNm":"맥스모텔","statId":"GN030674","addr":"울산광역시 울주군 온양읍 온양로 190-6","location":"옥외주차장","lat":"35.4083719","lng":"129.2909806","zcode":"31","zscode":"31710","kind":"E0","kindDetail":"E003"},{"statNm":"태광자동차정비공업사","statId":"GN030676","addr":"울산광역시 남구 산업로339번길 12","location":"건물앞 왼쪽 주차장","lat":"35.5154696","lng":"129.3386069","zcode":"31","zscode":"31140","kind":"F0","kindDetail":"F001"},{"statNm":"대왕상사","statId":"GN030690","addr":"울산광역시 남구 중앙로 131","location":"건물뒤 주차장 건물입구 좌측벽면","lat":"35.5327284","lng":"129.3145561","zcode":"31","zscode":"31140","kind":"H0","kindDetail":"H003"},{"statNm":"바다향기(김은순)","statId":"GN030692","addr":"울산광역시 북구 동해안로 1287","location":"건물앞 주차장","lat":"35.6069306","lng":"129.4568683","zcode":"31","zscode":"31200","kind":"E0","kindDetail":"E006"},{"statNm":"어궁참가자미횟집","statId":"GN030694","addr":"울산광역시 남구 달삼로23번길 14","location":"건물옆 주차장","lat":"35.5368407","lng":"129.3314138","zcode":"31","zscode":"31140","kind":"E0","kindDetail":"E006"},{"statNm":"정림탑스빌","statId":"GN040458","addr":"울산광역시 중구 장춘로 164","location":"정립탑스빌 지하주차장","lat":"35.558557","lng":"129.3262663","zcode":"31","zscode":"31110","kind":"H0","kindDetail":"H001"},{"statNm":"천곡2차코아루204동","statId":"GN040474","addr":"울산광역시 북구 천곡남로 65","location":"201동 지하주차장 C02,D02,E02 기둥뒤","lat":"35.6351889","lng":"129.3336726","zcode":"31","zscode":"31200","kind":"H0","kindDetail":"H001"},{"statNm":"천곡2차코아루201동","statId":"GN040477","addr":"울산광역시 북구 천곡남로 65","location":"204동 지하주차장 F03 기둥뒤 E10 기둥","lat":"35.6351889","lng":"129.3336726","zcode":"31","zscode":"31200","kind":"H0","kindDetail":"H001"},{"statNm":"울산현대백화점동구점","statId":"GN040539","addr":"울산광역시 동구 방어진순환도로 899","location":"지하2층주차장D5기둥뒤","lat":"35.5215064","lng":"129.4318003","zcode":"31","zscode":"31170","kind":"H0","kindDetail":"H001"},{"statNm":"현대백화점울산점별관지하1층","statId":"GN040640","addr":"울산광역시 남구 삼산로 261","location":"별관지하1층","lat":"35.5395869","lng":"129.3358538","zcode":"31","zscode":"31140","kind":"E0","kindDetail":"E002"},{"statNm":"현대백화점울산점본관지하7층","statId":"GN040642","addr":"울산광역시 남구 삼산로 261","location":"별관지하7층","lat":"35.5395869","lng":"129.3358538","zcode":"31","zscode":"31140","kind":"H0","kindDetail":"H001"},{"statNm":"호계청구그린아파트","statId":"GN040783","addr":"울산광역시 북구 호계로 402","location":"관리사무소 뒤 옥외주차장","lat":"35.6389207","lng":"129.3475284","zcode":"31","zscode":"31200","kind":"H0","kindDetail":"H001"},{"statNm":"힐스테이트강동아파트","statId":"GN050075","addr":"울산광역시 북구 강동산하5로 52","location":"지하2층 G기둥 부근","lat":"35.6374576","lng":"129.436454","zcode":"31","zscode":"31200","kind":"H0","kindDetail":"H001"},{"statNm":"옥동센트럴하임","statId":"GN062054","addr":"울산광역시 남구 문수로 377","location":"null","lat":"35.534689892","lng":"129.29480429","zcode":"31","zscode":"31140","kind":"H0","kindDetail":"H001"},{"statNm":"엠타워빌딩","statId":"GN062057","addr":"울산광역시 중구 종가로 310","location":"null","lat":"35.563774026","lng":"129.31084475","zcode":"31","zscode":"31110","kind":"H0","kindDetail":"H001"},{"statNm":"일산동주민센터","statId":"GN100078","addr":"울산광역시 동구 일산진11길 123","location":"지상주차장","lat":"37.484431","lng":"126.74692","zcode":"31","zscode":"31170","kind":"A0","kindDetail":"A002"},{"statNm":"우정선경1차아파트","statId":"GN100108","addr":"울산광역시 중구 우정3길 9","location":"지하1층 주차장 5~10번 기둥뒷 벽면 6기설치","lat":"35.559176","lng":"129.3083326","zcode":"31","zscode":"31110","kind":"H0","kindDetail":"H001"},{"statNm":"삼호동주민센터","statId":"GN100155","addr":"울산광역시 남구 삼호로 15","location":"동사무소 지상주차장 정문측 스탠드형1기 설치","lat":"35.550033","lng":"129.265987","zcode":"31","zscode":"31140","kind":"A0","kindDetail":"A002"},{"statNm":"농소3동주민센터","statId":"GN100212","addr":"울산광역시 북구 신답로 77","location":"동사무소내 지상주차장 옆 화단 스탠드형1기설치","lat":"35.628632","lng":"129.3396","zcode":"31","zscode":"31200","kind":"A0","kindDetail":"A002"},{"statNm":"평창주유소","statId":"GS000014","addr":"울산광역시 남구 돋질로 297","location":"null","lat":"35.5445185","lng":"129.3373428","zcode":"31","zscode":"31140","kind":"E0","kindDetail":"E007"},{"statNm":"한국에너지공단 본사","statId":"HE000422","addr":"울산광역시 중구 종가로 323","location":"null","lat":"35.565153","lng":"129.311915","zcode":"31","zscode":"31110","kind":"H0","kindDetail":"H003"},{"statNm":"명촌주차장","statId":"HE000480","addr":"울산광역시 북구 명촌동","location":"null","lat":"35.548834","lng":"129.362666","zcode":"31","zscode":"31200","kind":"B0","kindDetail":"B004"},{"statNm":"현대자동차 문화회관","statId":"HE000481","addr":"울산광역시 북구 양정동 523-5","location":"null","lat":"35.538613","lng":"129.387409","zcode":"31","zscode":"31200","kind":"H0","kindDetail":"H003"},{"statNm":"예전만주차장","statId":"HE000482","addr":"울산광역시 북구 방어동","location":"null","lat":"35.513147","lng":"129.399879","zcode":"31","zscode":"31200","kind":"B0","kindDetail":"B004"},{"statNm":"출고주차장","statId":"HE000483","addr":"울산광역시 북구 양정동 145-5","location":"null","lat":"35.556897","lng":"129.378727","zcode":"31","zscode":"31200","kind":"B0","kindDetail":"B004"},{"statNm":"울산 연암주유소","statId":"HE000621","addr":"울산광역시 북구 북부순환도로 1159","location":"null","lat":"35.580848","lng":"129.356607","zcode":"31","zscode":"31200","kind":"E0","kindDetail":"E007"},{"statNm":"동서발전_울산화력사원사택","statId":"HE000639","addr":"울산광역시 남구 중앙로 83","location":"null","lat":"35.528570","lng":"129.316185","zcode":"31","zscode":"31140","kind":"H0","kindDetail":"H001"},{"statNm":"우정혁신동원로얄듀크1차 1","statId":"HE000800","addr":"울산광역시 중구 종가로 250","location":"지하주차장 C01 기둥","lat":"35.562734","lng":"129.304364","zcode":"31","zscode":"31110","kind":"H0","kindDetail":"H001"},{"statNm":"현대자동차 기술교육원","statId":"HE001016","addr":"울산광역시 북구 염포로 706","location":"지상주차장","lat":"35.525026","lng":"129.399096","zcode":"31","zscode":"31200","kind":"G0","kindDetail":"G004"},{"statNm":"현대자동차 시트공장 12","statId":"HE001102","addr":"울산광역시 북구 효산1길 35","location":"지상주차장 시트12공장","lat":"35.572843","lng":"129.372283","zcode":"31","zscode":"31200","kind":"G0","kindDetail":"G004"},{"statNm":"현대자동차 시트공장 3","statId":"HE001103","addr":"울산광역시 북구 율동2길 13","location":"지상주차장 시트3공장","lat":"35.562232","lng":"129.372152","zcode":"31","zscode":"31200","kind":"G0","kindDetail":"G004"},{"statNm":"남창옹기종기시장 공영주차장","statId":"HE001106","addr":"울산광역시 울주군 온양읍 남창역길 12","location":"주차타워 진입전 왼쪽 주차장","lat":"35.414905","lng":"129.284302","zcode":"31","zscode":"31710","kind":"B0","kindDetail":"B001"},{"statNm":"현대자동차 울산공장 직원주차장","statId":"HE001107","addr":"울산광역시 북구 염포로 599","location":"지상주차장","lat":"35.540021","lng":"129.387891","zcode":"31","zscode":"31200","kind":"B0","kindDetail":"B004"},{"statNm":"현대자동차 울산공장 효문주차장","statId":"HE001108","addr":"울산광역시 북구 효문동 615-1","location":"지상주차장","lat":"35.560872","lng":"129.369757","zcode":"31","zscode":"31200","kind":"B0","kindDetail":"B004"},{"statNm":"코스트코 울산점","statId":"HE001134","addr":"울산광역시 북구 진장유통로 78-12","location":"옥상주차장","lat":"35.5771","lng":"129.3586","zcode":"31","zscode":"31200","kind":"E0","kindDetail":"E001"},{"statNm":"아람모텔","statId":"HE192143","addr":"울산광역시 남구 대학로161번길 24","location":"null","lat":"35.550649","lng":"129.261313","zcode":"31","zscode":"31140","kind":"E0","kindDetail":"E003"},{"statNm":"금아드림팰리스R","statId":"HE192145","addr":"울산광역시 울주군 삼남면 도호1길 39-11","location":"null","lat":"35.546965","lng":"129.140171","zcode":"31","zscode":"31710","kind":"H0","kindDetail":"H001"},{"statNm":"한그린아파트","statId":"HE192146","addr":"울산광역시 울주군 온양읍 연안8길 31","location":"null","lat":"35.407328","lng":"129.283943","zcode":"31","zscode":"31710","kind":"H0","kindDetail":"H001"},{"statNm":"울산송정한양수자인","statId":"HE192147","addr":"울산광역시 북구 박상진3로 25","location":"null","lat":"35.603826","lng":"129.364291","zcode":"31","zscode":"31200","kind":"H0","kindDetail":"H001"},{"statNm":"성우현대아파트","statId":"HE192359","addr":"울산광역시 북구 호계로 313","location":"null","lat":"35.631164","lng":"129.350221","zcode":"31","zscode":"31200","kind":"H0","kindDetail":"H001"},{"statNm":"대공원롯데인벤스가아파트","statId":"HE192360","addr":"울산광역시 남구 대공원로141번길 8","location":"null","lat":"35.530389","lng":"129.298043","zcode":"31","zscode":"31140","kind":"H0","kindDetail":"H001"},{"statNm":"월드메르디앙월드시티1단지아파트","statId":"HE192361","addr":"울산광역시 북구 매산로 65","location":"null","lat":"35.641795","lng":"129.361243","zcode":"31","zscode":"31200","kind":"H0","kindDetail":"H001"},{"statNm":"신정오펠리움플러스","statId":"HE192577","addr":"울산광역시 남구 삼산로 50","location":"null","lat":"35.533375","lng":"129.313423","zcode":"31","zscode":"31140","kind":"H0","kindDetail":"H001"},{"statNm":"울산천곡벽산블루밍아파트","statId":"HE192579","addr":"울산광역시 북구 천곡길 137","location":"null","lat":"35.637667","lng":"129.329902","zcode":"31","zscode":"31200","kind":"H0","kindDetail":"H001"},{"statNm":"우정혁신동원로얄듀크1차 2","statId":"HE192580","addr":"울산광역시 중구 종가로 250","location":"null","lat":"35.562673","lng":"129.30455","zcode":"31","zscode":"31110","kind":"H0","kindDetail":"H001"},{"statNm":"옥동현대아파트","statId":"HE202653","addr":"울산광역시 남구 은월로2번길 7","location":"null","lat":"35.540446","lng":"129.290949","zcode":"31","zscode":"31140","kind":"H0","kindDetail":"H001"},{"statNm":"삼산아데라움아파트","statId":"HE212717","addr":"울산광역시 남구 강남로 348","location":"null","lat":"35.545792","lng":"129.346605","zcode":"31","zscode":"31140","kind":"H0","kindDetail":"H001"},{"statNm":"힐스테이트강동아파트","statId":"HM000207","addr":"울산광역시 북구 강동산하5로 52","location":"주차장","lat":"35.637032511","lng":"129.43678884","zcode":"31","zscode":"31200","kind":"H0","kindDetail":"H001"},{"statNm":"반도유보라아이비파크","statId":"HM000228","addr":"울산광역시 북구 화산로 104","location":"주차장","lat":"35.601317085","lng":"129.36624448","zcode":"31","zscode":"31200","kind":"H0","kindDetail":"H001"},{"statNm":"유곡e편한세상","statId":"HM000413","addr":"울산광역시 중구 평동3길 2","location":"주차장","lat":"35.560118916","lng":"129.30310762","zcode":"31","zscode":"31110","kind":"H0","kindDetail":"H001"},{"statNm":"동원로얄듀크2차","statId":"HM000414","addr":"울산광역시 중구 종가4길 10","location":"주차장","lat":"35.560621813","lng":"129.29521143","zcode":"31","zscode":"31110","kind":"H0","kindDetail":"H001"},{"statNm":"드림인시티에일린의뜰1차","statId":"HM000571","addr":"울산광역시 북구 호계매곡1로 31","location":"주차장","lat":"35.637089806","lng":"129.36364324","zcode":"31","zscode":"31200","kind":"H0","kindDetail":"H001"},{"statNm":"우정코아루웰메이드","statId":"HM000696","addr":"울산광역시 중구 당산2길 25","location":"주차장","lat":"35.554087631","lng":"129.31098696","zcode":"31","zscode":"31110","kind":"H0","kindDetail":"H001"},{"statNm":"태화강엑슬루타워오피스텔","statId":"HM000699","addr":"울산광역시 남구 봉월로 167","location":"주차장","lat":"35.547350082","lng":"129.30744266","zcode":"31","zscode":"31140","kind":"H0","kindDetail":"H001"},{"statNm":"삼산나인파크오피스텔","statId":"HS001683","addr":"울산광역시 남구 화합로 162","location":"null","lat":"35.5391732","lng":"129.340046","zcode":"31","zscode":"31140","kind":"H0","kindDetail":"H001"},{"statNm":"효성해링턴 플레이스 1차 아파트","statId":"HS001751","addr":"울산광역시 중구 번영로 435","location":"null","lat":"35.5622106","lng":"129.331331","zcode":"31","zscode":"31110","kind":"H0","kindDetail":"H001"},{"statNm":"진장디플렉스","statId":"HSH00032","addr":"울산광역시 북구 진장유통로 16","location":"null","lat":"35.5719856","lng":"129.3579097","zcode":"31","zscode":"31200","kind":"E0","kindDetail":"E001"},{"statNm":"개인주택","statId":"HSH00268","addr":"울산광역시 중구 종가30길 15","location":"null","lat":"35.574635933","lng":"129.33489994","zcode":"31","zscode":"31110","kind":"H0","kindDetail":"H005"},{"statNm":"효성해링턴플레이스1차아파트","statId":"HSH00359","addr":"울산광역시 중구 번영로 435","location":"null","lat":"35.562087014","lng":"129.33169948","zcode":"31","zscode":"31110","kind":"H0","kindDetail":"H001"},{"statNm":"드림파크오피스텔","statId":"HSH00412","addr":"울산광역시 중구 계변로 54","location":"null","lat":"35.560978913","lng":"129.33193135","zcode":"31","zscode":"31110","kind":"H0","kindDetail":"H001"},{"statNm":"한국건강관리협회울산지부","statId":"HSH00422","addr":"울산광역시 중구 번영로 360","location":"null","lat":"35.556974131","lng":"129.32673093","zcode":"31","zscode":"31110","kind":"G0","kindDetail":"G004"},{"statNm":"울산 선거관리 위원회","statId":"HW000017","addr":"울산광역시 중구 구교로 71","location":"실외주차장","lat":"35.5554957","lng":"129.332088","zcode":"31","zscode":"31110","kind":"A0","kindDetail":"A001"},{"statNm":"롯데칠성음료 울산영업소","statId":"JA310002","addr":"울산광역시 북구 산성로 66","location":"롯데칠성음료 울산영업소","lat":"35.568031692","lng":"129.37136506","zcode":"31","zscode":"31200","kind":"G0","kindDetail":"G004"},{"statNm":"쌍용아진그린타운3차","statId":"JE110001","addr":"울산광역시 북구 아진로 115","location":"null","lat":"35.629757","lng":"129.336233","zcode":"31","zscode":"31200","kind":"H0","kindDetail":"H001"},{"statNm":"문수체육관","statId":"JE110002","addr":"울산광역시 남구 웅촌로 1342","location":"null","lat":"35.534349177","lng":"129.25306734","zcode":"31","zscode":"31140","kind":"A0","kindDetail":"A004"},{"statNm":"(주)우리은행 울산중앙금융센터","statId":"JE110003","addr":"울산광역시 남구 삼산로 291","location":"지하 주차장","lat":"35.540043141","lng":"129.33863606","zcode":"31","zscode":"31140","kind":"I0","kindDetail":"I008"},{"statNm":"울산경동우신알프스타운103동","statId":"KE000032","addr":"울산광역시 울주군 삼남면 작괘들길 41","location":"103동 지하3층 주차장","lat":"35.5441323","lng":"129.1055528","zcode":"31","zscode":"31710","kind":"H0","kindDetail":"H001"},{"statNm":"울산송정호반베르디움106동","statId":"KE000034","addr":"울산광역시 북구 박상진3로 5","location":"106동 지하1층 주차장 15, 33 기둥","lat":"35.6022011","lng":"129.3615713","zcode":"31","zscode":"31200","kind":"H0","kindDetail":"H001"},{"statNm":"울산송정호반베르디움104동","statId":"KE000035","addr":"울산광역시 북구 박상진3로 5","location":"104동 지하1층 주차장 98기둥 근처","lat":"35.6022011","lng":"129.3615713","zcode":"31","zscode":"31200","kind":"H0","kindDetail":"H001"},{"statNm":"울산남구동문아뮤티","statId":"KE000046","addr":"울산광역시 남구 번영로 195","location":"실내주차장 05~09","lat":"35.5424574","lng":"129.3252499","zcode":"31","zscode":"31140","kind":"H0","kindDetail":"H001"},{"statNm":"울산학성파크디아채101동","statId":"KE000047","addr":"울산광역시 중구 학성로 218","location":"101동 지하2층 07기둥","lat":"35.5563727","lng":"129.3350945","zcode":"31","zscode":"31110","kind":"H0","kindDetail":"H001"},{"statNm":"울산우정동아이파크110동","statId":"KE000048","addr":"울산광역시 중구 우정2길 45","location":"110동 지하2층 04~08 기둥","lat":"35.5610187","lng":"129.3089657","zcode":"31","zscode":"31110","kind":"H0","kindDetail":"H001"},{"statNm":"울산중구KCC스위첸212동","statId":"KE000049","addr":"울산광역시 중구 종가로 668-10","location":"212동 지하1층 20기둥","lat":"35.5805827","lng":"129.3407775","zcode":"31","zscode":"31110","kind":"H0","kindDetail":"H001"},{"statNm":"울산중구KCC스위첸204동","statId":"KE000050","addr":"울산광역시 중구 종가로 668-10","location":"204동 지하1층 05기둥","lat":"35.5805827","lng":"129.3407775","zcode":"31","zscode":"31110","kind":"H0","kindDetail":"H001"},{"statNm":"울산팔레드상떼리버동","statId":"KE000052","addr":"울산광역시 남구 번영로 234","location":"리버동 지하5층 주차장 A06, A14 기둥","lat":"35.545897","lng":"129.3250333","zcode":"31","zscode":"31140","kind":"H0","kindDetail":"H001"},{"statNm":"울산굴화주공강변그린빌402동","statId":"KE000113","addr":"울산광역시 울주군 범서읍 울밀로 2879-8","location":"402동 지하2층 주차장","lat":"35.5566042","lng":"129.2640477","zcode":"31","zscode":"31710","kind":"H0","kindDetail":"H001"},{"statNm":"울산대공원한신휴플러스105동","statId":"KE000120","addr":"울산광역시 남구 대공원로99번길 19","location":"105동 지하1층 주차장 58기둥","lat":"35.5323502","lng":"129.2963984","zcode":"31","zscode":"31140","kind":"H0","kindDetail":"H001"},{"statNm":"울산중구골드클래스104동","statId":"KE000180","addr":"울산광역시 중구 종가로 760","location":"104동 지하1층 주차장 B10 기둥","lat":"35.5867749","lng":"129.3453532","zcode":"31","zscode":"31110","kind":"H0","kindDetail":"H001"},{"statNm":"울산중구골드클래스106동","statId":"KE000181","addr":"울산광역시 중구 종가로 760","location":"106동 지하1층 주차장 A11기둥","lat":"35.5874468","lng":"129.3448919","zcode":"31","zscode":"31110","kind":"H0","kindDetail":"H001"},{"statNm":"울산중구골드클래스109동","statId":"KE000182","addr":"울산광역시 중구 종가로 760","location":"109동 지하1층 주차장 D09 기둥","lat":"35.587726","lng":"129.3455785","zcode":"31","zscode":"31110","kind":"H0","kindDetail":"H001"},{"statNm":"울산문수로1차아이파크108동","statId":"KE000192","addr":"울산광역시 남구 문수로409번길 20","location":"108동 지하3층 주차장","lat":"35.5351822","lng":"129.2991595","zcode":"31","zscode":"31140","kind":"H0","kindDetail":"H001"},{"statNm":"울산문수로1차아이파크103동","statId":"KE000193","addr":"울산광역시 남구 문수로409번길 20","location":"103동 지하3층 주차장","lat":"35.5343004","lng":"129.298328","zcode":"31","zscode":"31140","kind":"H0","kindDetail":"H001"},{"statNm":"울산중구래미안2차303동","statId":"KE000254","addr":"울산광역시 중구 약사로 15","location":"303동 지하1층 주차장 9 기둥","lat":"35.5663827","lng":"129.3371139","zcode":"31","zscode":"31110","kind":"H0","kindDetail":"H001"},{"statNm":"울산중구래미안2차202동","statId":"KE000255","addr":"울산광역시 중구 약사로 40","location":"202동 지하1층 주차장","lat":"35.5697548","lng":"129.3361082","zcode":"31","zscode":"31110","kind":"H0","kindDetail":"H001"},{"statNm":"울산오토밸리로효성해링턴플레이스103동","statId":"KE000335","addr":"울산광역시 북구 신천로 105","location":"103동 지하1층 주차장","lat":"35.6474845","lng":"129.3518241","zcode":"31","zscode":"31200","kind":"H0","kindDetail":"H001"},{"statNm":"울산송정LH101동","statId":"KE000363","addr":"울산광역시 북구 박상진4로 56","location":"101동 지하1층 주차장","lat":"35.5999065","lng":"129.3671172","zcode":"31","zscode":"31200","kind":"H0","kindDetail":"H001"},{"statNm":"울산송정LH103동","statId":"KE000364","addr":"울산광역시 북구 박상진4로 56","location":"103동 지하1층 주차장","lat":"35.5993793","lng":"129.3683872","zcode":"31","zscode":"31200","kind":"H0","kindDetail":"H001"},{"statNm":"울산문수로2차아이파크201동","statId":"KE000365","addr":"울산광역시 남구 동산로69번길 14","location":"201동 지하2층 주차장","lat":"35.5362657","lng":"129.3037099","zcode":"31","zscode":"31140","kind":"H0","kindDetail":"H001"},{"statNm":"울산수아지오시티101동","statId":"KE000381","addr":"울산광역시 남구 봉월로 117","location":"101동 지하4층 주차장","lat":"35.5428979","lng":"129.3060367","zcode":"31","zscode":"31140","kind":"H0","kindDetail":"H001"},{"statNm":"울산새울원자력본부해오름403동","statId":"KE000399","addr":"울산광역시 울주군 서생면 해맞이로 1017","location":"403동 지하1층 주차장","lat":"35.357128","lng":"129.3302207","zcode":"31","zscode":"31710","kind":"H0","kindDetail":"H001"},{"statNm":"울산새울원자력본부해오름205동","statId":"KE000400","addr":"울산광역시 울주군 서생면 해맞이로 1017","location":"205동 지하1층 주차장","lat":"35.3571311","lng":"129.3289133","zcode":"31","zscode":"31710","kind":"H0","kindDetail":"H001"},{"statNm":"울산새울원자력본부해오름209동","statId":"KE000401","addr":"울산광역시 울주군 서생면 해맞이로 1017","location":"209동 지하1층 주차장","lat":"35.3571403","lng":"129.3295964","zcode":"31","zscode":"31710","kind":"H0","kindDetail":"H001"},{"statNm":"울산남구롯데캐슬102동","statId":"KE000415","addr":"울산광역시 남구 신선로 45","location":"102동 지하2층 주차장 A04기둥","lat":"35.5218409","lng":"129.3180191","zcode":"31","zscode":"31140","kind":"H0","kindDetail":"H001"},{"statNm":"울산남구롯데캐슬111동","statId":"KE000416","addr":"울산광역시 남구 신선로 45","location":"111동 지하2층 주차장 F01기둥","lat":"35.5223867","lng":"129.315825","zcode":"31","zscode":"31140","kind":"H0","kindDetail":"H001"},{"statNm":"울산남구롯데캐슬106동","statId":"KE000417","addr":"울산광역시 남구 신선로 45","location":"106동 지하2층 주차장 C03기둥","lat":"35.5215696","lng":"129.3159705","zcode":"31","zscode":"31140","kind":"H0","kindDetail":"H001"},{"statNm":"울산일신에일린의뜰103동1","statId":"KE000447","addr":"울산광역시 중구 남외1길 105","location":"103동 지하1층 주차장 A39기둥","lat":"35.5681922","lng":"129.3490133","zcode":"31","zscode":"31110","kind":"H0","kindDetail":"H001"},{"statNm":"울산일신에일린의뜰103동2","statId":"KE000448","addr":"울산광역시 중구 남외1길 105","location":"103동 지하1층 주차장 A17기둥","lat":"35.567751","lng":"129.3490159","zcode":"31","zscode":"31110","kind":"H0","kindDetail":"H001"},{"statNm":"울산월드메르디앙월드시티202동","statId":"KE000493","addr":"울산광역시 북구 매산로 66","location":"202동 지하1층 주차장","lat":"35.6410232","lng":"129.3590085","zcode":"31","zscode":"31200","kind":"H0","kindDetail":"H001"},{"statNm":"울산월드메르디앙월드시티203동","statId":"KE000494","addr":"울산광역시 북구 매산로 66","location":"203동 지하2층 주차장","lat":"35.6413843","lng":"129.3584884","zcode":"31","zscode":"31200","kind":"H0","kindDetail":"H001"},{"statNm":"울산월드메르디앙월드시티204동","statId":"KE000495","addr":"울산광역시 북구 매산로 66","location":"204동 지하2층 주차장","lat":"35.6416728","lng":"129.3579034","zcode":"31","zscode":"31200","kind":"H0","kindDetail":"H001"},{"statNm":"울산극동스타클래스123동","statId":"KE000496","addr":"울산광역시 북구 신천로 27","location":"123동 지하1층 주차장","lat":"35.6406955","lng":"129.3478937","zcode":"31","zscode":"31200","kind":"H0","kindDetail":"H001"},{"statNm":"울산극동스타클래스121동","statId":"KE000497","addr":"울산광역시 북구 신천로 27","location":"121동 지하1층 주차장","lat":"35.6403361","lng":"129.3475672","zcode":"31","zscode":"31200","kind":"H0","kindDetail":"H001"},{"statNm":"울산극동스타클래스122동","statId":"KE000498","addr":"울산광역시 북구 신천로 27","location":"122동 지하1층 주차장","lat":"35.6406693","lng":"129.3471588","zcode":"31","zscode":"31200","kind":"H0","kindDetail":"H001"},{"statNm":"울산남구롯데캐슬킹덤","statId":"KE000503","addr":"울산광역시 남구 문수로 471","location":"지하 2층 변전실 입구 우측","lat":"35.5334341","lng":"129.3051087","zcode":"31","zscode":"31140","kind":"H0","kindDetail":"H001"},{"statNm":"울산수암한라에이스빌101동","statId":"KE000504","addr":"울산광역시 남구 수암로128번길 24","location":"지하1층 101동 3통로 5,6라인 계단옆","lat":"35.5261409","lng":"129.3197143","zcode":"31","zscode":"31140","kind":"H0","kindDetail":"H001"},{"statNm":"울산울주천상벽산블루밍","statId":"KE000517","addr":"울산광역시 울주군 범서읍 천상길 55","location":"지하주차장 입구 A1,A2 기둥사이 벽면","lat":"35.5601563","lng":"129.2257855","zcode":"31","zscode":"31710","kind":"H0","kindDetail":"H001"},{"statNm":"울산중구창조애드웰","statId":"KE000519","addr":"울산광역시 중구 구교로 87","location":"변전실입구 우측 좌측 벽면 벽부형,우측 뒤 기둥 벽면","lat":"35.5559323","lng":"129.3343507","zcode":"31","zscode":"31110","kind":"H0","kindDetail":"H001"},{"statNm":"울산무거동한신휴플러스101동","statId":"KE000572","addr":"울산광역시 남구 남부순환도로 86","location":"101동 지하주차장 36기둥 좌측벽면","lat":"35.5411437","lng":"129.2643751","zcode":"31","zscode":"31140","kind":"H0","kindDetail":"H001"},{"statNm":"울산남구한화꿈에그린","statId":"KE000574","addr":"울산광역시 남구 산업로613번길 29","location":"지하2층 050기둥 우측벽면","lat":"35.5353011","lng":"129.3480174","zcode":"31","zscode":"31140","kind":"H0","kindDetail":"H001"},{"statNm":"울산무거동한신휴플러스104동","statId":"KE000575","addr":"울산광역시 남구 남부순환도로 86","location":"104동 지하주차장 휀룸입구 우측2개기둥(서로 마주보고 한대씩)","lat":"35.5411437","lng":"129.2643751","zcode":"31","zscode":"31140","kind":"H0","kindDetail":"H001"},{"statNm":"울산삼산푸르지오아파트A16","statId":"KE000629","addr":"울산광역시 남구 돋질로339번길 35","location":"지하1층 주차장 A16구역","lat":"35.5469917","lng":"129.341825","zcode":"31","zscode":"31140","kind":"H0","kindDetail":"H001"},{"statNm":"울산삼산푸르지오아파트A7","statId":"KE000630","addr":"울산광역시 남구 돋질로339번길 35","location":"지하1층 주차장 A7구역","lat":"35.546987","lng":"129.3416182","zcode":"31","zscode":"31140","kind":"H0","kindDetail":"H001"},{"statNm":"울산삼산푸르지오아파트B22","statId":"KE000631","addr":"울산광역시 남구 돋질로339번길 35","location":"지하1층 주차장 B22구역","lat":"35.5466542","lng":"129.3417247","zcode":"31","zscode":"31140","kind":"H0","kindDetail":"H001"},{"statNm":"울산삼산푸르지오아파트B1","statId":"KE000632","addr":"울산광역시 남구 돋질로339번길 35","location":"지하1층 주차장 B1구역","lat":"35.5463956","lng":"129.3421211","zcode":"31","zscode":"31140","kind":"H0","kindDetail":"H001"},{"statNm":"전하아이파크아파트","statId":"KL001989","addr":"울산광역시 동구 봉수로 270","location":"103동 지하5층 휀룸우측/106동 지하5층 휀룸우측","lat":"35.5100931","lng":"129.4231981","zcode":"31","zscode":"31170","kind":"G0","kindDetail":"G004"},{"statNm":"이에스티그린","statId":"KL002219","addr":"울산광역시 남구 테크노산업로81번길 28","location":"울산 남구 두왕동 760-4 진성빌딩 이에스티그린","lat":"35.5103419","lng":"129.2966930","zcode":"31","zscode":"31140","kind":"G0","kindDetail":"G004"},{"statNm":"동울산지사","statId":"KP000067","addr":"울산광역시 북구 명촌23길 8","location":"null","lat":"35.557678","lng":"129.359626","zcode":"31","zscode":"31200","kind":"A0","kindDetail":"A003"},{"statNm":"서울산지사","statId":"KP000069","addr":"울산광역시 울주군 삼남면 향교로 112","location":"null","lat":"35.557884","lng":"129.112755","zcode":"31","zscode":"31710","kind":"A0","kindDetail":"A003"},{"statNm":"울산지사","statId":"KP000071","addr":"울산광역시 남구 돋질로 181","location":"null","lat":"35.541941","lng":"129.324805","zcode":"31","zscode":"31140","kind":"A0","kindDetail":"A003"},{"statNm":"울산대공원 정문주차장","statId":"KP000367","addr":"울산광역시 남구 대공원로 94","location":"null","lat":"35.53199388894","lng":"129.2927449483","zcode":"31","zscode":"31140","kind":"B0","kindDetail":"B004"},{"statNm":"울산대공원 남문주차장","statId":"KP000368","addr":"울산광역시 남구 대공원로 94","location":"null","lat":"35.52660261067","lng":"129.2857795737","zcode":"31","zscode":"31140","kind":"B0","kindDetail":"B004"},{"statNm":"범서읍사무소","statId":"KP000369","addr":"울산광역시 울주군 범서읍 천상리 442-2","location":"null","lat":"35.56907","lng":"129.230271","zcode":"31","zscode":"31710","kind":"A0","kindDetail":"A004"},{"statNm":"전하시장 공영주차장","statId":"KP000378","addr":"울산광역시 동구 전하동 449-10","location":"null","lat":"35.51444","lng":"129.43166","zcode":"31","zscode":"31170","kind":"B0","kindDetail":"B004"},{"statNm":"울주군보건소","statId":"KP000379","addr":"울산광역시 울주군 삼남면교동리 1605-1","location":"null","lat":"35.558567","lng":"129.113739","zcode":"31","zscode":"31710","kind":"A0","kindDetail":"A003"},{"statNm":"남외푸르지오1차","statId":"KP000503","addr":"울산광역시 중구 남외동 남외3길 33","location":"null","lat":"35.56467329332","lng":"129.3480754935","zcode":"31","zscode":"31110","kind":"H0","kindDetail":"H001"},{"statNm":"무거동롯데캐슬","statId":"KP000504","addr":"울산광역시 남구 무거동 신복로79번길 14","location":"null","lat":"35.54803199866","lng":"129.2531349143","zcode":"31","zscode":"31140","kind":"H0","kindDetail":"H001"},{"statNm":"우정혁신LH3단지","statId":"KP000889","addr":"울산광역시 중구 태화동 유곡로 99","location":"null","lat":"35.558928505","lng":"129.2972899943","zcode":"31","zscode":"31110","kind":"H0","kindDetail":"H001"},{"statNm":"무거위브자이 아파트","statId":"KP001116","addr":"울산광역시 남구 무거동 북부순환도로 35","location":"null","lat":"35.5534616944","lng":"129.2654489182","zcode":"31","zscode":"31140","kind":"H0","kindDetail":"H001"},{"statNm":"문수데시앙1단지 아파트","statId":"KP001117","addr":"울산광역시 울주군 청량면 율리영해2길 8","location":"null","lat":"35.5267576312","lng":"129.2419205298","zcode":"31","zscode":"31710","kind":"H0","kindDetail":"H001"},{"statNm":"문수마을동문굿모닝힐 아파트","statId":"KP001118","addr":"울산광역시 울주군 범서읍 장검길 123","location":"null","lat":"35.5503171797","lng":"129.2526497899","zcode":"31","zscode":"31710","kind":"H0","kindDetail":"H001"},{"statNm":"협성현대 아파트","statId":"KP001119","addr":"울산광역시 남구 무거동 대학로1번길 61","location":"null","lat":"35.5415221038","lng":"129.2519098003","zcode":"31","zscode":"31140","kind":"H0","kindDetail":"H001"},{"statNm":"울산신천엠코타운","statId":"KP001125","addr":"울산광역시 북구 신천동 신천소공원로 15 ","location":"null","lat":"35.6452185275","lng":"129.3473049906","zcode":"31","zscode":"31200","kind":"H0","kindDetail":"H001"},{"statNm":"동원로얄듀크2차 아파트","statId":"KP001730","addr":"울산광역시 중구 유곡동 종가4길 10 ","location":"null","lat":"35.5616806764","lng":"129.2932046514","zcode":"31","zscode":"31110","kind":"H0","kindDetail":"H001"},{"statNm":"문수데시앙2단지","statId":"KP001731","addr":"울산광역시 울주군 청량면 율리영해2길 7","location":"null","lat":"35.5265970577","lng":"129.2428022831","zcode":"31","zscode":"31710","kind":"H0","kindDetail":"H001"},{"statNm":"문수로아이파크1단지","statId":"KP001732","addr":"울산광역시 남구 신정동 문수로409번길 20","location":"null","lat":"35.5352030803","lng":"129.2981607556","zcode":"31","zscode":"31140","kind":"H0","kindDetail":"H001"},{"statNm":"에일린의뜰3차","statId":"KP001733","addr":"울산광역시 중구 유곡동 종가로 245","location":"null","lat":"35.5644098088","lng":"129.3035602643","zcode":"31","zscode":"31110","kind":"H0","kindDetail":"H001"},{"statNm":"달천아이파크1차","statId":"KP001735","addr":"울산광역시 북구 달천동 달천로 50 ","location":"null","lat":"35.6354165745","lng":"129.3320250394","zcode":"31","zscode":"31200","kind":"H0","kindDetail":"H001"},{"statNm":"다운동아 아파트","statId":"KP001987","addr":"울산광역시 중구 다운동 다운로 175 ","location":"null","lat":"35.5682527492","lng":"129.2656889602","zcode":"31","zscode":"31110","kind":"H0","kindDetail":"H001"},{"statNm":"아데라움 아파트","statId":"KP001988","addr":"울산광역시 남구 삼산동 강남로 348 ","location":"null","lat":"35.5459602286","lng":"129.345575907","zcode":"31","zscode":"31140","kind":"H0","kindDetail":"H001"},{"statNm":"정림은하수타운","statId":"KP001990","addr":"울산광역시 북구 매곡동 매곡로 97-8","location":"null","lat":"35.6420489495","lng":"129.3543959334","zcode":"31","zscode":"31200","kind":"H0","kindDetail":"H001"},{"statNm":"양정힐스테이트1차 아파트","statId":"KP002327","addr":"울산광역시 북구 양정동 염포로 459 ","location":"null","lat":"35.551981462","lng":"129.3831245291","zcode":"31","zscode":"31200","kind":"H0","kindDetail":"H001"},{"statNm":"차량등록사업소(2개소)","statId":"KP002535","addr":"울산광역시 북구 진장유통로 5","location":"null","lat":"35.5711608346","lng":"129.356108349","zcode":"31","zscode":"31200","kind":"A0","kindDetail":"A004"},{"statNm":"울산 남구청","statId":"KP002536","addr":"울산광역시 남구 돋질로 233","location":"null","lat":"35.5437414454","lng":"129.3295209362","zcode":"31","zscode":"31140","kind":"A0","kindDetail":"A004"},{"statNm":"동천체육관 주차장","statId":"KP002604","addr":"울산광역시 중구 남외동 751-3","location":"null","lat":"35.5608303833","lng":"129.3502437378","zcode":"31","zscode":"31110","kind":"B0","kindDetail":"B001"},{"statNm":"구영코아루아파트","statId":"KP002632","addr":"울산광역시 울주군 범서읍 대리3길 23","location":"null","lat":"35.5686760905","lng":"129.248862733","zcode":"31","zscode":"31710","kind":"H0","kindDetail":"H001"},{"statNm":"롯데캐슬골드2단지아파트","statId":"KP002646","addr":"울산광역시 남구 야음동 신선로 46","location":"null","lat":"35.5209721727","lng":"129.3166813141","zcode":"31","zscode":"31140","kind":"H0","kindDetail":"H001"},{"statNm":"신동아파트","statId":"KP002662","addr":"울산광역시 북구 신천동 430-1","location":"null","lat":"35.6356095814","lng":"129.3476860881","zcode":"31","zscode":"31200","kind":"H0","kindDetail":"H001"},{"statNm":"블루마시티 서희스타힐스 블루원 아파트","statId":"KP002720","addr":"울산광역시 북구 산하동 산하중앙3로 142","location":"null","lat":"35.6385997016","lng":"129.438410502","zcode":"31","zscode":"31200","kind":"H0","kindDetail":"H001"},{"statNm":"삼산 한화 꿈에그린2단지","statId":"KP002748","addr":"울산광역시 남구 삼산동 산업로613번길 29","location":"null","lat":"35.535693654","lng":"129.3477020484","zcode":"31","zscode":"31140","kind":"H0","kindDetail":"H001"},{"statNm":"구영강변디아채","statId":"KP002778","addr":"울산광역시 울주군 범서읍 점촌4길 9","location":"null","lat":"35.5715043708","lng":"129.236333665","zcode":"31","zscode":"31710","kind":"H0","kindDetail":"H001"},{"statNm":"블루마시티1차 푸르지오","statId":"KP002814","addr":"울산광역시 북구 산하동 산 48-8","location":"null","lat":"35.63804535904","lng":"129.4358395812","zcode":"31","zscode":"31200","kind":"H0","kindDetail":"H001"},{"statNm":"경동태원하이빌","statId":"KP002817","addr":"울산광역시 울주군 범서읍 천상길 43","location":"null","lat":"35.5611182872","lng":"129.226909843","zcode":"31","zscode":"31710","kind":"H0","kindDetail":"H001"},{"statNm":"우정혁신LH2단지","statId":"KP002854","addr":"울산광역시 중구 종가로 142","location":"null","lat":"35.5598037735","lng":"129.292114611","zcode":"31","zscode":"31110","kind":"H0","kindDetail":"H001"},{"statNm":"중산공영주차장","statId":"KP003096","addr":"울산광역시 북구 중산동 1283","location":"null","lat":"35.6540283015","lng":"129.3492762645","zcode":"31","zscode":"31200","kind":"B0","kindDetail":"B001"},{"statNm":"진하공영주차장","statId":"KP003115","addr":"울산광역시 울주군 서생면 서생리 150","location":"null","lat":"35.3859370298","lng":"129.3413674539","zcode":"31","zscode":"31710","kind":"B0","kindDetail":"B001"},{"statNm":"회야강 소공원 공영주차장","statId":"KP003118","addr":"울산광역시 울주군 온산읍 삼평리 1487-10","location":"null","lat":"35.4055763857","lng":"129.3112774902","zcode":"31","zscode":"31710","kind":"B0","kindDetail":"B001"},{"statNm":"대운산3 공영주차장","statId":"KP003119","addr":"울산광역시 울주군 온양읍 운화리 1276-2","location":"null","lat":"35.3951277288","lng":"129.2443924277","zcode":"31","zscode":"31710","kind":"B0","kindDetail":"B001"},{"statNm":"문화공원 지하주차장","statId":"KP003801","addr":"울산광역시 남구 번영로 200","location":"null","lat":"35.542874","lng":"129.327033","zcode":"31","zscode":"31140","kind":"B0","kindDetail":"B002"},{"statNm":"삼남면행정복지센터","statId":"KP003806","addr":"울산광역시 울주군 삼남면 작괘들길 2","location":"null","lat":"35.540882648927","lng":"129.1084111943","zcode":"31","zscode":"31710","kind":"A0","kindDetail":"A002"},{"statNm":"울산지사(공용)","statId":"KP003854","addr":"울산광역시 남구 신정동 142-1","location":"null","lat":"35.541383","lng":"129.324816","zcode":"31","zscode":"26290","kind":"G0","kindDetail":"H003"},{"statNm":"울산대교 전망대 공영주차장","statId":"KP003980","addr":"울산광역시 동구 봉수로 155-1","location":"null","lat":"35.504022789787","lng":"129.4141449161","zcode":"31","zscode":"31170","kind":"B0","kindDetail":"B001"},{"statNm":"삼동면 복지센터","statId":"KP003981","addr":"울산광역시 울주군 삼동면 삼동로 777","location":"null","lat":"35.523539438","lng":"129.15764397","zcode":"31","zscode":"31710","kind":"A0","kindDetail":"A002"},{"statNm":"송정반도유보라아이비파크","statId":"KP003988","addr":"울산광역시 북구 송정동 1237-2","location":"null","lat":"35.60222157700","lng":"129.3673296249","zcode":"31","zscode":"31200","kind":"H0","kindDetail":"H001"},{"statNm":"동울산종합시장 공영주차장","statId":"KP004563","addr":"울산광역시 동구 진성3길 59","location":"null","lat":"35.510204272","lng":"129.42636107","zcode":"31","zscode":"31170","kind":"B0","kindDetail":"B001"},{"statNm":"울주군 남부통합보건소","statId":"KP004571","addr":"울산광역시 울주군 온양읍 터실1길 13 (망양리, 남부통합보건지소)","location":"null","lat":"35.45526076642","lng":"129.2909668309","zcode":"31","zscode":"31710","kind":"A0","kindDetail":"I003"},{"statNm":"울산구치소","statId":"KP004886","addr":"울산광역시 울주군 청량읍 청량천변로 103-9","location":"null","lat":"35.528404","lng":"129.260362","zcode":"31","zscode":"31710","kind":"B0","kindDetail":"B004"},{"statNm":"매곡천 공영주차장","statId":"KP004921","addr":"울산광역시 북구 제내4길 37","location":"null","lat":"35.6380","lng":"129.3527","zcode":"31","zscode":"31200","kind":"B0","kindDetail":"B001"},{"statNm":"명덕호수공원 공영주차장","statId":"KP005305","addr":"울산광역시 동구 봉수로 353","location":"null","lat":"35.5174","lng":"129.4242","zcode":"31","zscode":"31170","kind":"B0","kindDetail":"B001"},{"statNm":"LGL 울산집배센터","statId":"LD310001","addr":"울산광역시 북구 효문2로 97","location":"관리사무소 앞","lat":"35.5748447","lng":"129.3725804","zcode":"31","zscode":"31200","kind":"G0","kindDetail":"G004"},{"statNm":"LGL 울산집배센터","statId":"LDN00001","addr":"울산광역시 북구 효문2로 97","location":"관리사무소 앞","lat":"35.5748447","lng":"129.3725804","zcode":"31","zscode":"31200","kind":"G0","kindDetail":"G004"},{"statNm":"강변센트럴하이츠","statId":"LH700100","addr":"울산광역시 남구 중앙로290번길 53","location":"101동 지하 1층 주차장, 102동 지하 1층 주차장, 103동 지하 1층 주차장, 106동 지하 1층 주차장, 108동 지하 1층 주차장","lat":"35.5481353","lng":"129.3148539","zcode":"31","zscode":"31140","kind":"H0","kindDetail":"H001"},{"statNm":"두산위브더제니스","statId":"LH700200","addr":"울산광역시 남구 신정로203번길 61","location":"101동 지하 5층 주차장(3기),  102동 지하 5층 주차장(2기)","lat":"35.5484242","lng":"129.3101375","zcode":"31","zscode":"31140","kind":"H0","kindDetail":"H001"},{"statNm":"드림in에일린의뜰1차","statId":"LH700300","addr":"울산광역시 북구 호계매곡1로 31","location":"101동 지하 2층 주차장(2기),  110동 지하 2층 주차장(3기)","lat":"35.6368954","lng":"129.3641019","zcode":"31","zscode":"31200","kind":"H0","kindDetail":"H001"},{"statNm":"마제스타워2차","statId":"LH700400","addr":"울산광역시 중구 학성로 11","location":"201동 지하 2층 주차장(2기), 202동 지하 4층 주차장(3기)","lat":"35.5531518","lng":"129.3127438","zcode":"31","zscode":"31110","kind":"H0","kindDetail":"H001"},{"statNm":"구영2차푸르지오아파트","statId":"LH700500","addr":"울산광역시 울주군 범서읍 구영로 101-7","location":"506동 지하 1층 주차장(2기), 507동 지하 1층 주차장(3기)","lat":"35.5758898","lng":"129.2425936","zcode":"31","zscode":"31710","kind":"H0","kindDetail":"H001"},{"statNm":"래미안1차","statId":"LH701600","addr":"울산광역시 중구 약사로 10","location":"101동 지하1층 주차장 (1기) 103동 지하1층 주차장 (2기) 106동 지하1층 주차장 (1기), 107동 지하1층주차장 (1기)","lat":"35.5682208","lng":"129.3388208","zcode":"31","zscode":"31110","kind":"H0","kindDetail":"H001"},{"statNm":"한라그린피스","statId":"LH701700","addr":"울산광역시 울주군 범서읍 천상3길 20","location":"지하 1층 주차장","lat":"35.5624009","lng":"129.2277113","zcode":"31","zscode":"31710","kind":"H0","kindDetail":"H001"},{"statNm":"한라신천지타운","statId":"LH701800","addr":"울산광역시 북구 갈밭길 1","location":"지하 1층 주차장","lat":"35.6344286","lng":"129.3482607","zcode":"31","zscode":"31200","kind":"H0","kindDetail":"H001"},{"statNm":"성안금호타운","statId":"LH702700","addr":"울산광역시 중구 함월5길 35","location":"101동 지하 1층 주차장(2대) , 102동 지하 1층 주차장(1대) , 103동 지하 1층 주차장(2대)","lat":"35.5757833","lng":"129.3045637","zcode":"31","zscode":"31110","kind":"H0","kindDetail":"H001"},{"statNm":"현대싱그런아파트","statId":"LH703000","addr":"울산광역시 중구 함월로 75","location":"101동 지하 1층 주차장","lat":"35.5801034","lng":"129.3140971","zcode":"31","zscode":"31110","kind":"H0","kindDetail":"H001"},{"statNm":"천상청구그린타운1단지","statId":"LH703600","addr":"울산광역시 울주군 범서읍 평천길 94","location":"null","lat":"35.564689676","lng":"129.22287554","zcode":"31","zscode":"31710","kind":"H0","kindDetail":"H001"},{"statNm":"천상청구그린타운2단지아파트","statId":"LH703900","addr":"울산광역시 울주군 범서읍 평천길 82","location":"null","lat":"35.563991552","lng":"129.22465114","zcode":"31","zscode":"31710","kind":"H0","kindDetail":"H001"},{"statNm":"건강보험공단 울산남부지사","statId":"LH705700","addr":"울산광역시 남구 삼산로35번길 26","location":"null","lat":"35.535615890","lng":"129.31085611","zcode":"31","zscode":"31140","kind":"A0","kindDetail":"A003"},{"statNm":"369모텔","statId":"MO311401","addr":"울산광역시 남구 신복로6번길 25","location":"지상1층 입구 주차장","lat":"35.5499164","lng":"129.2621377","zcode":"31","zscode":"31140","kind":"E0","kindDetail":"E003"},{"statNm":"폴하우스커피","statId":"MO317104","addr":"울산광역시 울주군 두서면 반구대로 2342","location":"지상1층 건물 앞 주차장","lat":"35.688351","lng":"129.1864483","zcode":"31","zscode":"31710","kind":"E0","kindDetail":"E005"},{"statNm":"카페공칠삼이","statId":"MO317106","addr":"울산광역시 울주군 서생면 간절곶1길 25-6","location":"사업장 옥외주차장","lat":"35.359177","lng":"129.358845","zcode":"31","zscode":"31710","kind":"E0","kindDetail":"E005"},{"statNm":"언양농협 본점","statId":"NT100016","addr":"울산광역시 울주군 언양읍 헌양길 37","location":"null","lat":"37.56475727","lng":"129.1251795","zcode":"31","zscode":"31710","kind":"G0","kindDetail":"G004"},{"statNm":"울산 골드테라스 1","statId":"NT100111","addr":"울산광역시 북구 화산로 123","location":"null","lat":"35.60290779","lng":"129.3650652","zcode":"31","zscode":"31200","kind":"G0","kindDetail":"G004"},{"statNm":"울산 골드테라스2","statId":"NT100112","addr":"울산광역시 북구 화산로 123","location":"null","lat":"35.60290779","lng":"129.3650652","zcode":"31","zscode":"31200","kind":"G0","kindDetail":"G004"},{"statNm":"울산 휴먼골프존","statId":"NT100267","addr":"울산광역시 중구 태화강국가정원길 231-12","location":"null","lat":"35.551841300","lng":"129.30066086","zcode":"31","zscode":"31110","kind":"E0","kindDetail":"E004"},{"statNm":"울산광역시 LGBESTSHOP(범서점)","statId":"PI000124","addr":"울산광역시 울주군 울밀로 2860","location":"주차장","lat":"35.5565293","lng":"129.2606265","zcode":"31","zscode":"31710","kind":"H0","kindDetail":"H003"},{"statNm":"울산광역시 이마트(울산점)","statId":"PI000125","addr":"울산광역시 남구 남중로 48","location":"본관B1층 A구역","lat":"35.5380167","lng":"129.3483837","zcode":"31","zscode":"31140","kind":"E0","kindDetail":"E001"},{"statNm":"울산시 세이브존울산점","statId":"PI000636","addr":"울산광역시 남구 번영로 250번길 9","location":"null","lat":"35.548078536","lng":"129.324605633","zcode":"31","zscode":"31140","kind":"E0","kindDetail":"E001"},{"statNm":"울산시 중울산농협","statId":"PI000910","addr":"울산광역시 중구 번영로 564","location":"null","lat":"35.56804584544","lng":"129.3437759405","zcode":"31","zscode":"31110","kind":"I0","kindDetail":"I008"},{"statNm":"두동_DIC주유소","statId":"PI090009","addr":"울산광역시 울주군 두동면 봉계농공길 8 (봉계리, 디아이씨)","location":"null","lat":"35.7065","lng":"129.208","zcode":"31","zscode":"31710","kind":"E0","kindDetail":"E007"},{"statNm":"투게더주유소","statId":"PI090019","addr":"울산광역시 남구 신화로 101","location":"null","lat":"35.528886","lng":"129.341161","zcode":"31","zscode":"31140","kind":"E0","kindDetail":"E007"},{"statNm":"구영우미린2차아파트","statId":"PI121431","addr":"울산광역시 울주군 범서읍 대리로 15-17 (구영리, 구영우미린2차아파트) 701동~707동","location":"null","lat":"35.5727","lng":"129.243","zcode":"31","zscode":"31710","kind":"H0","kindDetail":"H001"},{"statNm":"대산골프프라자","statId":"PI122031","addr":"울산광역시 남구 두왕로154번길 13 (선암동)","location":"null","lat":"35.515400","lng":"129.311000","zcode":"31","zscode":"31140","kind":"E0","kindDetail":"E004"},{"statNm":"반천현대아파트","statId":"PI122034","addr":"울산광역시 울주군 언양읍 반천강변길 51 (반천리     반천현대아파트)","location":"null","lat":"35.557100","lng":"129.190000","zcode":"31","zscode":"31710","kind":"H0","kindDetail":"H001"},{"statNm":"야음동쌍용스윗닷홈아파트","statId":"PI122043","addr":"울산광역시 남구 야음로 33 (야음동     쌍용스윗닷홈아파트) 101동~108동","location":"null","lat":"35.525400","lng":"129.322000","zcode":"31","zscode":"31140","kind":"H0","kindDetail":"H001"},{"statNm":"호계동한양수자인1차","statId":"PI122045","addr":"울산광역시 북구 호수중앙로 46 (호계동     한양수자인1차)","location":"지하 1층 104동 3-4라인, 지상1층","lat":"35.6223","lng":"129.361","zcode":"31","zscode":"31200","kind":"H0","kindDetail":"H001"},{"statNm":"블루마시티효성해링턴플레이스2단지","statId":"PI122048","addr":"울산광역시 북구 강동산하5로 25 (산하동     블루마시티효성해링턴플레이스2단지)","location":"null","lat":"35.635100","lng":"129.439000","zcode":"31","zscode":"31200","kind":"H0","kindDetail":"H001"},{"statNm":"태화동우정혁신LH3단지","statId":"PI122049","addr":"울산광역시 중구 유곡로 99 (태화동     우정혁신LH3단지)","location":"null","lat":"35.559400","lng":"129.299000","zcode":"31","zscode":"31110","kind":"H0","kindDetail":"H001"},{"statNm":"복산2동주민센터","statId":"PI122156","addr":"울산광역시 중구 화합로 465 (복산동     복산2동주민센터)","location":"null","lat":"35.565700","lng":"129.334000","zcode":"31","zscode":"31110","kind":"A0","kindDetail":"A002"},{"statNm":"울산중앙동주민센터","statId":"PI122157","addr":"울산광역시 중구 중앙길 199 (학산동     중앙동주민센터)","location":"null","lat":"35.557500","lng":"129.324000","zcode":"31","zscode":"31110","kind":"A0","kindDetail":"A002"},{"statNm":"병영2동주민센터","statId":"PI122158","addr":"울산광역시 중구 병영성7길 9 (서동     병영2동주민센터)","location":"null","lat":"35.579400","lng":"129.346000","zcode":"31","zscode":"31110","kind":"A0","kindDetail":"A002"},{"statNm":"약사동주민센터","statId":"PI122159","addr":"울산광역시 중구 평산4길 38 (약사동     약사동주민센터)","location":"null","lat":"35.570400","lng":"129.337000","zcode":"31","zscode":"31110","kind":"A0","kindDetail":"A002"},{"statNm":"태화동주민센터","statId":"PI122160","addr":"울산광역시 중구 유곡로 45 (태화동     태화동주민센터)","location":"null","lat":"35.556500","lng":"129.304000","zcode":"31","zscode":"31110","kind":"A0","kindDetail":"A002"},{"statNm":"성안동주민센터","statId":"PI122161","addr":"울산광역시 중구 백양로 34 (성안동     성안동주민센터)","location":"null","lat":"35.581900","lng":"129.308000","zcode":"31","zscode":"31110","kind":"A0","kindDetail":"A002"},{"statNm":"복산1동주민센터","statId":"PI122162","addr":"울산광역시 중구 북부순환도로 610 (복산동     복산1동주민센터)","location":"null","lat":"35.563000","lng":"129.327000","zcode":"31","zscode":"31110","kind":"A0","kindDetail":"A002"},{"statNm":"병영1동주민센터","statId":"PI122163","addr":"울산광역시 중구 병영3길 8 (남외동     병영1동주민센터)","location":"null","lat":"35.570000","lng":"129.347000","zcode":"31","zscode":"31110","kind":"A0","kindDetail":"A002"},{"statNm":"다운동주민센터","statId":"PI122165","addr":"울산광역시 중구 운곡길 6 (다운동     다운동주민센터)","location":"null","lat":"35.556200","lng":"129.276000","zcode":"31","zscode":"31110","kind":"A0","kindDetail":"A002"},{"statNm":"태화강서희스타힐스","statId":"PI122269","addr":"울산광역시 남구 남산로12번길 7-7 (무거동, 태화강서희스타힐스)","location":"null","lat":"35.552255","lng":"129.272431","zcode":"31","zscode":"31140","kind":"H0","kindDetail":"H001"},